{
  "meta": {
    "updated_at": "2026-02-17 23:12:59",
    "source": "CWA Auto Stations",
    "count": 799
  },
  "data": [
    {
      "city": "花蓮縣",
      "town": "秀林鄉",
      "name": "崇德",
      "temp": 19.0,
      "at": 16.76637246504611,
      "lat": 24.167948,
      "lon": 121.649251
    },
    {
      "city": "臺東縣",
      "town": "卑南鄉",
      "name": "富山",
      "temp": 19.4,
      "at": 19.710025359604977,
      "lat": 22.82419,
      "lon": 121.182756
    },
    {
      "city": "臺東縣",
      "town": "蘭嶼鄉",
      "name": "東清國小",
      "temp": 22.4,
      "at": 21.573805102238158,
      "lat": 22.058965,
      "lon": 121.556901
    },
    {
      "city": "臺東縣",
      "town": "綠島鄉",
      "name": "牛頭山",
      "temp": 20.5,
      "at": 18.337585889932605,
      "lat": 22.678485,
      "lon": 121.498883
    },
    {
      "city": "新北市",
      "town": "八里區",
      "name": "硬漢嶺",
      "temp": 9.4,
      "at": 5.716147739035904,
      "lat": 25.137872,
      "lon": 121.41814
    },
    {
      "city": "花蓮縣",
      "town": "秀林鄉",
      "name": "秀林",
      "temp": 10.3,
      "at": 9.02764728422307,
      "lat": 24.304668,
      "lon": 121.722972
    },
    {
      "city": "花蓮縣",
      "town": "秀林鄉",
      "name": "和仁",
      "temp": 18.4,
      "at": 17.387505610411907,
      "lat": 24.243199,
      "lon": 121.704304
    },
    {
      "city": "花蓮縣",
      "town": "秀林鄉",
      "name": "立霧山",
      "temp": 10.5,
      "at": 9.703071583880332,
      "lat": 24.185061,
      "lon": 121.633735
    },
    {
      "city": "臺中市",
      "town": "和平區",
      "name": "鞍馬山工作站",
      "temp": 7.4,
      "at": 6.068070531077302,
      "lat": 24.2681,
      "lon": 120.9926
    },
    {
      "city": "臺中市",
      "town": "和平區",
      "name": "大雪山埡口",
      "temp": 6.5,
      "at": 1.0251206471415761,
      "lat": 24.2744,
      "lon": 121.0224
    },
    {
      "city": "臺中市",
      "town": "和平區",
      "name": "小雪山天池",
      "temp": 5.4,
      "at": 3.7997079325933143,
      "lat": 24.2825,
      "lon": 121.0182
    },
    {
      "city": "臺中市",
      "town": "和平區",
      "name": "小雪山林道",
      "temp": 4.0,
      "at": -0.19332095924140758,
      "lat": 24.2968,
      "lon": 121.0283
    },
    {
      "city": "臺中市",
      "town": "和平區",
      "name": "大雪山",
      "temp": 8.4,
      "at": 4.3481981859092045,
      "lat": 24.2562,
      "lon": 120.9991
    },
    {
      "city": "臺中市",
      "town": "和平區",
      "name": "出雲山苗圃",
      "temp": 14.0,
      "at": 14.440921654653774,
      "lat": 24.2328,
      "lon": 120.8965
    },
    {
      "city": "臺中市",
      "town": "和平區",
      "name": "八仙山苗圃",
      "temp": 15.6,
      "at": 16.000640785738813,
      "lat": 24.1944,
      "lon": 120.9932
    },
    {
      "city": "臺中市",
      "town": "和平區",
      "name": "中橫21.6k",
      "temp": 15.1,
      "at": 14.278076997125915,
      "lat": 24.2516,
      "lon": 121.1373
    },
    {
      "city": "苗栗縣",
      "town": "泰安鄉",
      "name": "松安",
      "temp": 14.1,
      "at": 11.80607458491441,
      "lat": 24.3996,
      "lon": 120.9778
    },
    {
      "city": "苗栗縣",
      "town": "泰安鄉",
      "name": "觀霧分站",
      "temp": 8.7,
      "at": 4.614577716160838,
      "lat": 24.5075,
      "lon": 121.1057
    },
    {
      "city": "新竹縣",
      "town": "五峰鄉",
      "name": "樂山林道6k",
      "temp": 7.1,
      "at": 2.681296582271864,
      "lat": 24.5017,
      "lon": 121.0795
    },
    {
      "city": "新竹縣",
      "town": "五峰鄉",
      "name": "大坪苗圃",
      "temp": 9.2,
      "at": 8.05912293611369,
      "lat": 24.5379,
      "lon": 121.1026
    },
    {
      "city": "桃園市",
      "town": "復興區",
      "name": "東眼山",
      "temp": 8.8,
      "at": 7.790172847093785,
      "lat": 24.8301,
      "lon": 121.4006
    },
    {
      "city": "桃園市",
      "town": "復興區",
      "name": "四稜",
      "temp": 8.7,
      "at": 6.685787643272352,
      "lat": 24.6796,
      "lon": 121.4211
    },
    {
      "city": "宜蘭縣",
      "town": "大同鄉",
      "name": "明池",
      "temp": 8.5,
      "at": 5.947450468242403,
      "lat": 24.6506,
      "lon": 121.4673
    },
    {
      "city": "宜蘭縣",
      "town": "大同鄉",
      "name": "太平山中間站",
      "temp": 10.1,
      "at": 7.869226163326761,
      "lat": 24.5437,
      "lon": 121.5052
    },
    {
      "city": "宜蘭縣",
      "town": "大同鄉",
      "name": "翠峰林道6K",
      "temp": 7.8,
      "at": 6.7981219766470495,
      "lat": 24.4995,
      "lon": 121.5604
    },
    {
      "city": "宜蘭縣",
      "town": "大同鄉",
      "name": "太平山莊",
      "temp": 7.5,
      "at": 6.465905772534487,
      "lat": 24.4959,
      "lon": 121.5281
    },
    {
      "city": "高雄市",
      "town": "大樹區",
      "name": "大樹",
      "temp": 18.1,
      "at": 17.26173827169996,
      "lat": 22.686423,
      "lon": 120.424748
    },
    {
      "city": "新北市",
      "town": "林口區",
      "name": "太平里",
      "temp": 13.8,
      "at": 12.185247842256533,
      "lat": 25.136709,
      "lon": 121.356668
    },
    {
      "city": "臺東縣",
      "town": "太麻里鄉",
      "name": "美和",
      "temp": 19.4,
      "at": 18.310025359604975,
      "lat": 22.683881,
      "lon": 121.052177
    },
    {
      "city": "臺東縣",
      "town": "臺東市",
      "name": "富岡",
      "temp": 20.4,
      "at": 20.916642970682158,
      "lat": 22.794274,
      "lon": 121.184602
    },
    {
      "city": "臺東縣",
      "town": "東河鄉",
      "name": "新蘭",
      "temp": 19.9,
      "at": 20.319758738839877,
      "lat": 22.871021,
      "lon": 121.215155
    },
    {
      "city": "臺東縣",
      "town": "東河鄉",
      "name": "興隆",
      "temp": 19.9,
      "at": 21.713268365608187,
      "lat": 22.915469,
      "lon": 121.249394
    },
    {
      "city": "臺東縣",
      "town": "成功鎮",
      "name": "叭嗡嗡",
      "temp": 20.1,
      "at": 14.993025602091201,
      "lat": 23.048871,
      "lon": 121.335138
    },
    {
      "city": "臺東縣",
      "town": "成功鎮",
      "name": "白守蓮",
      "temp": 19.6,
      "at": 17.686581351167234,
      "lat": 23.12858,
      "lon": 121.393824
    },
    {
      "city": "臺東縣",
      "town": "成功鎮",
      "name": "小港漁港",
      "temp": 18.9,
      "at": 18.832646300621604,
      "lat": 23.160368,
      "lon": 121.392338
    },
    {
      "city": "臺東縣",
      "town": "長濱鄉",
      "name": "長濱漁港",
      "temp": 18.8,
      "at": 16.672193613480005,
      "lat": 23.315454,
      "lon": 121.451891
    },
    {
      "city": "花蓮縣",
      "town": "花蓮市",
      "name": "花蓮漁港",
      "temp": 18.3,
      "at": 16.90597610161475,
      "lat": 23.997128,
      "lon": 121.63018
    },
    {
      "city": "花蓮縣",
      "town": "秀林鄉",
      "name": "加灣",
      "temp": 18.3,
      "at": 18.302932501705723,
      "lat": 24.083828,
      "lon": 121.600788
    },
    {
      "city": "花蓮縣",
      "town": "壽豐鄉",
      "name": "鹽寮",
      "temp": 18.4,
      "at": 16.614897565242273,
      "lat": 23.847418,
      "lon": 121.584524
    },
    {
      "city": "臺中市",
      "town": "大甲區",
      "name": "大甲溪埔",
      "temp": 14.2,
      "at": 10.043361292178579,
      "lat": 24.372375,
      "lon": 120.611895
    },
    {
      "city": "彰化縣",
      "town": "和美鎮",
      "name": "和美",
      "temp": 15.1,
      "at": 12.094596466226232,
      "lat": 24.106919,
      "lon": 120.483978
    },
    {
      "city": "屏東縣",
      "town": "滿州鄉",
      "name": "鼻頭",
      "temp": 21.5,
      "at": 16.63617462441013,
      "lat": 22.106107,
      "lon": 120.889862
    },
    {
      "city": "屏東縣",
      "town": "滿州鄉",
      "name": "興海",
      "temp": 21.5,
      "at": 21.227380189239508,
      "lat": 21.976985,
      "lon": 120.835907
    },
    {
      "city": "屏東縣",
      "town": "恆春鎮",
      "name": "後壁湖",
      "temp": 21.2,
      "at": 19.826138487009437,
      "lat": 21.94747,
      "lon": 120.737695
    },
    {
      "city": "屏東縣",
      "town": "恆春鎮",
      "name": "山海",
      "temp": 21.0,
      "at": 20.922679148842203,
      "lat": 21.989579,
      "lon": 120.701107
    },
    {
      "city": "屏東縣",
      "town": "車城鄉",
      "name": "竹坑",
      "temp": 22.5,
      "at": 20.359787324424364,
      "lat": 22.140248,
      "lon": 120.694128
    },
    {
      "city": "屏東縣",
      "town": "枋山鄉",
      "name": "加祿堂",
      "temp": 20.5,
      "at": 21.482577709939022,
      "lat": 22.338096,
      "lon": 120.613688
    },
    {
      "city": "臺南市",
      "town": "將軍區",
      "name": "鯤鯓國小",
      "temp": 16.9,
      "at": 12.848413790779304,
      "lat": 23.189624,
      "lon": 120.080813
    },
    {
      "city": "屏東縣",
      "town": "枋寮鄉",
      "name": "下寮",
      "temp": 20.4,
      "at": 20.444420116567017,
      "lat": 22.394648,
      "lon": 120.546743
    },
    {
      "city": "屏東縣",
      "town": "佳冬鄉",
      "name": "塭仔",
      "temp": 20.0,
      "at": 18.79057439174424,
      "lat": 22.418718,
      "lon": 120.511622
    },
    {
      "city": "高雄市",
      "town": "林園區",
      "name": "汕尾",
      "temp": 20.0,
      "at": 19.399328315544384,
      "lat": 22.479984,
      "lon": 120.407094
    },
    {
      "city": "高雄市",
      "town": "小港區",
      "name": "鳳鼻頭",
      "temp": 20.5,
      "at": 20.22694555244464,
      "lat": 22.510051,
      "lon": 120.351098
    },
    {
      "city": "高雄市",
      "town": "梓官區",
      "name": "蚵仔寮",
      "temp": 17.5,
      "at": 15.988346961231954,
      "lat": 22.727414,
      "lon": 120.244618
    },
    {
      "city": "高雄市",
      "town": "彌陀區",
      "name": "南寮",
      "temp": 17.8,
      "at": 16.22800607058498,
      "lat": 22.763381,
      "lon": 120.225866
    },
    {
      "city": "高雄市",
      "town": "彌陀區",
      "name": "文安",
      "temp": 18.0,
      "at": 16.502045275002462,
      "lat": 22.804288,
      "lon": 120.208308
    },
    {
      "city": "高雄市",
      "town": "茄萣區",
      "name": "興達",
      "temp": 17.3,
      "at": 16.82153051515839,
      "lat": 22.879517,
      "lon": 120.204681
    },
    {
      "city": "臺南市",
      "town": "安南區",
      "name": "城西",
      "temp": 16.7,
      "at": 12.862935513703164,
      "lat": 23.058558,
      "lon": 120.087492
    },
    {
      "city": "臺南市",
      "town": "安南區",
      "name": "四草",
      "temp": 16.9,
      "at": 13.00822792038494,
      "lat": 23.025295,
      "lon": 120.103558
    },
    {
      "city": "臺南市",
      "town": "北門區",
      "name": "蘆竹溝",
      "temp": 16.9,
      "at": 9.985018500647852,
      "lat": 23.236154,
      "lon": 120.088035
    },
    {
      "city": "臺南市",
      "town": "北門區",
      "name": "蚵寮",
      "temp": 16.9,
      "at": 11.931809080910757,
      "lat": 23.302745,
      "lon": 120.102281
    },
    {
      "city": "高雄市",
      "town": "前鎮區",
      "name": "前鎮",
      "temp": 19.6,
      "at": 19.6110054829401,
      "lat": 22.573925,
      "lon": 120.303144
    },
    {
      "city": "新北市",
      "town": "貢寮區",
      "name": "澳底",
      "temp": 14.1,
      "at": 12.457001799458236,
      "lat": 25.056993,
      "lon": 121.917036
    },
    {
      "city": "澎湖縣",
      "town": "七美鄉",
      "name": "七美",
      "temp": 18.1,
      "at": 12.983620440794894,
      "lat": 23.221053,
      "lon": 119.436809
    },
    {
      "city": "澎湖縣",
      "town": "望安鄉",
      "name": "望安",
      "temp": 17.2,
      "at": 8.961832448746268,
      "lat": 23.382282,
      "lon": 119.485981
    },
    {
      "city": "澎湖縣",
      "town": "湖西鄉",
      "name": "湖西",
      "temp": 17.8,
      "at": 9.280606525878852,
      "lat": 23.598035,
      "lon": 119.664639
    },
    {
      "city": "連江縣",
      "town": "北竿鄉",
      "name": "北竿",
      "temp": 10.2,
      "at": 5.5071370881317225,
      "lat": 26.222038,
      "lon": 119.966574
    },
    {
      "city": "金門縣",
      "town": "烈嶼鄉",
      "name": "九宮",
      "temp": 13.1,
      "at": 11.654443871629558,
      "lat": 24.425386,
      "lon": 118.232031
    },
    {
      "city": "屏東縣",
      "town": "新埤鄉",
      "name": "萬隆國小",
      "temp": 19.7,
      "at": 20.951731237008214,
      "lat": 22.509453,
      "lon": 120.579772
    },
    {
      "city": "苗栗縣",
      "town": "通霄鎮",
      "name": "白沙屯",
      "temp": 14.7,
      "at": 9.097016253542698,
      "lat": 24.551198,
      "lon": 120.688617
    },
    {
      "city": "屏東縣",
      "town": "內埔鄉",
      "name": "內埔",
      "temp": 20.3,
      "at": 21.18347319746332,
      "lat": 22.610267,
      "lon": 120.562662
    },
    {
      "city": "臺北市",
      "town": "士林區",
      "name": "科教館",
      "temp": 15.6,
      "at": 13.083594068087713,
      "lat": 25.098133,
      "lon": 121.508275
    },
    {
      "city": "宜蘭縣",
      "town": "頭城鎮",
      "name": "大溪漁港",
      "temp": 14.5,
      "at": 12.663986718996071,
      "lat": 24.943603,
      "lon": 121.894736
    },
    {
      "city": "宜蘭縣",
      "town": "頭城鎮",
      "name": "石城",
      "temp": 14.2,
      "at": 14.146697914787826,
      "lat": 24.982247,
      "lon": 121.942992
    },
    {
      "city": "基隆市",
      "town": "安樂區",
      "name": "大武崙",
      "temp": 14.0,
      "at": 13.531511617495703,
      "lat": 25.168464,
      "lon": 121.698758
    },
    {
      "city": "新北市",
      "town": "萬里區",
      "name": "野柳",
      "temp": 13.6,
      "at": 11.948536258229957,
      "lat": 25.208817,
      "lon": 121.681783
    },
    {
      "city": "新北市",
      "town": "淡水區",
      "name": "淡水觀海",
      "temp": 13.0,
      "at": 9.95582524441682,
      "lat": 25.186364,
      "lon": 121.400381
    },
    {
      "city": "桃園市",
      "town": "大園區",
      "name": "竹圍",
      "temp": 14.2,
      "at": 9.466694954439504,
      "lat": 25.114458,
      "lon": 121.231594
    },
    {
      "city": "桃園市",
      "town": "新屋區",
      "name": "中大臨海站",
      "temp": 14.2,
      "at": 12.876693967656731,
      "lat": 24.967883,
      "lon": 121.000364
    },
    {
      "city": "新北市",
      "town": "石門區",
      "name": "石門",
      "temp": 12.5,
      "at": 9.701107441631752,
      "lat": 25.275453,
      "lon": 121.592956
    },
    {
      "city": "桃園市",
      "town": "觀音區",
      "name": "觀音工業區",
      "temp": 14.1,
      "at": 9.844116176603647,
      "lat": 25.066525,
      "lon": 121.106631
    },
    {
      "city": "新竹市",
      "town": "北區",
      "name": "海天一線",
      "temp": 14.2,
      "at": 11.253362278961355,
      "lat": 24.833742,
      "lon": 120.906231
    },
    {
      "city": "新竹市",
      "town": "香山區",
      "name": "香山濕地",
      "temp": 14.0,
      "at": 10.048274163943296,
      "lat": 24.785386,
      "lon": 120.906781
    },
    {
      "city": "新北市",
      "town": "瑞芳區",
      "name": "水湳洞",
      "temp": 14.8,
      "at": 12.499553134364604,
      "lat": 25.125492,
      "lon": 121.854006
    },
    {
      "city": "基隆市",
      "town": "中正區",
      "name": "八斗子",
      "temp": 14.7,
      "at": 13.177684468165811,
      "lat": 25.146547,
      "lon": 121.783436
    },
    {
      "city": "新竹縣",
      "town": "新豐鄉",
      "name": "外湖",
      "temp": 13.7,
      "at": 11.985315260343736,
      "lat": 24.919492,
      "lon": 120.960497
    },
    {
      "city": "苗栗縣",
      "town": "後龍鎮",
      "name": "海埔",
      "temp": 14.8,
      "at": 8.847795217281735,
      "lat": 24.650519,
      "lon": 120.764242
    },
    {
      "city": "苗栗縣",
      "town": "通霄鎮",
      "name": "通霄漁港",
      "temp": 14.6,
      "at": 11.962014329494068,
      "lat": 24.500339,
      "lon": 120.665694
    },
    {
      "city": "臺中市",
      "town": "大甲區",
      "name": "松柏",
      "temp": 14.8,
      "at": 7.532355738011017,
      "lat": 24.430864,
      "lon": 120.609306
    },
    {
      "city": "臺中市",
      "town": "大安區",
      "name": "溫寮",
      "temp": 14.8,
      "at": 8.290597820928145,
      "lat": 24.373925,
      "lon": 120.574953
    },
    {
      "city": "苗栗縣",
      "town": "竹南鎮",
      "name": "龍鳳",
      "temp": 14.5,
      "at": 11.613986718996072,
      "lat": 24.701789,
      "lon": 120.850928
    },
    {
      "city": "宜蘭縣",
      "town": "礁溪鄉",
      "name": "淡江大學蘭陽校園",
      "temp": 13.0,
      "at": 13.567162218491468,
      "lat": 24.825033,
      "lon": 121.722172
    },
    {
      "city": "屏東縣",
      "town": "林邊鄉",
      "name": "林邊",
      "temp": 19.6,
      "at": 20.901499084277642,
      "lat": 22.465232,
      "lon": 120.52585
    },
    {
      "city": "新北市",
      "town": "淡水區",
      "name": "六塊厝",
      "temp": 13.4,
      "at": 10.360346285512799,
      "lat": 25.241776,
      "lon": 121.439863
    },
    {
      "city": "新北市",
      "town": "三芝區",
      "name": "田寮",
      "temp": 13.8,
      "at": 10.86903138041154,
      "lat": 25.271575,
      "lon": 121.480355
    },
    {
      "city": "桃園市",
      "town": "觀音區",
      "name": "新興坑尾",
      "temp": 13.3,
      "at": 8.006664923520884,
      "lat": 25.007827,
      "lon": 121.088851
    },
    {
      "city": "宜蘭縣",
      "town": "蘇澳鎮",
      "name": "蘇澳",
      "temp": 15.9,
      "at": 13.677171559891367,
      "lat": 24.59875,
      "lon": 121.848895
    },
    {
      "city": "宜蘭縣",
      "town": "壯圍鄉",
      "name": "壯圍",
      "temp": 16.1,
      "at": 14.441069351431967,
      "lat": 24.737723,
      "lon": 121.808046
    },
    {
      "city": "宜蘭縣",
      "town": "頭城鎮",
      "name": "北關",
      "temp": 15.3,
      "at": 13.996221960498062,
      "lat": 24.90902,
      "lon": 121.865211
    },
    {
      "city": "彰化縣",
      "town": "伸港鄉",
      "name": "防潮門",
      "temp": 15.2,
      "at": 10.225101096164751,
      "lat": 24.185242,
      "lon": 120.478972
    },
    {
      "city": "臺中市",
      "town": "龍井區",
      "name": "臺中電廠",
      "temp": 15.3,
      "at": 10.871722620251045,
      "lat": 24.216388,
      "lon": 120.482584
    },
    {
      "city": "彰化縣",
      "town": "福興鄉",
      "name": "福寶",
      "temp": 15.9,
      "at": 8.616151835126875,
      "lat": 24.046048,
      "lon": 120.373213
    },
    {
      "city": "彰化縣",
      "town": "大城鄉",
      "name": "三豐",
      "temp": 15.8,
      "at": 12.06447530139718,
      "lat": 23.883719,
      "lon": 120.281409
    },
    {
      "city": "雲林縣",
      "town": "口湖鄉",
      "name": "箔子寮",
      "temp": 16.7,
      "at": 12.295532288260517,
      "lat": 23.621487,
      "lon": 120.13192
    },
    {
      "city": "嘉義縣",
      "town": "布袋鎮",
      "name": "好美里",
      "temp": 16.5,
      "at": 12.029987981213601,
      "lat": 23.338176,
      "lon": 120.129936
    },
    {
      "city": "新北市",
      "town": "板橋區",
      "name": "板橋",
      "temp": 15.0,
      "at": 14.008752696419556,
      "lat": 25.012431,
      "lon": 121.440638
    },
    {
      "city": "連江縣",
      "town": "莒光鄉",
      "name": "東莒",
      "temp": 10.8,
      "at": 4.199181287876623,
      "lat": 25.966883,
      "lon": 119.9724
    },
    {
      "city": "澎湖縣",
      "town": "西嶼鄉",
      "name": "西嶼",
      "temp": 16.8,
      "at": 8.564568539768151,
      "lat": 23.564311,
      "lon": 119.460328
    },
    {
      "city": "澎湖縣",
      "town": "望安鄉",
      "name": "花嶼",
      "temp": 17.4,
      "at": 13.5807513174313,
      "lat": 23.401778,
      "lon": 119.314667
    },
    {
      "city": "金門縣",
      "town": "金沙鎮",
      "name": "金沙",
      "temp": 13.0,
      "at": 9.702537420349937,
      "lat": 24.489931,
      "lon": 118.400617
    },
    {
      "city": "金門縣",
      "town": "金寧鄉",
      "name": "金寧",
      "temp": 13.0,
      "at": 9.451200446275289,
      "lat": 24.459339,
      "lon": 118.320831
    },
    {
      "city": "金門縣",
      "town": "烏坵鄉",
      "name": "烏坵",
      "temp": 11.2,
      "at": -0.40656039277628864,
      "lat": 24.996081,
      "lon": 119.441347
    },
    {
      "city": "臺北市",
      "town": "松山區",
      "name": "松山",
      "temp": 14.6,
      "at": 13.316203070535032,
      "lat": 25.050492,
      "lon": 121.542203
    },
    {
      "city": "苗栗縣",
      "town": "後龍鎮",
      "name": "高鐵苗栗",
      "temp": 14.4,
      "at": 13.766656016675157,
      "lat": 24.609,
      "lon": 120.817906
    },
    {
      "city": "雲林縣",
      "town": "虎尾鎮",
      "name": "高鐵雲林",
      "temp": 15.2,
      "at": 14.411984638472575,
      "lat": 23.739206,
      "lon": 120.409817
    },
    {
      "city": "桃園市",
      "town": "龜山區",
      "name": "國一五楊N44K",
      "temp": 11.8,
      "at": 10.64680494457143,
      "lat": 25.065633,
      "lon": 121.332769
    },
    {
      "city": "基隆市",
      "town": "中正區",
      "name": "基隆嶼",
      "temp": 13.2,
      "at": 11.04810627457163,
      "lat": 25.1932,
      "lon": 121.775678
    },
    {
      "city": "臺東縣",
      "town": "蘭嶼鄉",
      "name": "蘭嶼高中",
      "temp": 21.8,
      "at": 22.86631947856311,
      "lat": 22.050931,
      "lon": 121.504119
    },
    {
      "city": "臺東縣",
      "town": "蘭嶼鄉",
      "name": "蘭嶼燈塔",
      "temp": 20.2,
      "at": 22.248779752793844,
      "lat": 22.083031,
      "lon": 121.495094
    },
    {
      "city": "新北市",
      "town": "石門區",
      "name": "白沙灣",
      "temp": 14.1,
      "at": 8.67504339114748,
      "lat": 25.284903,
      "lon": 121.510814
    },
    {
      "city": "高雄市",
      "town": "甲仙區",
      "name": "小林",
      "temp": 17.5,
      "at": 19.4918609796281,
      "lat": 23.150164,
      "lon": 120.625189
    },
    {
      "city": "桃園市",
      "town": "大溪區",
      "name": "大溪永福",
      "temp": 13.8,
      "at": 14.161155072894392,
      "lat": 24.894711,
      "lon": 121.316761
    },
    {
      "city": "宜蘭縣",
      "town": "大同鄉",
      "name": "玉蘭",
      "temp": 12.2,
      "at": 12.297595456046047,
      "lat": 24.677222,
      "lon": 121.578889
    },
    {
      "city": "宜蘭縣",
      "town": "五結鄉",
      "name": "五結",
      "temp": 15.5,
      "at": 16.018931608784015,
      "lat": 24.688722,
      "lon": 121.790222
    },
    {
      "city": "宜蘭縣",
      "town": "大同鄉",
      "name": "太平山",
      "temp": 5.8,
      "at": 4.769839828257481,
      "lat": 24.507222,
      "lon": 121.5175
    },
    {
      "city": "宜蘭縣",
      "town": "大同鄉",
      "name": "南山",
      "temp": 8.7,
      "at": 7.706997570383869,
      "lat": 24.439167,
      "lon": 121.373333
    },
    {
      "city": "宜蘭縣",
      "town": "員山鄉",
      "name": "雙連埤",
      "temp": 11.5,
      "at": 11.970122387555456,
      "lat": 24.754722,
      "lon": 121.633056
    },
    {
      "city": "宜蘭縣",
      "town": "頭城鎮",
      "name": "頭城",
      "temp": 16.2,
      "at": 14.12494663602147,
      "lat": 24.855031,
      "lon": 121.822586
    },
    {
      "city": "宜蘭縣",
      "town": "礁溪鄉",
      "name": "大礁溪",
      "temp": 12.1,
      "at": 12.750537074512767,
      "lat": 24.792836,
      "lon": 121.666839
    },
    {
      "city": "宜蘭縣",
      "town": "三星鄉",
      "name": "三星",
      "temp": 14.6,
      "at": 15.744580552616966,
      "lat": 24.669917,
      "lon": 121.644819
    },
    {
      "city": "宜蘭縣",
      "town": "員山鄉",
      "name": "內城",
      "temp": 15.0,
      "at": 16.334956866171083,
      "lat": 24.719928,
      "lon": 121.679461
    },
    {
      "city": "宜蘭縣",
      "town": "冬山鄉",
      "name": "冬山",
      "temp": 15.6,
      "at": 15.814082705067698,
      "lat": 24.635528,
      "lon": 121.7855
    },
    {
      "city": "宜蘭縣",
      "town": "礁溪鄉",
      "name": "礁溪",
      "temp": 15.9,
      "at": 17.075641972744627,
      "lat": 24.819336,
      "lon": 121.757397
    },
    {
      "city": "宜蘭縣",
      "town": "頭城鎮",
      "name": "龜山島",
      "temp": 11.6,
      "at": 8.879757477759476,
      "lat": 24.843392,
      "lon": 121.944947
    },
    {
      "city": "新北市",
      "town": "貢寮區",
      "name": "三貂角",
      "temp": 12.6,
      "at": 9.08767883438281,
      "lat": 25.009444,
      "lon": 121.993889
    },
    {
      "city": "宜蘭縣",
      "town": "羅東鎮",
      "name": "羅東",
      "temp": 15.2,
      "at": 15.877703603858599,
      "lat": 24.683636,
      "lon": 121.741144
    },
    {
      "city": "宜蘭縣",
      "town": "頭城鎮",
      "name": "鶯子嶺",
      "temp": 8.3,
      "at": 5.527923773545073,
      "lat": 24.899333,
      "lon": 121.784231
    },
    {
      "city": "宜蘭縣",
      "town": "壯圍鄉",
      "name": "大福",
      "temp": 15.4,
      "at": 15.902282578341872,
      "lat": 24.802436,
      "lon": 121.805683
    },
    {
      "city": "宜蘭縣",
      "town": "頭城鎮",
      "name": "坪林石牌",
      "temp": 11.2,
      "at": 10.418420989209114,
      "lat": 24.866578,
      "lon": 121.76575
    },
    {
      "city": "花蓮縣",
      "town": "秀林鄉",
      "name": "天祥",
      "temp": 14.9,
      "at": 15.670175365015304,
      "lat": 24.181389,
      "lon": 121.4875
    },
    {
      "city": "花蓮縣",
      "town": "壽豐鄉",
      "name": "東華",
      "temp": 16.3,
      "at": 18.402613588716633,
      "lat": 23.897056,
      "lon": 121.541694
    },
    {
      "city": "花蓮縣",
      "town": "壽豐鄉",
      "name": "鯉魚潭",
      "temp": 15.3,
      "at": 16.46496701235066,
      "lat": 23.937444,
      "lon": 121.500806
    },
    {
      "city": "花蓮縣",
      "town": "秀林鄉",
      "name": "水源",
      "temp": 13.2,
      "at": 14.19796373609853,
      "lat": 23.993718,
      "lon": 121.529043
    },
    {
      "city": "花蓮縣",
      "town": "鳳林鎮",
      "name": "鳳林山",
      "temp": 13.2,
      "at": 13.35796373609853,
      "lat": 23.737072,
      "lon": 121.411994
    },
    {
      "city": "花蓮縣",
      "town": "光復鄉",
      "name": "光復",
      "temp": 15.4,
      "at": 16.97655051418679,
      "lat": 23.662497,
      "lon": 121.416839
    },
    {
      "city": "花蓮縣",
      "town": "萬榮鄉",
      "name": "西林",
      "temp": 16.1,
      "at": 16.764369370330947,
      "lat": 23.813667,
      "lon": 121.433194
    },
    {
      "city": "花蓮縣",
      "town": "壽豐鄉",
      "name": "月眉山",
      "temp": 13.6,
      "at": 14.729834604272686,
      "lat": 23.811736,
      "lon": 121.531686
    },
    {
      "city": "花蓮縣",
      "town": "壽豐鄉",
      "name": "大坑",
      "temp": 14.1,
      "at": 14.978960207768996,
      "lat": 23.882433,
      "lon": 121.573839
    },
    {
      "city": "花蓮縣",
      "town": "豐濱鄉",
      "name": "加路蘭山",
      "temp": 12.2,
      "at": 10.92121985310821,
      "lat": 23.684706,
      "lon": 121.519219
    },
    {
      "city": "花蓮縣",
      "town": "壽豐鄉",
      "name": "水璉",
      "temp": 15.4,
      "at": 17.04655051418679,
      "lat": 23.798889,
      "lon": 121.534167
    },
    {
      "city": "花蓮縣",
      "town": "豐濱鄉",
      "name": "豐濱",
      "temp": 15.5,
      "at": 16.540824769662418,
      "lat": 23.585708,
      "lon": 121.506678
    },
    {
      "city": "花蓮縣",
      "town": "富里鄉",
      "name": "明里",
      "temp": 15.5,
      "at": 17.088812898648904,
      "lat": 23.210556,
      "lon": 121.254167
    },
    {
      "city": "花蓮縣",
      "town": "玉里鎮",
      "name": "玉里",
      "temp": 15.9,
      "at": 16.701053211304416,
      "lat": 23.323306,
      "lon": 121.331556
    },
    {
      "city": "花蓮縣",
      "town": "瑞穗鄉",
      "name": "舞鶴",
      "temp": 14.6,
      "at": 14.042958034698898,
      "lat": 23.469722,
      "lon": 121.365833
    },
    {
      "city": "花蓮縣",
      "town": "卓溪鄉",
      "name": "佳心",
      "temp": 13.0,
      "at": 13.933151296267518,
      "lat": 23.347464,
      "lon": 121.205061
    },
    {
      "city": "花蓮縣",
      "town": "光復鄉",
      "name": "富源",
      "temp": 14.8,
      "at": 15.433947927071781,
      "lat": 23.58975,
      "lon": 121.370389
    },
    {
      "city": "花蓮縣",
      "town": "吉安鄉",
      "name": "吉安光華",
      "temp": 17.9,
      "at": 17.351762510223736,
      "lat": 23.932733,
      "lon": 121.587003
    },
    {
      "city": "花蓮縣",
      "town": "鳳林鎮",
      "name": "鳳林",
      "temp": 16.1,
      "at": 17.573353979900492,
      "lat": 23.747917,
      "lon": 121.445278
    },
    {
      "city": "花蓮縣",
      "town": "卓溪鄉",
      "name": "卓溪",
      "temp": 16.4,
      "at": 18.041643581183575,
      "lat": 23.346133,
      "lon": 121.294748
    },
    {
      "city": "花蓮縣",
      "town": "新城鄉",
      "name": "新城",
      "temp": 18.0,
      "at": 17.134096635067365,
      "lat": 24.042289,
      "lon": 121.596724
    },
    {
      "city": "花蓮縣",
      "town": "秀林鄉",
      "name": "富世",
      "temp": 17.9,
      "at": 18.87937846484372,
      "lat": 24.149236,
      "lon": 121.621542
    },
    {
      "city": "花蓮縣",
      "town": "鳳林鎮",
      "name": "萬榮",
      "temp": 15.7,
      "at": 17.162348014139482,
      "lat": 23.711022,
      "lon": 121.411969
    },
    {
      "city": "花蓮縣",
      "town": "瑞穗鄉",
      "name": "瑞穗",
      "temp": 16.0,
      "at": 17.007092540561743,
      "lat": 23.525708,
      "lon": 121.382086
    },
    {
      "city": "花蓮縣",
      "town": "卓溪鄉",
      "name": "瑞穗林道",
      "temp": 11.1,
      "at": 11.059756825786375,
      "lat": 23.494642,
      "lon": 121.298764
    },
    {
      "city": "花蓮縣",
      "town": "壽豐鄉",
      "name": "蕃薯寮",
      "temp": 14.1,
      "at": 14.435970605691306,
      "lat": 23.740156,
      "lon": 121.531975
    },
    {
      "city": "花蓮縣",
      "town": "玉里鎮",
      "name": "德武",
      "temp": 15.6,
      "at": 17.43604798322213,
      "lat": 23.476069,
      "lon": 121.402597
    },
    {
      "city": "花蓮縣",
      "town": "玉里鎮",
      "name": "赤柯山",
      "temp": 12.0,
      "at": 11.780031069992432,
      "lat": 23.370733,
      "lon": 121.374825
    },
    {
      "city": "花蓮縣",
      "town": "富里鄉",
      "name": "東里",
      "temp": 16.1,
      "at": 17.29513091315379,
      "lat": 23.270336,
      "lon": 121.297364
    },
    {
      "city": "花蓮縣",
      "town": "秀林鄉",
      "name": "清水斷崖",
      "temp": 17.6,
      "at": 18.418342735170064,
      "lat": 24.2201,
      "lon": 121.680972
    },
    {
      "city": "花蓮縣",
      "town": "卓溪鄉",
      "name": "清水林道",
      "temp": 14.1,
      "at": 15.345970605691306,
      "lat": 23.273047,
      "lon": 121.180172
    },
    {
      "city": "花蓮縣",
      "town": "玉里鎮",
      "name": "安通山",
      "temp": 13.9,
      "at": 14.430731876394173,
      "lat": 23.292536,
      "lon": 121.340419
    },
    {
      "city": "花蓮縣",
      "town": "豐濱鄉",
      "name": "靜浦",
      "temp": 16.4,
      "at": 17.3515522378318,
      "lat": 23.456944,
      "lon": 121.486667
    },
    {
      "city": "臺東縣",
      "town": "長濱鄉",
      "name": "長濱",
      "temp": 16.7,
      "at": 17.563709710162005,
      "lat": 23.288611,
      "lon": 121.403889
    },
    {
      "city": "臺東縣",
      "town": "東河鄉",
      "name": "東河",
      "temp": 19.5,
      "at": 20.629437080416793,
      "lat": 22.973611,
      "lon": 121.298333
    },
    {
      "city": "臺東縣",
      "town": "綠島鄉",
      "name": "綠島",
      "temp": 19.9,
      "at": 15.42115284438843,
      "lat": 22.669025,
      "lon": 121.467267
    },
    {
      "city": "臺東縣",
      "town": "海端鄉",
      "name": "下馬",
      "temp": 13.5,
      "at": 14.545618016962827,
      "lat": 23.152222,
      "lon": 121.062222
    },
    {
      "city": "臺東縣",
      "town": "海端鄉",
      "name": "向陽",
      "temp": 6.8,
      "at": 5.986836487047448,
      "lat": 23.25,
      "lon": 120.978056
    },
    {
      "city": "臺東縣",
      "town": "海端鄉",
      "name": "紅石",
      "temp": 9.8,
      "at": 9.231901585694853,
      "lat": 23.070902,
      "lon": 121.11777
    },
    {
      "city": "臺東縣",
      "town": "池上鄉",
      "name": "池上",
      "temp": 15.3,
      "at": 15.834967012350656,
      "lat": 23.121389,
      "lon": 121.201667
    },
    {
      "city": "臺東縣",
      "town": "鹿野鄉",
      "name": "鹿野",
      "temp": 15.5,
      "at": 14.884848511689441,
      "lat": 22.919517,
      "lon": 121.114908
    },
    {
      "city": "臺東縣",
      "town": "達仁鄉",
      "name": "土坂",
      "temp": 19.6,
      "at": 22.132157219394365,
      "lat": 22.454908,
      "lon": 120.879528
    },
    {
      "city": "臺東縣",
      "town": "太麻里鄉",
      "name": "大溪山",
      "temp": 17.6,
      "at": 19.022168365249428,
      "lat": 22.48,
      "lon": 120.935278
    },
    {
      "city": "臺東縣",
      "town": "達仁鄉",
      "name": "南田",
      "temp": 21.6,
      "at": 22.27365637894101,
      "lat": 22.291944,
      "lon": 120.881944
    },
    {
      "city": "臺東縣",
      "town": "太麻里鄉",
      "name": "金崙",
      "temp": 18.5,
      "at": 20.45990370464034,
      "lat": 22.54,
      "lon": 120.958889
    },
    {
      "city": "臺東縣",
      "town": "太麻里鄉",
      "name": "太麻里",
      "temp": 15.8,
      "at": 16.586478568603937,
      "lat": 22.610825,
      "lon": 120.977275
    },
    {
      "city": "臺東縣",
      "town": "卑南鄉",
      "name": "知本",
      "temp": 15.7,
      "at": 17.514757563438803,
      "lat": 22.686667,
      "lon": 120.997583
    },
    {
      "city": "花蓮縣",
      "town": "富里鄉",
      "name": "富里",
      "temp": 15.4,
      "at": 15.716550514186792,
      "lat": 23.173442,
      "lon": 121.241286
    },
    {
      "city": "桃園市",
      "town": "中壢區",
      "name": "中壢",
      "temp": 13.1,
      "at": 11.200299634596513,
      "lat": 24.979428,
      "lon": 121.248156
    },
    {
      "city": "臺南市",
      "town": "柳營區",
      "name": "柳營",
      "temp": 16.3,
      "at": 15.030038599198974,
      "lat": 23.255089,
      "lon": 120.367158
    },
    {
      "city": "新竹縣",
      "town": "關西鎮",
      "name": "關西",
      "temp": 13.5,
      "at": 13.755959631411024,
      "lat": 24.799421,
      "lon": 121.165033
    },
    {
      "city": "嘉義縣",
      "town": "阿里山鄉",
      "name": "新美",
      "temp": 17.1,
      "at": 18.94244700757761,
      "lat": 23.339792,
      "lon": 120.675231
    },
    {
      "city": "彰化縣",
      "town": "永靖鄉",
      "name": "永靖",
      "temp": 15.6,
      "at": 15.370477906745485,
      "lat": 23.926458,
      "lon": 120.539392
    },
    {
      "city": "彰化縣",
      "town": "竹塘鄉",
      "name": "竹塘",
      "temp": 15.0,
      "at": 12.441067577812632,
      "lat": 23.85,
      "lon": 120.378628
    },
    {
      "city": "雲林縣",
      "town": "東勢鄉",
      "name": "雲林東勢",
      "temp": 15.6,
      "at": 12.780640785738811,
      "lat": 23.675939,
      "lon": 120.2476
    },
    {
      "city": "屏東縣",
      "town": "車城鄉",
      "name": "車城",
      "temp": 20.7,
      "at": 18.3169119963019,
      "lat": 22.075833,
      "lon": 120.708056
    },
    {
      "city": "屏東縣",
      "town": "春日鄉",
      "name": "大漢山",
      "temp": 10.0,
      "at": 7.665721307038574,
      "lat": 22.405861,
      "lon": 120.745083
    },
    {
      "city": "屏東縣",
      "town": "枋山鄉",
      "name": "枋山",
      "temp": 21.8,
      "at": 21.271228783859282,
      "lat": 22.248639,
      "lon": 120.653058
    },
    {
      "city": "屏東縣",
      "town": "枋寮鄉",
      "name": "枋寮",
      "temp": 20.8,
      "at": 22.067482212541197,
      "lat": 22.369511,
      "lon": 120.582611
    },
    {
      "city": "屏東縣",
      "town": "枋山鄉",
      "name": "楓港",
      "temp": 21.4,
      "at": 20.57015515476103,
      "lat": 22.191928,
      "lon": 120.684131
    },
    {
      "city": "屏東縣",
      "town": "滿州鄉",
      "name": "檳榔",
      "temp": 18.5,
      "at": 18.77968114947988,
      "lat": 22.077883,
      "lon": 120.828758
    },
    {
      "city": "屏東縣",
      "town": "牡丹鄉",
      "name": "牡丹",
      "temp": 18.4,
      "at": 19.691311503134028,
      "lat": 22.131817,
      "lon": 120.784589
    },
    {
      "city": "屏東縣",
      "town": "滿州鄉",
      "name": "佳樂水",
      "temp": 21.2,
      "at": 22.136138487009436,
      "lat": 21.995386,
      "lon": 120.853619
    },
    {
      "city": "屏東縣",
      "town": "恆春鎮",
      "name": "墾丁",
      "temp": 18.5,
      "at": 19.41001498222057,
      "lat": 21.968561,
      "lon": 120.802258
    },
    {
      "city": "屏東縣",
      "town": "牡丹鄉",
      "name": "旭海",
      "temp": 19.4,
      "at": 17.062493880109066,
      "lat": 22.207208,
      "lon": 120.879586
    },
    {
      "city": "屏東縣",
      "town": "恆春鎮",
      "name": "貓鼻頭",
      "temp": 20.8,
      "at": 21.308336417763236,
      "lat": 21.923578,
      "lon": 120.727792
    },
    {
      "city": "屏東縣",
      "town": "恆春鎮",
      "name": "墾雷",
      "temp": 21.3,
      "at": 21.389935971964157,
      "lat": 21.90265,
      "lon": 120.847244
    },
    {
      "city": "屏東縣",
      "town": "牡丹鄉",
      "name": "四林格山",
      "temp": 16.7,
      "at": 12.324483906620848,
      "lat": 22.078792,
      "lon": 120.794419
    },
    {
      "city": "屏東縣",
      "town": "恆春鎮",
      "name": "大坪頂",
      "temp": 19.4,
      "at": 18.829118574114517,
      "lat": 22.026433,
      "lon": 120.685536
    },
    {
      "city": "屏東縣",
      "town": "恆春鎮",
      "name": "龍磐",
      "temp": 20.4,
      "at": 17.575528700106446,
      "lat": 21.933481,
      "lon": 120.830933
    },
    {
      "city": "屏東縣",
      "town": "獅子鄉",
      "name": "獅子",
      "temp": 21.4,
      "at": 21.24180389303391,
      "lat": 22.204106,
      "lon": 120.69721
    },
    {
      "city": "宜蘭縣",
      "town": "南澳鄉",
      "name": "東澳",
      "temp": 14.9,
      "at": 15.8091626016639,
      "lat": 24.523767,
      "lon": 121.824986
    },
    {
      "city": "宜蘭縣",
      "town": "南澳鄉",
      "name": "南澳",
      "temp": 16.9,
      "at": 14.50464675985912,
      "lat": 24.451153,
      "lon": 121.802036
    },
    {
      "city": "花蓮縣",
      "town": "秀林鄉",
      "name": "和中",
      "temp": 16.3,
      "at": 16.972090870973304,
      "lat": 24.268567,
      "lon": 121.732861
    },
    {
      "city": "宜蘭縣",
      "town": "大同鄉",
      "name": "翠峰湖",
      "temp": 5.5,
      "at": 4.127276050287831,
      "lat": 24.51265,
      "lon": 121.599858
    },
    {
      "city": "花蓮縣",
      "town": "秀林鄉",
      "name": "和平林道",
      "temp": 12.8,
      "at": 13.474314730835886,
      "lat": 24.345722,
      "lon": 121.648142
    },
    {
      "city": "花蓮縣",
      "town": "秀林鄉",
      "name": "和平",
      "temp": 17.5,
      "at": 11.100813082782674,
      "lat": 24.308961,
      "lon": 121.761903
    },
    {
      "city": "宜蘭縣",
      "town": "南澳鄉",
      "name": "樟樹山",
      "temp": 12.3,
      "at": 11.445113855369422,
      "lat": 24.415731,
      "lon": 121.775067
    },
    {
      "city": "宜蘭縣",
      "town": "頭城鎮",
      "name": "桃源谷",
      "temp": 10.7,
      "at": 7.579149045494429,
      "lat": 24.964408,
      "lon": 121.880658
    },
    {
      "city": "宜蘭縣",
      "town": "南澳鄉",
      "name": "西帽山",
      "temp": 10.0,
      "at": 8.155721307038572,
      "lat": 24.557164,
      "lon": 121.794436
    },
    {
      "city": "宜蘭縣",
      "town": "南澳鄉",
      "name": "西德山",
      "temp": 8.5,
      "at": 5.777165431177735,
      "lat": 24.562447,
      "lon": 121.744417
    },
    {
      "city": "新北市",
      "town": "烏來區",
      "name": "福山植物園",
      "temp": 11.2,
      "at": 11.582243423443549,
      "lat": 24.762506,
      "lon": 121.573147
    },
    {
      "city": "宜蘭縣",
      "town": "大同鄉",
      "name": "鴛鴦湖",
      "temp": 6.5,
      "at": 5.690348529501712,
      "lat": 24.592053,
      "lon": 121.404039
    },
    {
      "city": "宜蘭縣",
      "town": "大同鄉",
      "name": "白嶺",
      "temp": 7.5,
      "at": 6.916742918457354,
      "lat": 24.529611,
      "lon": 121.510844
    },
    {
      "city": "宜蘭縣",
      "town": "大同鄉",
      "name": "土場",
      "temp": 12.9,
      "at": 13.163991967882058,
      "lat": 24.578356,
      "lon": 121.487153
    },
    {
      "city": "宜蘭縣",
      "town": "員山鄉",
      "name": "員山",
      "temp": 15.6,
      "at": 16.805885104228803,
      "lat": 24.746147,
      "lon": 121.714269
    },
    {
      "city": "桃園市",
      "town": "蘆竹區",
      "name": "蘆竹",
      "temp": 14.0,
      "at": 12.83033169181185,
      "lat": 25.086111,
      "lon": 121.2575
    },
    {
      "city": "新竹縣",
      "town": "橫山鄉",
      "name": "橫山",
      "temp": 13.4,
      "at": 13.09780538928068,
      "lat": 24.712925,
      "lon": 121.108733
    },
    {
      "city": "新竹縣",
      "town": "新豐鄉",
      "name": "新豐",
      "temp": 12.7,
      "at": 11.808942831980794,
      "lat": 24.872436,
      "lon": 120.969
    },
    {
      "city": "新竹縣",
      "town": "五峰鄉",
      "name": "雪霸",
      "temp": 9.5,
      "at": 8.109005503646417,
      "lat": 24.528722,
      "lon": 121.107917
    },
    {
      "city": "新竹縣",
      "town": "竹東鎮",
      "name": "竹東",
      "temp": 13.8,
      "at": 13.393278765377243,
      "lat": 24.76925,
      "lon": 121.049861
    },
    {
      "city": "桃園市",
      "town": "平鎮區",
      "name": "平鎮",
      "temp": 12.3,
      "at": 10.864959474799702,
      "lat": 24.899444,
      "lon": 121.206389
    },
    {
      "city": "桃園市",
      "town": "大溪區",
      "name": "大溪",
      "temp": 12.7,
      "at": 11.911957552628811,
      "lat": 24.884722,
      "lon": 121.256944
    },
    {
      "city": "苗栗縣",
      "town": "頭份市",
      "name": "頭份",
      "temp": 14.2,
      "at": 13.053361292178579,
      "lat": 24.69,
      "lon": 120.904167
    },
    {
      "city": "新竹縣",
      "town": "寶山鄉",
      "name": "寶山",
      "temp": 13.5,
      "at": 14.035959631411025,
      "lat": 24.736722,
      "lon": 121.016769
    },
    {
      "city": "苗栗縣",
      "town": "獅潭鄉",
      "name": "獅潭",
      "temp": 13.5,
      "at": 11.884993792855846,
      "lat": 24.541028,
      "lon": 120.911972
    },
    {
      "city": "桃園市",
      "town": "楊梅區",
      "name": "楊梅",
      "temp": 12.5,
      "at": 10.696903811823274,
      "lat": 24.914139,
      "lon": 121.134833
    },
    {
      "city": "新竹縣",
      "town": "湖口鄉",
      "name": "湖口",
      "temp": 12.9,
      "at": 9.90191015609797,
      "lat": 24.906556,
      "lon": 121.035417
    },
    {
      "city": "桃園市",
      "town": "龍潭區",
      "name": "龍潭",
      "temp": 11.9,
      "at": 10.602009942078112,
      "lat": 24.871833,
      "lon": 121.213194
    },
    {
      "city": "新竹市",
      "town": "東區",
      "name": "新竹市東區",
      "temp": 13.0,
      "at": 11.352510114790064,
      "lat": 24.800436,
      "lon": 120.978742
    },
    {
      "city": "苗栗縣",
      "town": "三灣鄉",
      "name": "大河",
      "temp": 13.9,
      "at": 13.156122094935046,
      "lat": 24.619833,
      "lon": 120.94055
    },
    {
      "city": "臺中市",
      "town": "和平區",
      "name": "桃山",
      "temp": 0.2,
      "at": -3.8763276568477973,
      "lat": 24.434519,
      "lon": 121.295628
    },
    {
      "city": "臺中市",
      "town": "和平區",
      "name": "雪山東峰",
      "temp": 1.7,
      "at": -2.2768944731496354,
      "lat": 24.390581,
      "lon": 121.263286
    },
    {
      "city": "臺中市",
      "town": "和平區",
      "name": "雪山圈谷",
      "temp": -1.6,
      "at": -5.06786019365074,
      "lat": 24.390375,
      "lon": 121.228197
    },
    {
      "city": "桃園市",
      "town": "龜山區",
      "name": "龜山",
      "temp": 12.5,
      "at": 11.41916043613635,
      "lat": 25.030231,
      "lon": 121.378336
    },
    {
      "city": "臺中市",
      "town": "和平區",
      "name": "審馬陣",
      "temp": 1.4,
      "at": -1.3032606537257942,
      "lat": 24.383461,
      "lon": 121.412122
    },
    {
      "city": "苗栗縣",
      "town": "苗栗市",
      "name": "苗栗",
      "temp": 13.9,
      "at": 11.843814776171104,
      "lat": 24.566667,
      "lon": 120.816444
    },
    {
      "city": "苗栗縣",
      "town": "銅鑼鄉",
      "name": "銅鑼",
      "temp": 15.4,
      "at": 15.230843339848825,
      "lat": 24.491528,
      "lon": 120.782639
    },
    {
      "city": "苗栗縣",
      "town": "西湖鄉",
      "name": "西湖",
      "temp": 14.0,
      "at": 10.292979182522334,
      "lat": 24.564417,
      "lon": 120.740278
    },
    {
      "city": "臺中市",
      "town": "大安區",
      "name": "大安",
      "temp": 14.3,
      "at": 9.80645253953043,
      "lat": 24.347444,
      "lon": 120.579972
    },
    {
      "city": "臺中市",
      "town": "后里區",
      "name": "后里",
      "temp": 14.1,
      "at": 13.942053789069789,
      "lat": 24.312111,
      "lon": 120.7215
    },
    {
      "city": "臺中市",
      "town": "豐原區",
      "name": "豐原",
      "temp": 16.3,
      "at": 17.372352229844967,
      "lat": 24.256306,
      "lon": 120.712333
    },
    {
      "city": "臺中市",
      "town": "潭子區",
      "name": "潭子",
      "temp": 14.5,
      "at": 14.406476198151804,
      "lat": 24.21475,
      "lon": 120.695833
    },
    {
      "city": "臺中市",
      "town": "清水區",
      "name": "清水",
      "temp": 14.5,
      "at": 8.736476198151804,
      "lat": 24.314028,
      "lon": 120.554083
    },
    {
      "city": "臺中市",
      "town": "外埔區",
      "name": "外埔",
      "temp": 14.8,
      "at": 12.333234696552452,
      "lat": 24.349556,
      "lon": 120.697472
    },
    {
      "city": "臺中市",
      "town": "龍井區",
      "name": "龍井",
      "temp": 15.0,
      "at": 11.937225018509169,
      "lat": 24.186278,
      "lon": 120.520833
    },
    {
      "city": "彰化縣",
      "town": "伸港鄉",
      "name": "伸港",
      "temp": 14.8,
      "at": 10.1369162587403,
      "lat": 24.150528,
      "lon": 120.476167
    },
    {
      "city": "苗栗縣",
      "town": "苑裡鎮",
      "name": "苑裡",
      "temp": 14.3,
      "at": 11.292772858838212,
      "lat": 24.441458,
      "lon": 120.644883
    },
    {
      "city": "臺中市",
      "town": "石岡區",
      "name": "石岡",
      "temp": 14.2,
      "at": 13.353362278961356,
      "lat": 24.277822,
      "lon": 120.769478
    },
    {
      "city": "臺中市",
      "town": "和平區",
      "name": "中坑",
      "temp": 15.1,
      "at": 16.017193811727832,
      "lat": 24.250283,
      "lon": 120.895153
    },
    {
      "city": "南投縣",
      "town": "魚池鄉",
      "name": "魚池",
      "temp": 15.4,
      "at": 16.47037189029018,
      "lat": 23.897478,
      "lon": 120.933219
    },
    {
      "city": "南投縣",
      "town": "國姓鄉",
      "name": "國姓",
      "temp": 15.1,
      "at": 15.62415487352719,
      "lat": 24.039567,
      "lon": 120.846925
    },
    {
      "city": "南投縣",
      "town": "仁愛鄉",
      "name": "仁愛",
      "temp": 15.1,
      "at": 15.395479651624314,
      "lat": 24.023903,
      "lon": 121.124056
    },
    {
      "city": "南投縣",
      "town": "水里鄉",
      "name": "水里",
      "temp": 15.2,
      "at": 15.531984638472576,
      "lat": 23.814322,
      "lon": 120.841658
    },
    {
      "city": "南投縣",
      "town": "集集鎮",
      "name": "集集",
      "temp": 14.4,
      "at": 15.26249001563296,
      "lat": 23.829972,
      "lon": 120.793328
    },
    {
      "city": "南投縣",
      "town": "名間鄉",
      "name": "名間",
      "temp": 14.4,
      "at": 14.63249001563296,
      "lat": 23.838817,
      "lon": 120.693306
    },
    {
      "city": "南投縣",
      "town": "仁愛鄉",
      "name": "萬大林道",
      "temp": 11.9,
      "at": 11.984833864380949,
      "lat": 23.930008,
      "lon": 121.083267
    },
    {
      "city": "南投縣",
      "town": "仁愛鄉",
      "name": "梅峰",
      "temp": 8.3,
      "at": 7.5536068226032675,
      "lat": 24.087056,
      "lon": 121.165414
    },
    {
      "city": "南投縣",
      "town": "信義鄉",
      "name": "玉山風口",
      "temp": -3.1,
      "at": -5.496417759516108,
      "lat": 23.472294,
      "lon": 120.947853
    },
    {
      "city": "南投縣",
      "town": "仁愛鄉",
      "name": "小奇萊",
      "temp": 1.6,
      "at": -3.7787548695955366,
      "lat": 24.13355,
      "lon": 121.287556
    },
    {
      "city": "南投縣",
      "town": "仁愛鄉",
      "name": "奇萊稜線",
      "temp": 0.2,
      "at": -9.245886522068481,
      "lat": 24.111019,
      "lon": 121.318297
    },
    {
      "city": "臺中市",
      "town": "大里區",
      "name": "大里",
      "temp": 17.2,
      "at": 17.938003068202285,
      "lat": 24.094389,
      "lon": 120.692194
    },
    {
      "city": "臺中市",
      "town": "烏日區",
      "name": "烏日",
      "temp": 15.2,
      "at": 13.847566926933467,
      "lat": 24.108833,
      "lon": 120.615917
    },
    {
      "city": "臺中市",
      "town": "西屯區",
      "name": "西屯",
      "temp": 14.7,
      "at": 13.7870162535427,
      "lat": 24.182028,
      "lon": 120.632861
    },
    {
      "city": "臺中市",
      "town": "南屯區",
      "name": "南屯",
      "temp": 15.3,
      "at": 14.104472950127537,
      "lat": 24.138861,
      "lon": 120.630111
    },
    {
      "city": "彰化縣",
      "town": "福興鄉",
      "name": "福興",
      "temp": 15.6,
      "at": 14.238838386577704,
      "lat": 24.042972,
      "lon": 120.429528
    },
    {
      "city": "彰化縣",
      "town": "秀水鄉",
      "name": "秀水",
      "temp": 15.4,
      "at": 14.135607615069503,
      "lat": 24.035917,
      "lon": 120.495722
    },
    {
      "city": "彰化縣",
      "town": "埔鹽鄉",
      "name": "埔鹽",
      "temp": 15.4,
      "at": 12.809900440731536,
      "lat": 24.002167,
      "lon": 120.423583
    },
    {
      "city": "彰化縣",
      "town": "埔心鄉",
      "name": "埔心",
      "temp": 16.7,
      "at": 17.313322611932584,
      "lat": 23.948694,
      "lon": 120.517611
    },
    {
      "city": "彰化縣",
      "town": "田尾鄉",
      "name": "田尾",
      "temp": 15.4,
      "at": 16.1656076150695,
      "lat": 23.903417,
      "lon": 120.501389
    },
    {
      "city": "彰化縣",
      "town": "埤頭鄉",
      "name": "埤頭",
      "temp": 15.2,
      "at": 13.89147068847424,
      "lat": 23.867806,
      "lon": 120.444722
    },
    {
      "city": "彰化縣",
      "town": "社頭鄉",
      "name": "社頭",
      "temp": 16.4,
      "at": 16.903150446913664,
      "lat": 23.899417,
      "lon": 120.578083
    },
    {
      "city": "彰化縣",
      "town": "二水鄉",
      "name": "二水",
      "temp": 16.2,
      "at": 16.364946636021468,
      "lat": 23.812778,
      "lon": 120.609028
    },
    {
      "city": "苗栗縣",
      "town": "造橋鄉",
      "name": "造橋",
      "temp": 14.2,
      "at": 13.683361292178578,
      "lat": 24.63875,
      "lon": 120.856583
    },
    {
      "city": "新竹縣",
      "town": "尖石鄉",
      "name": "梅花",
      "temp": 11.4,
      "at": 11.4718457347804,
      "lat": 24.680119,
      "lon": 121.200361
    },
    {
      "city": "新北市",
      "town": "坪林區",
      "name": "坪林",
      "temp": 11.8,
      "at": 11.200377699369461,
      "lat": 24.939975,
      "lon": 121.701531
    },
    {
      "city": "新北市",
      "town": "雙溪區",
      "name": "泰平",
      "temp": 11.6,
      "at": 11.959757477759474,
      "lat": 24.973056,
      "lon": 121.815278
    },
    {
      "city": "新北市",
      "town": "汐止區",
      "name": "五指山",
      "temp": 9.1,
      "at": 4.078457499067124,
      "lat": 25.133889,
      "lon": 121.600278
    },
    {
      "city": "新北市",
      "town": "汐止區",
      "name": "汐止",
      "temp": 14.5,
      "at": 14.54587487005141,
      "lat": 25.068667,
      "lon": 121.650556
    },
    {
      "city": "新北市",
      "town": "三峽區",
      "name": "三峽",
      "temp": 16.4,
      "at": 16.324657312643758,
      "lat": 24.940806,
      "lon": 121.3615
    },
    {
      "city": "臺北市",
      "town": "信義區",
      "name": "信義",
      "temp": 14.7,
      "at": 14.597183307198474,
      "lat": 25.039606,
      "lon": 121.556372
    },
    {
      "city": "臺北市",
      "town": "文山區",
      "name": "文山",
      "temp": 14.8,
      "at": 14.275871572176758,
      "lat": 25.004083,
      "lon": 121.567528
    },
    {
      "city": "新北市",
      "town": "新莊區",
      "name": "新莊",
      "temp": 14.3,
      "at": 14.335413497453786,
      "lat": 25.05325,
      "lon": 121.438528
    },
    {
      "city": "新北市",
      "town": "樹林區",
      "name": "山佳",
      "temp": 15.8,
      "at": 14.422698249665348,
      "lat": 24.976719,
      "lon": 121.393789
    },
    {
      "city": "新北市",
      "town": "烏來區",
      "name": "桶後",
      "temp": 14.1,
      "at": 15.099991401535927,
      "lat": 24.850056,
      "lon": 121.589639
    },
    {
      "city": "新北市",
      "town": "雙溪區",
      "name": "雙溪",
      "temp": 15.5,
      "at": 17.00887225371646,
      "lat": 25.037861,
      "lon": 121.856056
    },
    {
      "city": "新北市",
      "town": "瑞芳區",
      "name": "鼻頭角",
      "temp": 14.6,
      "at": 11.304039713310946,
      "lat": 25.130833,
      "lon": 121.915278
    },
    {
      "city": "新北市",
      "town": "萬里區",
      "name": "大坪",
      "temp": 11.3,
      "at": 10.05725254439399,
      "lat": 25.167694,
      "lon": 121.62475
    },
    {
      "city": "新北市",
      "town": "金山區",
      "name": "三和",
      "temp": 12.5,
      "at": 12.103364065944827,
      "lat": 25.234933,
      "lon": 121.586997
    },
    {
      "city": "新北市",
      "town": "金山區",
      "name": "金山",
      "temp": 13.6,
      "at": 14.40334287405905,
      "lat": 25.225278,
      "lon": 121.635556
    },
    {
      "city": "新北市",
      "town": "石碇區",
      "name": "石碇",
      "temp": 13.2,
      "at": 14.147984098737542,
      "lat": 24.995758,
      "lon": 121.654639
    },
    {
      "city": "桃園市",
      "town": "復興區",
      "name": "復興",
      "temp": 12.0,
      "at": 12.158027962993188,
      "lat": 24.822,
      "lon": 121.344094
    },
    {
      "city": "桃園市",
      "town": "八德區",
      "name": "八德",
      "temp": 13.7,
      "at": 13.75368250460954,
      "lat": 24.930528,
      "lon": 121.275
    },
    {
      "city": "新北市",
      "town": "中和區",
      "name": "中和",
      "temp": 14.5,
      "at": 13.620853828362868,
      "lat": 24.993403,
      "lon": 121.483569
    },
    {
      "city": "基隆市",
      "town": "暖暖區",
      "name": "暖暖",
      "temp": 14.6,
      "at": 14.65512139192299,
      "lat": 25.097533,
      "lon": 121.732069
    },
    {
      "city": "臺北市",
      "town": "士林區",
      "name": "天母",
      "temp": 15.8,
      "at": 15.242472034190417,
      "lat": 25.119253,
      "lon": 121.528939
    },
    {
      "city": "臺北市",
      "town": "士林區",
      "name": "社子",
      "temp": 15.4,
      "at": 15.477989752679843,
      "lat": 25.111389,
      "lon": 121.461389
    },
    {
      "city": "臺北市",
      "town": "北投區",
      "name": "大屯山",
      "temp": 7.3,
      "at": 5.480364818473767,
      "lat": 25.177333,
      "lon": 121.514167
    },
    {
      "city": "新北市",
      "town": "八里區",
      "name": "八里",
      "temp": 13.7,
      "at": 12.553275573419928,
      "lat": 25.15225,
      "lon": 121.395306
    },
    {
      "city": "新北市",
      "town": "蘆洲區",
      "name": "蘆洲",
      "temp": 15.3,
      "at": 14.778972290374554,
      "lat": 25.088528,
      "lon": 121.464056
    },
    {
      "city": "新北市",
      "town": "土城區",
      "name": "土城",
      "temp": 13.9,
      "at": 12.456122094935047,
      "lat": 24.974944,
      "lon": 121.436917
    },
    {
      "city": "新北市",
      "town": "鶯歌區",
      "name": "鶯歌",
      "temp": 15.1,
      "at": 15.46238850273103,
      "lat": 24.953,
      "lon": 121.33725
    },
    {
      "city": "新北市",
      "town": "永和區",
      "name": "永和",
      "temp": 14.8,
      "at": 13.943234696552452,
      "lat": 25.013028,
      "lon": 121.499889
    },
    {
      "city": "新北市",
      "town": "瑞芳區",
      "name": "五分山",
      "temp": 11.2,
      "at": 8.248420989209112,
      "lat": 25.073047,
      "lon": 121.772586
    },
    {
      "city": "臺北市",
      "town": "士林區",
      "name": "平等",
      "temp": 11.8,
      "at": 10.895973158502466,
      "lat": 25.130925,
      "lon": 121.568856
    },
    {
      "city": "新北市",
      "town": "林口區",
      "name": "林口",
      "temp": 11.9,
      "at": 10.59970097121455,
      "lat": 25.073953,
      "lon": 121.372611
    },
    {
      "city": "新北市",
      "town": "深坑區",
      "name": "深坑",
      "temp": 14.8,
      "at": 15.55043209290604,
      "lat": 25.004489,
      "lon": 121.620106
    },
    {
      "city": "基隆市",
      "town": "七堵區",
      "name": "七堵",
      "temp": 15.7,
      "at": 15.1910829390227,
      "lat": 25.096608,
      "lon": 121.708897
    },
    {
      "city": "新北市",
      "town": "五股區",
      "name": "五股",
      "temp": 13.3,
      "at": 12.738197390389896,
      "lat": 25.076228,
      "lon": 121.419053
    },
    {
      "city": "新北市",
      "town": "三重區",
      "name": "三重",
      "temp": 15.4,
      "at": 14.864168376576455,
      "lat": 25.059108,
      "lon": 121.4924
    },
    {
      "city": "臺北市",
      "town": "北投區",
      "name": "石牌",
      "temp": 16.8,
      "at": 17.069593919781788,
      "lat": 25.117336,
      "lon": 121.504825
    },
    {
      "city": "臺東縣",
      "town": "金峰鄉",
      "name": "金峰嘉蘭",
      "temp": 18.0,
      "at": 19.97332623409382,
      "lat": 22.596589,
      "lon": 120.952772
    },
    {
      "city": "臺東縣",
      "town": "延平鄉",
      "name": "延平",
      "temp": 16.9,
      "at": 18.725761982225308,
      "lat": 22.904381,
      "lon": 121.075983
    },
    {
      "city": "臺東縣",
      "town": "長濱鄉",
      "name": "石寧山",
      "temp": 17.2,
      "at": 18.433320590378226,
      "lat": 23.225581,
      "lon": 121.398542
    },
    {
      "city": "臺東縣",
      "town": "東河鄉",
      "name": "七塊厝",
      "temp": 15.7,
      "at": 16.764878164373037,
      "lat": 22.957525,
      "lon": 121.221089
    },
    {
      "city": "臺東縣",
      "town": "臺東市",
      "name": "知本(水試所)",
      "temp": 19.6,
      "at": 20.48149908427764,
      "lat": 22.704053,
      "lon": 121.074603
    },
    {
      "city": "臺東縣",
      "town": "太麻里鄉",
      "name": "香蘭",
      "temp": 19.8,
      "at": 21.269532189931464,
      "lat": 22.589372,
      "lon": 120.985322
    },
    {
      "city": "臺東縣",
      "town": "大武鄉",
      "name": "加津林",
      "temp": 21.3,
      "at": 23.07622248685205,
      "lat": 22.418014,
      "lon": 120.9189
    },
    {
      "city": "臺東縣",
      "town": "達仁鄉",
      "name": "勝林山",
      "temp": 13.4,
      "at": 14.393522405802944,
      "lat": 22.432239,
      "lon": 120.885742
    },
    {
      "city": "臺東縣",
      "town": "大武鄉",
      "name": "山豬窟",
      "temp": 17.4,
      "at": 17.193335750016697,
      "lat": 22.320422,
      "lon": 120.849339
    },
    {
      "city": "臺東縣",
      "town": "太麻里鄉",
      "name": "歷坵",
      "temp": 16.1,
      "at": 17.724877065546174,
      "lat": 22.522769,
      "lon": 120.883803
    },
    {
      "city": "臺東縣",
      "town": "卑南鄉",
      "name": "檳榔四格山",
      "temp": 15.4,
      "at": 16.49893265179713,
      "lat": 22.811789,
      "lon": 121.101247
    },
    {
      "city": "臺東縣",
      "town": "太麻里鄉",
      "name": "金崙山",
      "temp": 13.3,
      "at": 13.490649337380326,
      "lat": 22.569219,
      "lon": 120.951617
    },
    {
      "city": "臺東縣",
      "town": "成功鎮",
      "name": "都歷",
      "temp": 19.4,
      "at": 19.150025359604975,
      "lat": 23.022142,
      "lon": 121.315558
    },
    {
      "city": "臺東縣",
      "town": "達仁鄉",
      "name": "達仁林場",
      "temp": 16.7,
      "at": 18.388903259276717,
      "lat": 22.266147,
      "lon": 120.815942
    },
    {
      "city": "屏東縣",
      "town": "牡丹鄉",
      "name": "牡丹池山",
      "temp": 15.6,
      "at": 14.426047983222134,
      "lat": 22.170192,
      "lon": 120.8332
    },
    {
      "city": "屏東縣",
      "town": "牡丹鄉",
      "name": "高士",
      "temp": 17.2,
      "at": 17.11949120983424,
      "lat": 22.123631,
      "lon": 120.828758
    },
    {
      "city": "屏東縣",
      "town": "來義鄉",
      "name": "白鷺",
      "temp": 16.1,
      "at": 17.944623217938563,
      "lat": 22.456067,
      "lon": 120.658178
    },
    {
      "city": "屏東縣",
      "town": "獅子鄉",
      "name": "內獅",
      "temp": 20.1,
      "at": 23.37953774800744,
      "lat": 22.306856,
      "lon": 120.634956
    },
    {
      "city": "屏東縣",
      "town": "獅子鄉",
      "name": "丹路",
      "temp": 20.3,
      "at": 20.018684424756334,
      "lat": 22.206281,
      "lon": 120.742964
    },
    {
      "city": "屏東縣",
      "town": "滿州鄉",
      "name": "九棚",
      "temp": 20.5,
      "at": 14.230705777436619,
      "lat": 22.143756,
      "lon": 120.886331
    },
    {
      "city": "屏東縣",
      "town": "滿州鄉",
      "name": "滿州",
      "temp": 20.5,
      "at": 19.709457822435013,
      "lat": 22.026208,
      "lon": 120.831875
    },
    {
      "city": "屏東縣",
      "town": "車城鄉",
      "name": "保力",
      "temp": 20.0,
      "at": 21.191117393087357,
      "lat": 22.072925,
      "lon": 120.756094
    },
    {
      "city": "屏東縣",
      "town": "滿州鄉",
      "name": "南仁湖",
      "temp": 18.3,
      "at": 17.239997202092354,
      "lat": 22.086486,
      "lon": 120.855333
    },
    {
      "city": "南投縣",
      "town": "仁愛鄉",
      "name": "合歡山頂",
      "temp": 0.7,
      "at": -4.260554759016882,
      "lat": 24.144778,
      "lon": 121.264083
    },
    {
      "city": "臺中市",
      "town": "北屯區",
      "name": "大坑",
      "temp": 16.5,
      "at": 16.378180897102595,
      "lat": 24.174889,
      "lon": 120.714139
    },
    {
      "city": "彰化縣",
      "town": "溪湖鎮",
      "name": "溪湖",
      "temp": 16.2,
      "at": 16.22983532104273,
      "lat": 23.95175,
      "lon": 120.471056
    },
    {
      "city": "彰化縣",
      "town": "員林市",
      "name": "員林",
      "temp": 17.1,
      "at": 17.938825292625733,
      "lat": 23.948333,
      "lon": 120.577528
    },
    {
      "city": "南投縣",
      "town": "草屯鎮",
      "name": "草屯",
      "temp": 15.7,
      "at": 16.398793990657616,
      "lat": 23.975444,
      "lon": 120.672194
    },
    {
      "city": "彰化縣",
      "town": "芬園鄉",
      "name": "芬園",
      "temp": 14.3,
      "at": 14.748530623683717,
      "lat": 24.017222,
      "lon": 120.613056
    },
    {
      "city": "臺中市",
      "town": "東勢區",
      "name": "東勢",
      "temp": 14.9,
      "at": 15.431770259674746,
      "lat": 24.248194,
      "lon": 120.824917
    },
    {
      "city": "南投縣",
      "town": "竹山鎮",
      "name": "竹山",
      "temp": 15.4,
      "at": 16.037989752679845,
      "lat": 23.764722,
      "lon": 120.677778
    },
    {
      "city": "苗栗縣",
      "town": "泰安鄉",
      "name": "馬都安",
      "temp": 10.5,
      "at": 10.431240868041527,
      "lat": 24.453056,
      "lon": 120.921944
    },
    {
      "city": "苗栗縣",
      "town": "頭屋鄉",
      "name": "明德",
      "temp": 14.8,
      "at": 14.281476779469578,
      "lat": 24.58525,
      "lon": 120.877222
    },
    {
      "city": "苗栗縣",
      "town": "通霄鎮",
      "name": "通霄",
      "temp": 14.3,
      "at": 13.166452539530429,
      "lat": 24.473639,
      "lon": 120.696444
    },
    {
      "city": "臺中市",
      "town": "神岡區",
      "name": "神岡",
      "temp": 13.7,
      "at": 12.143682504609536,
      "lat": 24.274222,
      "lon": 120.650306
    },
    {
      "city": "苗栗縣",
      "town": "卓蘭鎮",
      "name": "卓蘭",
      "temp": 13.6,
      "at": 13.059447835930872,
      "lat": 24.314319,
      "lon": 120.816192
    },
    {
      "city": "臺中市",
      "town": "新社區",
      "name": "新社",
      "temp": 12.6,
      "at": 12.237678834382809,
      "lat": 24.201583,
      "lon": 120.8075
    },
    {
      "city": "南投縣",
      "town": "埔里鎮",
      "name": "埔里",
      "temp": 16.3,
      "at": 17.243117006860473,
      "lat": 23.973944,
      "lon": 120.944278
    },
    {
      "city": "南投縣",
      "town": "仁愛鄉",
      "name": "昆陽",
      "temp": 1.9,
      "at": -3.942763708790662,
      "lat": 24.123139,
      "lon": 121.265361
    },
    {
      "city": "南投縣",
      "town": "仁愛鄉",
      "name": "廬山",
      "temp": 12.7,
      "at": 12.628464912952818,
      "lat": 24.035,
      "lon": 121.173333
    },
    {
      "city": "臺中市",
      "town": "大雅區",
      "name": "大雅",
      "temp": 13.8,
      "at": 11.205247842256533,
      "lat": 24.217056,
      "lon": 120.616239
    },
    {
      "city": "南投縣",
      "town": "南投市",
      "name": "南投",
      "temp": 15.8,
      "at": 16.323586775531265,
      "lat": 23.913208,
      "lon": 120.679183
    },
    {
      "city": "彰化縣",
      "town": "花壇鄉",
      "name": "花壇",
      "temp": 16.9,
      "at": 16.295576111830943,
      "lat": 24.032075,
      "lon": 120.541314
    },
    {
      "city": "彰化縣",
      "town": "線西鄉",
      "name": "線西",
      "temp": 15.3,
      "at": 11.978972290374553,
      "lat": 24.141081,
      "lon": 120.435381
    },
    {
      "city": "臺中市",
      "town": "霧峰區",
      "name": "霧峰",
      "temp": 14.7,
      "at": 14.792266834026368,
      "lat": 24.043658,
      "lon": 120.691323
    },
    {
      "city": "雲林縣",
      "town": "虎尾鎮",
      "name": "虎尾",
      "temp": 15.3,
      "at": 15.205220640992085,
      "lat": 23.720939,
      "lon": 120.433911
    },
    {
      "city": "雲林縣",
      "town": "口湖鄉",
      "name": "宜梧",
      "temp": 16.1,
      "at": 14.050307808609123,
      "lat": 23.538014,
      "lon": 120.1612
    },
    {
      "city": "嘉義縣",
      "town": "義竹鄉",
      "name": "東後寮",
      "temp": 15.7,
      "at": 14.124998765307279,
      "lat": 23.371644,
      "lon": 120.239936
    },
    {
      "city": "臺南市",
      "town": "東山區",
      "name": "東河",
      "temp": 16.1,
      "at": 14.77954626578628,
      "lat": 23.298339,
      "lon": 120.377492
    },
    {
      "city": "臺南市",
      "town": "佳里區",
      "name": "佳里",
      "temp": 16.3,
      "at": 13.569012463311807,
      "lat": 23.175,
      "lon": 120.136667
    },
    {
      "city": "彰化縣",
      "town": "二林鎮",
      "name": "二林",
      "temp": 14.9,
      "at": 12.603365154334185,
      "lat": 23.905067,
      "lon": 120.367928
    },
    {
      "city": "臺南市",
      "town": "白河區",
      "name": "白河",
      "temp": 16.1,
      "at": 15.160561656216736,
      "lat": 23.349228,
      "lon": 120.406328
    },
    {
      "city": "嘉義縣",
      "town": "番路鄉",
      "name": "番路",
      "temp": 14.2,
      "at": 14.736695941222276,
      "lat": 23.466408,
      "lon": 120.546028
    },
    {
      "city": "臺南市",
      "town": "新營區",
      "name": "新營",
      "temp": 15.8,
      "at": 14.418029404860839,
      "lat": 23.312447,
      "lon": 120.308586
    },
    {
      "city": "臺南市",
      "town": "將軍區",
      "name": "將軍",
      "temp": 16.5,
      "at": 12.96456672888058,
      "lat": 23.216733,
      "lon": 120.127656
    },
    {
      "city": "雲林縣",
      "town": "褒忠鄉",
      "name": "褒忠",
      "temp": 15.3,
      "at": 13.137223280004033,
      "lat": 23.692672,
      "lon": 120.295503
    },
    {
      "city": "嘉義縣",
      "town": "溪口鄉",
      "name": "溪口",
      "temp": 15.5,
      "at": 14.237038447905611,
      "lat": 23.605872,
      "lon": 120.395439
    },
    {
      "city": "雲林縣",
      "town": "二崙鄉",
      "name": "二崙",
      "temp": 14.9,
      "at": 11.302783023026148,
      "lat": 23.77455,
      "lon": 120.400811
    },
    {
      "city": "嘉義縣",
      "town": "中埔鄉",
      "name": "中埔",
      "temp": 14.7,
      "at": 14.627016253542699,
      "lat": 23.427144,
      "lon": 120.514797
    },
    {
      "city": "臺南市",
      "town": "鹽水區",
      "name": "鹽水",
      "temp": 15.6,
      "at": 14.297198866409929,
      "lat": 23.274339,
      "lon": 120.239506
    },
    {
      "city": "臺南市",
      "town": "學甲區",
      "name": "學甲",
      "temp": 16.4,
      "at": 14.678995223130485,
      "lat": 23.2321,
      "lon": 120.174072
    },
    {
      "city": "臺南市",
      "town": "後壁區",
      "name": "後壁",
      "temp": 15.9,
      "at": 15.178701147038105,
      "lat": 23.368094,
      "lon": 120.354211
    },
    {
      "city": "雲林縣",
      "town": "西螺鎮",
      "name": "西螺",
      "temp": 15.1,
      "at": 13.494596466226234,
      "lat": 23.80215,
      "lon": 120.459253
    },
    {
      "city": "雲林縣",
      "town": "土庫鎮",
      "name": "土庫",
      "temp": 15.3,
      "at": 13.697223280004035,
      "lat": 23.680772,
      "lon": 120.387436
    },
    {
      "city": "嘉義縣",
      "town": "大林鎮",
      "name": "大林",
      "temp": 15.5,
      "at": 15.077038447905611,
      "lat": 23.602361,
      "lon": 120.450281
    },
    {
      "city": "嘉義縣",
      "town": "東石鄉",
      "name": "東石",
      "temp": 16.1,
      "at": 14.07954626578628,
      "lat": 23.460653,
      "lon": 120.145722
    },
    {
      "city": "嘉義縣",
      "town": "水上鄉",
      "name": "水上",
      "temp": 15.9,
      "at": 14.688701147038103,
      "lat": 23.421475,
      "lon": 120.380792
    },
    {
      "city": "嘉義市",
      "town": "東區",
      "name": "嘉義市東區",
      "temp": 16.2,
      "at": 16.11302989290444,
      "lat": 23.459414,
      "lon": 120.452408
    },
    {
      "city": "臺南市",
      "town": "白河區",
      "name": "關子嶺",
      "temp": 13.8,
      "at": 14.631000457290824,
      "lat": 23.332933,
      "lon": 120.499931
    },
    {
      "city": "臺南市",
      "town": "新化區",
      "name": "虎頭埤",
      "temp": 15.5,
      "at": 15.86899096385157,
      "lat": 23.023139,
      "lon": 120.339806
    },
    {
      "city": "臺南市",
      "town": "歸仁區",
      "name": "媽廟",
      "temp": 17.0,
      "at": 16.977628557148886,
      "lat": 22.993514,
      "lon": 120.285431
    },
    {
      "city": "臺南市",
      "town": "龍崎區",
      "name": "崎頂",
      "temp": 16.3,
      "at": 17.101326093957802,
      "lat": 22.961306,
      "lon": 120.361194
    },
    {
      "city": "臺南市",
      "town": "新市區",
      "name": "新市",
      "temp": 17.4,
      "at": 18.074459101138604,
      "lat": 23.063556,
      "lon": 120.290417
    },
    {
      "city": "臺南市",
      "town": "南化區",
      "name": "北寮",
      "temp": 17.7,
      "at": 18.964342715789034,
      "lat": 23.081611,
      "lon": 120.486944
    },
    {
      "city": "臺南市",
      "town": "善化區",
      "name": "善化",
      "temp": 16.6,
      "at": 16.766878150615458,
      "lat": 23.114444,
      "lon": 120.289444
    },
    {
      "city": "高雄市",
      "town": "桃源區",
      "name": "復興",
      "temp": 18.7,
      "at": 20.106395801916303,
      "lat": 23.224167,
      "lon": 120.797778
    },
    {
      "city": "臺南市",
      "town": "六甲區",
      "name": "王爺宮",
      "temp": 15.1,
      "at": 15.906752219028789,
      "lat": 23.223828,
      "lon": 120.392758
    },
    {
      "city": "臺南市",
      "town": "大內區",
      "name": "大內",
      "temp": 16.4,
      "at": 17.000228058805256,
      "lat": 23.120611,
      "lon": 120.35275
    },
    {
      "city": "高雄市",
      "town": "阿蓮區",
      "name": "阿蓮",
      "temp": 16.9,
      "at": 16.825204371042215,
      "lat": 22.884944,
      "lon": 120.319528
    },
    {
      "city": "臺南市",
      "town": "北區",
      "name": "臺南市北區",
      "temp": 16.5,
      "at": 14.628180897102595,
      "lat": 23.012167,
      "lon": 120.186333
    },
    {
      "city": "臺南市",
      "town": "南區",
      "name": "臺南市南區",
      "temp": 17.4,
      "at": 16.31532057866707,
      "lat": 22.963028,
      "lon": 120.180417
    },
    {
      "city": "臺南市",
      "town": "安平區",
      "name": "安平",
      "temp": 16.6,
      "at": 14.115062354214462,
      "lat": 22.994972,
      "lon": 120.144111
    },
    {
      "city": "臺南市",
      "town": "麻豆區",
      "name": "麻豆",
      "temp": 16.9,
      "at": 16.38539024143658,
      "lat": 23.185056,
      "lon": 120.2405
    },
    {
      "city": "臺南市",
      "town": "安定區",
      "name": "安定",
      "temp": 16.0,
      "at": 15.308641435694334,
      "lat": 23.104417,
      "lon": 120.219972
    },
    {
      "city": "臺南市",
      "town": "山上區",
      "name": "山上",
      "temp": 16.3,
      "at": 16.848247686296304,
      "lat": 23.077444,
      "lon": 120.355194
    },
    {
      "city": "臺南市",
      "town": "官田區",
      "name": "官田",
      "temp": 16.7,
      "at": 17.69967745573556,
      "lat": 23.195028,
      "lon": 120.307528
    },
    {
      "city": "臺南市",
      "town": "西港區",
      "name": "西港",
      "temp": 16.7,
      "at": 16.65774196458845,
      "lat": 23.127417,
      "lon": 120.195083
    },
    {
      "city": "臺南市",
      "town": "仁德區",
      "name": "仁德",
      "temp": 17.7,
      "at": 16.934342715789036,
      "lat": 22.970111,
      "lon": 120.249778
    },
    {
      "city": "嘉義縣",
      "town": "大埔鄉",
      "name": "表湖",
      "temp": 16.8,
      "at": 19.036497475729963,
      "lat": 23.243628,
      "lon": 120.633564
    },
    {
      "city": "屏東縣",
      "town": "泰武鄉",
      "name": "舊泰武",
      "temp": 16.2,
      "at": 17.59197469411724,
      "lat": 22.58995,
      "lon": 120.656922
    },
    {
      "city": "高雄市",
      "town": "茂林區",
      "name": "萬山",
      "temp": 19.7,
      "at": 21.52837852267959,
      "lat": 22.907694,
      "lon": 120.68
    },
    {
      "city": "高雄市",
      "town": "六龜區",
      "name": "六龜",
      "temp": 19.8,
      "at": 22.03351372981181,
      "lat": 22.99975,
      "lon": 120.625528
    },
    {
      "city": "屏東縣",
      "town": "里港鄉",
      "name": "里港",
      "temp": 18.6,
      "at": 20.10517878646154,
      "lat": 22.780972,
      "lon": 120.486528
    },
    {
      "city": "高雄市",
      "town": "左營區",
      "name": "左營",
      "temp": 18.0,
      "at": 17.40999391493756,
      "lat": 22.676689,
      "lon": 120.27685
    },
    {
      "city": "屏東縣",
      "town": "東港鎮",
      "name": "東港",
      "temp": 20.2,
      "at": 19.491134181230635,
      "lat": 22.464244,
      "lon": 120.432703
    },
    {
      "city": "屏東縣",
      "town": "竹田鄉",
      "name": "竹田",
      "temp": 20.0,
      "at": 21.184152546830195,
      "lat": 22.586642,
      "lon": 120.535392
    },
    {
      "city": "屏東縣",
      "town": "萬丹鄉",
      "name": "萬丹",
      "temp": 18.7,
      "at": 18.686534698027497,
      "lat": 22.590256,
      "lon": 120.477031
    },
    {
      "city": "屏東縣",
      "town": "霧臺鄉",
      "name": "阿禮",
      "temp": 16.1,
      "at": 17.22335397990049,
      "lat": 22.744444,
      "lon": 120.735556
    },
    {
      "city": "屏東縣",
      "town": "瑪家鄉",
      "name": "瑪家",
      "temp": 16.3,
      "at": 18.341587452829465,
      "lat": 22.684722,
      "lon": 120.678889
    },
    {
      "city": "高雄市",
      "town": "大樹區",
      "name": "溪埔",
      "temp": 18.1,
      "at": 18.664985404061984,
      "lat": 22.740278,
      "lon": 120.438611
    },
    {
      "city": "高雄市",
      "town": "燕巢區",
      "name": "阿公店",
      "temp": 18.2,
      "at": 18.506172766226143,
      "lat": 22.805944,
      "lon": 120.347444
    },
    {
      "city": "高雄市",
      "town": "內門區",
      "name": "內門",
      "temp": 16.1,
      "at": 17.122338589470033,
      "lat": 22.976944,
      "lon": 120.458333
    },
    {
      "city": "高雄市",
      "town": "田寮區",
      "name": "古亭坑",
      "temp": 16.3,
      "at": 17.8444045016193,
      "lat": 22.895,
      "lon": 120.393889
    },
    {
      "city": "屏東縣",
      "town": "琉球鄉",
      "name": "琉球嶼",
      "temp": 20.7,
      "at": 21.256911996301902,
      "lat": 22.334025,
      "lon": 120.354194
    },
    {
      "city": "高雄市",
      "town": "鳳山區",
      "name": "鳳山",
      "temp": 18.8,
      "at": 19.19075604155671,
      "lat": 22.648611,
      "lon": 120.348056
    },
    {
      "city": "屏東縣",
      "town": "鹽埔鄉",
      "name": "鹽埔",
      "temp": 18.5,
      "at": 20.03990370464034,
      "lat": 22.741342,
      "lon": 120.522697
    },
    {
      "city": "高雄市",
      "town": "小港區",
      "name": "鳳森",
      "temp": 19.2,
      "at": 19.293006567766934,
      "lat": 22.546944,
      "lon": 120.3845
    },
    {
      "city": "屏東縣",
      "town": "萬巒鄉",
      "name": "赤山",
      "temp": 21.1,
      "at": 24.77563923975441,
      "lat": 22.594139,
      "lon": 120.60625
    },
    {
      "city": "屏東縣",
      "town": "內埔鄉",
      "name": "三地門",
      "temp": 20.3,
      "at": 21.639858227739303,
      "lat": 22.711667,
      "lon": 120.631889
    },
    {
      "city": "屏東縣",
      "town": "潮州鎮",
      "name": "潮州",
      "temp": 20.3,
      "at": 21.48028068232533,
      "lat": 22.536139,
      "lon": 120.531972
    },
    {
      "city": "高雄市",
      "town": "新興區",
      "name": "新興",
      "temp": 18.8,
      "at": 18.407817894247064,
      "lat": 22.629111,
      "lon": 120.290583
    },
    {
      "city": "高雄市",
      "town": "湖內區",
      "name": "湖內",
      "temp": 16.9,
      "at": 15.738227920384936,
      "lat": 22.888889,
      "lon": 120.236444
    },
    {
      "city": "高雄市",
      "town": "永安區",
      "name": "永安",
      "temp": 17.1,
      "at": 16.976217149518778,
      "lat": 22.824944,
      "lon": 120.228806
    },
    {
      "city": "高雄市",
      "town": "大社區",
      "name": "大社",
      "temp": 18.4,
      "at": 18.923919548303658,
      "lat": 22.731944,
      "lon": 120.338583
    },
    {
      "city": "高雄市",
      "town": "梓官區",
      "name": "梓官",
      "temp": 17.8,
      "at": 17.563805918820357,
      "lat": 22.762444,
      "lon": 120.25925
    },
    {
      "city": "高雄市",
      "town": "路竹區",
      "name": "路竹",
      "temp": 17.8,
      "at": 18.12960576705573,
      "lat": 22.856639,
      "lon": 120.251361
    },
    {
      "city": "高雄市",
      "town": "茄萣區",
      "name": "茄萣",
      "temp": 17.1,
      "at": 16.066217149518778,
      "lat": 22.908444,
      "lon": 120.174583
    },
    {
      "city": "高雄市",
      "town": "岡山區",
      "name": "岡山",
      "temp": 18.1,
      "at": 18.036608970242998,
      "lat": 22.798844,
      "lon": 120.286889
    },
    {
      "city": "高雄市",
      "town": "彌陀區",
      "name": "彌陀",
      "temp": 17.8,
      "at": 16.81120546352648,
      "lat": 22.785583,
      "lon": 120.238278
    },
    {
      "city": "高雄市",
      "town": "橋頭區",
      "name": "橋頭",
      "temp": 18.0,
      "at": 17.27614799513227,
      "lat": 22.759583,
      "lon": 120.297694
    },
    {
      "city": "高雄市",
      "town": "仁武區",
      "name": "仁武",
      "temp": 18.2,
      "at": 18.23572009806742,
      "lat": 22.702861,
      "lon": 120.339667
    },
    {
      "city": "高雄市",
      "town": "三民區",
      "name": "三民",
      "temp": 19.1,
      "at": 20.295647266006725,
      "lat": 22.646917,
      "lon": 120.303278
    },
    {
      "city": "高雄市",
      "town": "鼓山區",
      "name": "鼓山",
      "temp": 18.8,
      "at": 18.339255466170357,
      "lat": 22.625139,
      "lon": 120.2675
    },
    {
      "city": "高雄市",
      "town": "苓雅區",
      "name": "苓雅",
      "temp": 19.9,
      "at": 20.89273948530325,
      "lat": 22.624528,
      "lon": 120.322583
    },
    {
      "city": "高雄市",
      "town": "旗山區",
      "name": "旗山",
      "temp": 18.4,
      "at": 18.783267537011252,
      "lat": 22.890389,
      "lon": 120.475528
    },
    {
      "city": "屏東縣",
      "town": "長治鄉",
      "name": "長治",
      "temp": 19.0,
      "at": 20.863715143266074,
      "lat": 22.694833,
      "lon": 120.534611
    },
    {
      "city": "屏東縣",
      "town": "麟洛鄉",
      "name": "麟洛",
      "temp": 21.4,
      "at": 23.466750107852558,
      "lat": 22.652556,
      "lon": 120.519139
    },
    {
      "city": "屏東縣",
      "town": "南州鄉",
      "name": "南州",
      "temp": 19.9,
      "at": 20.01379724591313,
      "lat": 22.487694,
      "lon": 120.494694
    },
    {
      "city": "屏東縣",
      "town": "佳冬鄉",
      "name": "佳冬",
      "temp": 20.0,
      "at": 21.107187700573032,
      "lat": 22.421194,
      "lon": 120.544222
    },
    {
      "city": "屏東縣",
      "town": "高樹鄉",
      "name": "高樹",
      "temp": 19.1,
      "at": 19.93728995985833,
      "lat": 22.828222,
      "lon": 120.592722
    },
    {
      "city": "高雄市",
      "town": "大寮區",
      "name": "大寮",
      "temp": 19.6,
      "at": 20.04117001671928,
      "lat": 22.607389,
      "lon": 120.387667
    },
    {
      "city": "屏東縣",
      "town": "新園鄉",
      "name": "新園",
      "temp": 19.7,
      "at": 19.325083951336833,
      "lat": 22.545194,
      "lon": 120.4535
    },
    {
      "city": "屏東縣",
      "town": "崁頂鄉",
      "name": "崁頂",
      "temp": 20.2,
      "at": 21.717878486064347,
      "lat": 22.516639,
      "lon": 120.498972
    },
    {
      "city": "高雄市",
      "town": "林園區",
      "name": "林園",
      "temp": 20.7,
      "at": 20.904400209980388,
      "lat": 22.509583,
      "lon": 120.386556
    },
    {
      "city": "彰化縣",
      "town": "溪州鄉",
      "name": "溪州",
      "temp": 15.1,
      "at": 13.788076997125913,
      "lat": 23.853347,
      "lon": 120.490944
    },
    {
      "city": "雲林縣",
      "town": "斗南鎮",
      "name": "斗南",
      "temp": 15.2,
      "at": 12.63133401154911,
      "lat": 23.680478,
      "lon": 120.470231
    },
    {
      "city": "雲林縣",
      "town": "斗六市",
      "name": "斗六",
      "temp": 15.3,
      "at": 14.677223280004032,
      "lat": 23.722303,
      "lon": 120.532972
    },
    {
      "city": "嘉義縣",
      "town": "朴子市",
      "name": "朴子",
      "temp": 15.2,
      "at": 14.11445046924129,
      "lat": 23.436364,
      "lon": 120.230928
    },
    {
      "city": "雲林縣",
      "town": "北港鎮",
      "name": "北港",
      "temp": 15.4,
      "at": 12.987046853562553,
      "lat": 23.575803,
      "lon": 120.283672
    },
    {
      "city": "嘉義縣",
      "town": "太保市",
      "name": "太保",
      "temp": 15.5,
      "at": 14.879050318919123,
      "lat": 23.456792,
      "lon": 120.323303
    },
    {
      "city": "雲林縣",
      "town": "林內鄉",
      "name": "林內",
      "temp": 14.8,
      "at": 15.623234696552451,
      "lat": 23.750436,
      "lon": 120.601508
    },
    {
      "city": "彰化縣",
      "town": "大城鄉",
      "name": "大城",
      "temp": 15.2,
      "at": 13.484450469241292,
      "lat": 23.854225,
      "lon": 120.312789
    },
    {
      "city": "嘉義縣",
      "town": "民雄鄉",
      "name": "民雄",
      "temp": 15.8,
      "at": 15.338917930726755,
      "lat": 23.553497,
      "lon": 120.420331
    },
    {
      "city": "雲林縣",
      "town": "大埤鄉",
      "name": "大埤",
      "temp": 15.3,
      "at": 13.207223280004033,
      "lat": 23.647817,
      "lon": 120.4234
    },
    {
      "city": "雲林縣",
      "town": "莿桐鄉",
      "name": "莿桐",
      "temp": 14.9,
      "at": 13.332783023026149,
      "lat": 23.762947,
      "lon": 120.494247
    },
    {
      "city": "雲林縣",
      "town": "臺西鄉",
      "name": "臺西",
      "temp": 16.1,
      "at": 13.760561656216737,
      "lat": 23.703283,
      "lon": 120.189422
    },
    {
      "city": "雲林縣",
      "town": "水林鄉",
      "name": "水林",
      "temp": 16.0,
      "at": 15.749803107043778,
      "lat": 23.574658,
      "lon": 120.237839
    },
    {
      "city": "雲林縣",
      "town": "元長鄉",
      "name": "元長",
      "temp": 15.3,
      "at": 13.907223280004033,
      "lat": 23.651544,
      "lon": 120.306892
    },
    {
      "city": "嘉義縣",
      "town": "布袋鎮",
      "name": "布袋",
      "temp": 16.3,
      "at": 12.195934055650312,
      "lat": 23.382611,
      "lon": 120.159667
    },
    {
      "city": "嘉義縣",
      "town": "鹿草鄉",
      "name": "鹿草",
      "temp": 15.8,
      "at": 15.161583508324501,
      "lat": 23.413075,
      "lon": 120.300231
    },
    {
      "city": "嘉義縣",
      "town": "新港鄉",
      "name": "新港",
      "temp": 15.6,
      "at": 14.62391982607437,
      "lat": 23.555011,
      "lon": 120.3376
    },
    {
      "city": "嘉義縣",
      "town": "梅山鄉",
      "name": "梅山",
      "temp": 14.6,
      "at": 14.622014329494068,
      "lat": 23.587147,
      "lon": 120.547464
    },
    {
      "city": "嘉義縣",
      "town": "阿里山鄉",
      "name": "達邦",
      "temp": 15.0,
      "at": 15.66106757781263,
      "lat": 23.455769,
      "lon": 120.741403
    },
    {
      "city": "臺南市",
      "town": "白河區",
      "name": "鹿寮",
      "temp": 15.4,
      "at": 15.959900440731534,
      "lat": 23.387811,
      "lon": 120.469225
    },
    {
      "city": "嘉義縣",
      "town": "阿里山鄉",
      "name": "茶山",
      "temp": 17.2,
      "at": 18.821052035775594,
      "lat": 23.300847,
      "lon": 120.656664
    },
    {
      "city": "雲林縣",
      "town": "古坑鄉",
      "name": "棋山",
      "temp": 14.0,
      "at": 14.843569145364256,
      "lat": 23.688211,
      "lon": 120.595289
    },
    {
      "city": "雲林縣",
      "town": "水林鄉",
      "name": "蔦松",
      "temp": 15.9,
      "at": 14.09023073418484,
      "lat": 23.516064,
      "lon": 120.221625
    },
    {
      "city": "臺南市",
      "town": "北門區",
      "name": "北門",
      "temp": 16.4,
      "at": 12.326072835022075,
      "lat": 23.269517,
      "lon": 120.117367
    },
    {
      "city": "雲林縣",
      "town": "元長鄉",
      "name": "鹿南",
      "temp": 15.6,
      "at": 13.71391982607437,
      "lat": 23.640303,
      "lon": 120.355481
    },
    {
      "city": "桃園市",
      "town": "新屋區",
      "name": "桃園農改",
      "temp": 13.8,
      "at": 11.11934061161867,
      "lat": 24.952721,
      "lon": 121.022375
    },
    {
      "city": "臺東縣",
      "town": "成功鎮",
      "name": "成功",
      "temp": 19.2,
      "at": 17.90920700561806,
      "lat": 23.099296,
      "lon": 121.36534
    },
    {
      "city": "高雄市",
      "town": "旗津區",
      "name": "東沙島",
      "temp": 21.0,
      "at": 23.95750295651412,
      "lat": 20.70252,
      "lon": 116.722116
    },
    {
      "city": "花蓮縣",
      "town": "瑞穗鄉",
      "name": "加納納",
      "temp": 15.4,
      "at": 15.32131478940747,
      "lat": 23.468223,
      "lon": 121.351754
    },
    {
      "city": "臺南市",
      "town": "七股區",
      "name": "西濱N304K",
      "temp": 16.8,
      "at": 11.973604071787246,
      "lat": 23.10519,
      "lon": 120.078614
    },
    {
      "city": "臺東縣",
      "town": "鹿野鄉",
      "name": "二層坪",
      "temp": 16.8,
      "at": 17.27954315975451,
      "lat": 22.942853,
      "lon": 121.160303
    },
    {
      "city": "屏東縣",
      "town": "恆春鎮",
      "name": "恆春",
      "temp": 21.4,
      "at": 19.883452631306792,
      "lat": 22.0057,
      "lon": 120.738326
    },
    {
      "city": "雲林縣",
      "town": "古坑鄉",
      "name": "草嶺",
      "temp": 13.8,
      "at": 13.775093226652967,
      "lat": 23.597319,
      "lon": 120.685342
    },
    {
      "city": "南投縣",
      "town": "仁愛鄉",
      "name": "伊拿谷",
      "temp": 15.9,
      "at": 16.41768142227361,
      "lat": 23.964991,
      "lon": 121.080118
    },
    {
      "city": "新竹市",
      "town": "香山區",
      "name": "西濱S082K",
      "temp": 14.0,
      "at": 11.727684201101372,
      "lat": 24.753481,
      "lon": 120.896827
    },
    {
      "city": "臺東縣",
      "town": "臺東市",
      "name": "臺東",
      "temp": 19.7,
      "at": 20.327280332232004,
      "lat": 22.754017,
      "lon": 121.146522
    },
    {
      "city": "臺北市",
      "town": "北投區",
      "name": "鞍部",
      "temp": 8.3,
      "at": 6.857923773545071,
      "lat": 25.184365,
      "lon": 121.521495
    },
    {
      "city": "高雄市",
      "town": "路竹區",
      "name": "國一S336K",
      "temp": 16.7,
      "at": 16.48072583737523,
      "lat": 22.89593,
      "lon": 120.263097
    },
    {
      "city": "臺北市",
      "town": "大安區",
      "name": "大安森林",
      "temp": 14.4,
      "at": 14.51832401459076,
      "lat": 25.031331,
      "lon": 121.528056
    },
    {
      "city": "苗栗縣",
      "town": "通霄鎮",
      "name": "國三S140K",
      "temp": 14.1,
      "at": 9.808136972448269,
      "lat": 24.524106,
      "lon": 120.716822
    },
    {
      "city": "彰化縣",
      "town": "大村鄉",
      "name": "國一S207K",
      "temp": 15.0,
      "at": 12.595697340598782,
      "lat": 23.990053,
      "lon": 120.499939
    },
    {
      "city": "臺南市",
      "town": "官田區",
      "name": "西拉雅風管處",
      "temp": 15.9,
      "at": 14.786661697509118,
      "lat": 23.191241,
      "lon": 120.327209
    },
    {
      "city": "高雄市",
      "town": "岡山區",
      "name": "國一S346K",
      "temp": 17.0,
      "at": 16.724213741100026,
      "lat": 22.81399,
      "lon": 120.306103
    },
    {
      "city": "新北市",
      "town": "淡水區",
      "name": "淡水",
      "temp": 13.4,
      "at": 11.697805389280681,
      "lat": 25.166664,
      "lon": 121.440672
    },
    {
      "city": "高雄市",
      "town": "仁武區",
      "name": "國一N361K",
      "temp": 17.7,
      "at": 18.391059851578486,
      "lat": 22.682326,
      "lon": 120.320557
    },
    {
      "city": "新北市",
      "town": "泰山區",
      "name": "國一N039K",
      "temp": 12.3,
      "at": 12.262234658145175,
      "lat": 25.066207,
      "lon": 121.373771
    },
    {
      "city": "新竹縣",
      "town": "關西鎮",
      "name": "國三N085K",
      "temp": 13.1,
      "at": 11.227191456821732,
      "lat": 24.785096,
      "lon": 121.112895
    },
    {
      "city": "臺北市",
      "town": "中正區",
      "name": "臺北",
      "temp": 15.3,
      "at": 13.779973609880528,
      "lat": 25.039439,
      "lon": 121.506628
    },
    {
      "city": "南投縣",
      "town": "仁愛鄉",
      "name": "卓社",
      "temp": 13.5,
      "at": 13.825959631411024,
      "lat": 23.889672,
      "lon": 120.991946
    },
    {
      "city": "雲林縣",
      "town": "古坑鄉",
      "name": "荷苞",
      "temp": 12.1,
      "at": 12.58752633302251,
      "lat": 23.65948,
      "lon": 120.587023
    },
    {
      "city": "桃園市",
      "town": "大溪區",
      "name": "國三N063K",
      "temp": 12.6,
      "at": 11.275449386528958,
      "lat": 24.891285,
      "lon": 121.255387
    },
    {
      "city": "臺東縣",
      "town": "卑南鄉",
      "name": "利吉",
      "temp": 17.5,
      "at": 17.758482475029066,
      "lat": 22.864264,
      "lon": 121.146788
    },
    {
      "city": "南投縣",
      "town": "國姓鄉",
      "name": "國姓南港",
      "temp": 13.6,
      "at": 14.123342874059048,
      "lat": 23.912878,
      "lon": 120.838415
    },
    {
      "city": "花蓮縣",
      "town": "秀林鄉",
      "name": "合歡山",
      "temp": 1.3,
      "at": -4.266925508135325,
      "lat": 24.144972,
      "lon": 121.276071
    },
    {
      "city": "新北市",
      "town": "汐止區",
      "name": "國三S010K",
      "temp": 13.4,
      "at": 11.91526449304856,
      "lat": 25.081787,
      "lon": 121.639272
    },
    {
      "city": "嘉義市",
      "town": "東區",
      "name": "國三N295K",
      "temp": 14.4,
      "at": 14.37457301615406,
      "lat": 23.470361,
      "lon": 120.491261
    },
    {
      "city": "嘉義縣",
      "town": "大林鎮",
      "name": "國三N279K",
      "temp": 14.4,
      "at": 14.58457301615406,
      "lat": 23.597872,
      "lon": 120.515216
    },
    {
      "city": "基隆市",
      "town": "中山區",
      "name": "國三N002K",
      "temp": 13.3,
      "at": 13.479729857258913,
      "lat": 25.147619,
      "lon": 121.713466
    },
    {
      "city": "南投縣",
      "town": "魚池鄉",
      "name": "日月潭",
      "temp": 14.8,
      "at": 16.011311051447475,
      "lat": 23.883099,
      "lon": 120.899911
    },
    {
      "city": "雲林縣",
      "town": "林內鄉",
      "name": "國三N252K",
      "temp": 14.6,
      "at": 15.154039713310947,
      "lat": 23.775877,
      "lon": 120.632472
    },
    {
      "city": "新竹市",
      "town": "東區",
      "name": "國一N094K",
      "temp": 13.5,
      "at": 9.784993792855847,
      "lat": 24.799541,
      "lon": 121.000695
    },
    {
      "city": "臺北市",
      "town": "文山區",
      "name": "國三甲005K",
      "temp": 13.6,
      "at": 12.755939566144505,
      "lat": 25.003726,
      "lon": 121.589277
    },
    {
      "city": "苗栗縣",
      "town": "公館鄉",
      "name": "國一S132K",
      "temp": 13.8,
      "at": 10.331309688497958,
      "lat": 24.526272,
      "lon": 120.812648
    },
    {
      "city": "屏東縣",
      "town": "泰武鄉",
      "name": "泰武",
      "temp": 15.3,
      "at": 16.61771734222715,
      "lat": 22.608649,
      "lon": 120.689598
    },
    {
      "city": "彰化縣",
      "town": "芳苑鄉",
      "name": "芳苑",
      "temp": 15.7,
      "at": 14.194998765307279,
      "lat": 23.924,
      "lon": 120.311861
    },
    {
      "city": "花蓮縣",
      "town": "鳳林鎮",
      "name": "庄子底",
      "temp": 16.1,
      "at": 17.464369370330946,
      "lat": 23.719744,
      "lon": 121.486249
    },
    {
      "city": "臺南市",
      "town": "玉井區",
      "name": "玉井",
      "temp": 16.3,
      "at": 17.408247686296303,
      "lat": 23.127833,
      "lon": 120.452472
    },
    {
      "city": "臺南市",
      "town": "七股區",
      "name": "水試所海水繁養殖中心",
      "temp": 17.3,
      "at": 13.111530515158389,
      "lat": 23.122553,
      "lon": 120.071594
    },
    {
      "city": "南投縣",
      "town": "名間鄉",
      "name": "名間竹圍",
      "temp": 12.7,
      "at": 13.037077032385803,
      "lat": 23.861675,
      "lon": 120.629436
    },
    {
      "city": "彰化縣",
      "town": "和美鎮",
      "name": "國三N191K",
      "temp": 14.6,
      "at": 10.461473490188045,
      "lat": 24.141006,
      "lon": 120.513338
    },
    {
      "city": "南投縣",
      "town": "草屯鎮",
      "name": "國三S217K",
      "temp": 15.3,
      "at": 14.63247031111559,
      "lat": 24.008587,
      "lon": 120.645062
    },
    {
      "city": "嘉義縣",
      "town": "竹崎鄉",
      "name": "紫雲",
      "temp": 13.1,
      "at": 13.417536809907816,
      "lat": 23.496678,
      "lon": 120.532142
    },
    {
      "city": "桃園市",
      "town": "中壢區",
      "name": "農工中心",
      "temp": 13.2,
      "at": 11.848208087766704,
      "lat": 24.987706,
      "lon": 121.231626
    },
    {
      "city": "臺東縣",
      "town": "東河鄉",
      "name": "順那",
      "temp": 17.4,
      "at": 18.79876648878093,
      "lat": 23.043467,
      "lon": 121.285235
    },
    {
      "city": "南投縣",
      "town": "埔里鎮",
      "name": "中台",
      "temp": 14.4,
      "at": 14.950545349313693,
      "lat": 24.001373,
      "lon": 120.930591
    },
    {
      "city": "臺南市",
      "town": "官田區",
      "name": "國三S329K",
      "temp": 15.6,
      "at": 14.845885104228806,
      "lat": 23.214538,
      "lon": 120.347743
    },
    {
      "city": "金門縣",
      "town": "金城鎮",
      "name": "金門",
      "temp": 13.0,
      "at": 9.850531959237966,
      "lat": 24.408942,
      "lon": 118.281127
    },
    {
      "city": "基隆市",
      "town": "七堵區",
      "name": "國一S006K",
      "temp": 13.5,
      "at": 13.482720501297287,
      "lat": 25.088729,
      "lon": 121.678671
    },
    {
      "city": "澎湖縣",
      "town": "望安鄉",
      "name": "東吉島",
      "temp": 18.7,
      "at": 11.770437470749663,
      "lat": 23.258999,
      "lon": 119.659533
    },
    {
      "city": "嘉義縣",
      "town": "阿里山鄉",
      "name": "阿里山",
      "temp": 5.8,
      "at": 4.079043031692333,
      "lat": 23.509984,
      "lon": 120.805129
    },
    {
      "city": "新北市",
      "town": "新店區",
      "name": "新北",
      "temp": 13.7,
      "at": 12.45347903901473,
      "lat": 24.96099,
      "lon": 121.516977
    },
    {
      "city": "花蓮縣",
      "town": "富里鄉",
      "name": "六十石",
      "temp": 12.1,
      "at": 9.460537074512768,
      "lat": 23.226575,
      "lon": 121.310513
    },
    {
      "city": "彰化縣",
      "town": "二林鎮",
      "name": "移民庄",
      "temp": 15.3,
      "at": 12.704472950127538,
      "lat": 23.980148,
      "lon": 120.394687
    },
    {
      "city": "屏東縣",
      "town": "竹田鄉",
      "name": "國三S415K",
      "temp": 19.2,
      "at": 19.079766480196707,
      "lat": 22.569782,
      "lon": 120.519952
    },
    {
      "city": "屏東縣",
      "town": "牡丹鄉",
      "name": "高士國小",
      "temp": 19.8,
      "at": 20.335458349452843,
      "lat": 22.127335,
      "lon": 120.838508
    },
    {
      "city": "嘉義縣",
      "town": "大埔鄉",
      "name": "馬頭山",
      "temp": 17.5,
      "at": 18.874327101178825,
      "lat": 23.326389,
      "lon": 120.573611
    },
    {
      "city": "新北市",
      "town": "坪林區",
      "name": "四堵",
      "temp": 12.0,
      "at": 12.480031069992432,
      "lat": 24.894394,
      "lon": 121.737519
    },
    {
      "city": "臺南市",
      "town": "白河區",
      "name": "國三S311K",
      "temp": 15.4,
      "at": 14.082282578341875,
      "lat": 23.34815,
      "lon": 120.430789
    },
    {
      "city": "嘉義縣",
      "town": "梅山鄉",
      "name": "外寮",
      "temp": 13.2,
      "at": 12.508024824015571,
      "lat": 23.564411,
      "lon": 120.657572
    },
    {
      "city": "屏東縣",
      "town": "竹田鄉",
      "name": "竹田國中",
      "temp": 20.6,
      "at": 21.420627214029917,
      "lat": 22.617101,
      "lon": 120.516069
    },
    {
      "city": "臺東縣",
      "town": "卑南鄉",
      "name": "東改班鳩分場",
      "temp": 17.0,
      "at": 17.710415857678434,
      "lat": 22.831307,
      "lon": 121.069619
    },
    {
      "city": "臺中市",
      "town": "霧峰區",
      "name": "農業試驗所",
      "temp": 15.9,
      "at": 15.518191284655853,
      "lat": 24.033022,
      "lon": 120.679986
    },
    {
      "city": "嘉義縣",
      "town": "竹崎鄉",
      "name": "大華",
      "temp": 14.8,
      "at": 15.176916258740299,
      "lat": 23.484171,
      "lon": 120.6668
    },
    {
      "city": "新竹縣",
      "town": "湖口鄉",
      "name": "國一N077K",
      "temp": 12.4,
      "at": 10.315963262026006,
      "lat": 24.886763,
      "lon": 121.080688
    },
    {
      "city": "新北市",
      "town": "鶯歌區",
      "name": "國三S054K",
      "temp": 13.5,
      "at": 12.788857147076566,
      "lat": 24.940943,
      "lon": 121.315683
    },
    {
      "city": "嘉義縣",
      "town": "竹崎鄉",
      "name": "國三S290K",
      "temp": 15.1,
      "at": 15.739791157229433,
      "lat": 23.505867,
      "lon": 120.482631
    },
    {
      "city": "臺南市",
      "town": "下營區",
      "name": "茅港尾",
      "temp": 16.0,
      "at": 14.959544957855012,
      "lat": 23.207857,
      "lon": 120.254311
    },
    {
      "city": "臺中市",
      "town": "后里區",
      "name": "國一N158K",
      "temp": 13.5,
      "at": 13.100788824186925,
      "lat": 24.334121,
      "lon": 120.708967
    },
    {
      "city": "臺中市",
      "town": "和平區",
      "name": "烏石坑",
      "temp": 14.1,
      "at": 14.67607458491441,
      "lat": 24.275269,
      "lon": 120.939447
    },
    {
      "city": "苗栗縣",
      "town": "銅鑼鄉",
      "name": "國一S144K",
      "temp": 12.5,
      "at": 9.882390563197125,
      "lat": 24.438818,
      "lon": 120.770016
    },
    {
      "city": "彰化縣",
      "town": "芳苑鄉",
      "name": "西濱S189K",
      "temp": 15.0,
      "at": 10.27106757781263,
      "lat": 23.989603,
      "lon": 120.361463
    },
    {
      "city": "嘉義縣",
      "town": "阿里山鄉",
      "name": "里佳",
      "temp": 12.8,
      "at": 12.832170060158642,
      "lat": 23.390899,
      "lon": 120.708543
    },
    {
      "city": "南投縣",
      "town": "仁愛鄉",
      "name": "畢祿溪站",
      "temp": 9.3,
      "at": 7.7292702121696415,
      "lat": 24.22873,
      "lon": 121.300362
    },
    {
      "city": "高雄市",
      "town": "美濃區",
      "name": "美濃",
      "temp": 18.6,
      "at": 20.244627825651033,
      "lat": 22.900567,
      "lon": 120.511
    },
    {
      "city": "南投縣",
      "town": "仁愛鄉",
      "name": "馬烈霸",
      "temp": 9.1,
      "at": 7.979950049123097,
      "lat": 24.152982,
      "lon": 121.193613
    },
    {
      "city": "臺南市",
      "town": "安南區",
      "name": "安南",
      "temp": 16.6,
      "at": 16.580468173941142,
      "lat": 23.078333,
      "lon": 120.136667
    },
    {
      "city": "新北市",
      "town": "土城區",
      "name": "國三S037K",
      "temp": 14.1,
      "at": 13.662053789069788,
      "lat": 24.984141,
      "lon": 121.462821
    },
    {
      "city": "宜蘭縣",
      "town": "礁溪鄉",
      "name": "國五S031K",
      "temp": 15.6,
      "at": 15.709164144564362,
      "lat": 24.820942,
      "lon": 121.774168
    },
    {
      "city": "高雄市",
      "town": "路竹區",
      "name": "國一S342K",
      "temp": 16.8,
      "at": 16.019543159754512,
      "lat": 22.847321,
      "lon": 120.286935
    },
    {
      "city": "彰化縣",
      "town": "彰化市",
      "name": "國三N196K",
      "temp": 14.6,
      "at": 11.837284749147077,
      "lat": 24.108907,
      "lon": 120.546322
    },
    {
      "city": "嘉義縣",
      "town": "新港鄉",
      "name": "安和",
      "temp": 15.6,
      "at": 12.96719886640993,
      "lat": 23.515523,
      "lon": 120.30782
    },
    {
      "city": "花蓮縣",
      "town": "吉安鄉",
      "name": "吉安",
      "temp": 16.3,
      "at": 17.686456773393633,
      "lat": 23.947182,
      "lon": 121.539883
    },
    {
      "city": "臺南市",
      "town": "新營區",
      "name": "國一N288K",
      "temp": 15.1,
      "at": 13.12023274992847,
      "lat": 23.307846,
      "lon": 120.281937
    },
    {
      "city": "南投縣",
      "town": "國姓鄉",
      "name": "柑林",
      "temp": 14.4,
      "at": 14.508462348792595,
      "lat": 24.020426,
      "lon": 120.838924
    },
    {
      "city": "新竹縣",
      "town": "湖口鄉",
      "name": "國一S082K",
      "temp": 12.0,
      "at": 8.935229827192735,
      "lat": 24.878431,
      "lon": 121.038489
    },
    {
      "city": "臺南市",
      "town": "北門區",
      "name": "西濱S280K",
      "temp": 16.5,
      "at": 13.182759644769575,
      "lat": 23.30695,
      "lon": 120.140816
    },
    {
      "city": "臺中市",
      "town": "神岡區",
      "name": "國四E5K",
      "temp": 14.0,
      "at": 11.693569145364256,
      "lat": 24.298221,
      "lon": 120.634964
    },