{
  "meta": {
    "updated_at": "2026-06-06 17:59:45",
    "source": "CWA Auto Stations",
    "count": 821
  },
  "data": [
    {
      "city": "花蓮縣",
      "town": "秀林鄉",
      "name": "崇德",
      "temp": 29.6,
      "at": 35.2022557649727,
      "lat": 24.167948,
      "lon": 121.649251
    },
    {
      "city": "臺東縣",
      "town": "卑南鄉",
      "name": "富山",
      "temp": 28.8,
      "at": 34.260157868807205,
      "lat": 22.82419,
      "lon": 121.182756
    },
    {
      "city": "臺東縣",
      "town": "蘭嶼鄉",
      "name": "東清國小",
      "temp": 28.1,
      "at": 29.745126915007617,
      "lat": 22.058965,
      "lon": 121.556901
    },
    {
      "city": "臺東縣",
      "town": "綠島鄉",
      "name": "牛頭山",
      "temp": 29.2,
      "at": 35.1286885514668,
      "lat": 22.678485,
      "lon": 121.498883
    },
    {
      "city": "新北市",
      "town": "八里區",
      "name": "硬漢嶺",
      "temp": 21.8,
      "at": 24.785669974780127,
      "lat": 25.137872,
      "lon": 121.41814
    },
    {
      "city": "花蓮縣",
      "town": "秀林鄉",
      "name": "秀林",
      "temp": 23.4,
      "at": 26.33416999664278,
      "lat": 24.304668,
      "lon": 121.722972
    },
    {
      "city": "花蓮縣",
      "town": "秀林鄉",
      "name": "和仁",
      "temp": 28.9,
      "at": 35.36132895643632,
      "lat": 24.243199,
      "lon": 121.704304
    },
    {
      "city": "花蓮縣",
      "town": "秀林鄉",
      "name": "立霧山",
      "temp": 22.0,
      "at": 24.50092573081853,
      "lat": 24.185061,
      "lon": 121.633735
    },
    {
      "city": "臺中市",
      "town": "和平區",
      "name": "鞍馬山工作站",
      "temp": 17.0,
      "at": 18.1056073913648,
      "lat": 24.2681,
      "lon": 120.9926
    },
    {
      "city": "臺中市",
      "town": "和平區",
      "name": "大雪山埡口",
      "temp": 15.2,
      "at": 15.597703603858598,
      "lat": 24.2744,
      "lon": 121.0224
    },
    {
      "city": "臺中市",
      "town": "和平區",
      "name": "小雪山林道",
      "temp": 13.8,
      "at": 13.687062303532255,
      "lat": 24.2968,
      "lon": 121.0283
    },
    {
      "city": "臺中市",
      "town": "和平區",
      "name": "大雪山",
      "temp": 16.6,
      "at": 18.019078982004988,
      "lat": 24.2562,
      "lon": 120.9991
    },
    {
      "city": "臺中市",
      "town": "和平區",
      "name": "出雲山苗圃",
      "temp": 25.5,
      "at": 29.86067672825532,
      "lat": 24.2328,
      "lon": 120.8965
    },
    {
      "city": "臺中市",
      "town": "和平區",
      "name": "八仙山苗圃",
      "temp": 27.4,
      "at": 32.864974917712104,
      "lat": 24.1944,
      "lon": 120.9932
    },
    {
      "city": "臺中市",
      "town": "和平區",
      "name": "中橫21.6k",
      "temp": 22.2,
      "at": 25.268686982259265,
      "lat": 24.2516,
      "lon": 121.1373
    },
    {
      "city": "苗栗縣",
      "town": "泰安鄉",
      "name": "雪見",
      "temp": 17.8,
      "at": 18.22610690529041,
      "lat": 24.4277,
      "lon": 121.0052
    },
    {
      "city": "苗栗縣",
      "town": "泰安鄉",
      "name": "松安",
      "temp": 24.4,
      "at": 28.400522330760012,
      "lat": 24.3996,
      "lon": 120.9778
    },
    {
      "city": "苗栗縣",
      "town": "泰安鄉",
      "name": "觀霧分站",
      "temp": 17.4,
      "at": 18.57048944383786,
      "lat": 24.5075,
      "lon": 121.1057
    },
    {
      "city": "新竹縣",
      "town": "五峰鄉",
      "name": "樂山林道6k",
      "temp": 15.2,
      "at": 13.19147068847424,
      "lat": 24.5017,
      "lon": 121.0795
    },
    {
      "city": "新竹縣",
      "town": "五峰鄉",
      "name": "大坪苗圃",
      "temp": 24.0,
      "at": 26.902789073430828,
      "lat": 24.5379,
      "lon": 121.1026
    },
    {
      "city": "桃園市",
      "town": "復興區",
      "name": "東眼山",
      "temp": 21.3,
      "at": 24.687020805587483,
      "lat": 24.8301,
      "lon": 121.4006
    },
    {
      "city": "桃園市",
      "town": "復興區",
      "name": "四稜",
      "temp": 27.1,
      "at": 31.50604296706031,
      "lat": 24.6796,
      "lon": 121.4211
    },
    {
      "city": "宜蘭縣",
      "town": "大同鄉",
      "name": "明池",
      "temp": 24.4,
      "at": 29.502767767682677,
      "lat": 24.6506,
      "lon": 121.4673
    },
    {
      "city": "宜蘭縣",
      "town": "大同鄉",
      "name": "太平山中間站",
      "temp": 26.1,
      "at": 31.494182271921446,
      "lat": 24.5437,
      "lon": 121.5052
    },
    {
      "city": "宜蘭縣",
      "town": "大同鄉",
      "name": "翠峰林道6K",
      "temp": 17.8,
      "at": 19.55610690529041,
      "lat": 24.4995,
      "lon": 121.5604
    },
    {
      "city": "宜蘭縣",
      "town": "大同鄉",
      "name": "太平山莊",
      "temp": 19.0,
      "at": 20.891722151931045,
      "lat": 24.4959,
      "lon": 121.5281
    },
    {
      "city": "高雄市",
      "town": "大樹區",
      "name": "大樹",
      "temp": 31.5,
      "at": 34.183704730959484,
      "lat": 22.686423,
      "lon": 120.424748
    },
    {
      "city": "新北市",
      "town": "林口區",
      "name": "太平里",
      "temp": 26.5,
      "at": 30.973124072331892,
      "lat": 25.136709,
      "lon": 121.356668
    },
    {
      "city": "臺東縣",
      "town": "太麻里鄉",
      "name": "美和",
      "temp": 28.5,
      "at": 34.52763954084261,
      "lat": 22.683881,
      "lon": 121.052177
    },
    {
      "city": "臺東縣",
      "town": "臺東市",
      "name": "富岡",
      "temp": 28.8,
      "at": 33.21015786880721,
      "lat": 22.794274,
      "lon": 121.184602
    },
    {
      "city": "臺東縣",
      "town": "東河鄉",
      "name": "新蘭",
      "temp": 28.5,
      "at": 33.48964373222815,
      "lat": 22.871021,
      "lon": 121.215155
    },
    {
      "city": "臺東縣",
      "town": "東河鄉",
      "name": "興隆",
      "temp": 28.6,
      "at": 32.96408972305331,
      "lat": 22.915469,
      "lon": 121.249394
    },
    {
      "city": "臺東縣",
      "town": "成功鎮",
      "name": "叭嗡嗡",
      "temp": 28.4,
      "at": 30.65403252970576,
      "lat": 23.048871,
      "lon": 121.335138
    },
    {
      "city": "臺東縣",
      "town": "成功鎮",
      "name": "白守蓮",
      "temp": 28.5,
      "at": 32.64964373222816,
      "lat": 23.12858,
      "lon": 121.393824
    },
    {
      "city": "臺東縣",
      "town": "成功鎮",
      "name": "小港漁港",
      "temp": 28.7,
      "at": 33.956333147857336,
      "lat": 23.160368,
      "lon": 121.392338
    },
    {
      "city": "臺東縣",
      "town": "長濱鄉",
      "name": "長濱漁港",
      "temp": 28.4,
      "at": 31.035801106323404,
      "lat": 23.315454,
      "lon": 121.451891
    },
    {
      "city": "花蓮縣",
      "town": "花蓮市",
      "name": "花蓮漁港",
      "temp": 29.1,
      "at": 34.33095525676151,
      "lat": 23.997128,
      "lon": 121.63018
    },
    {
      "city": "花蓮縣",
      "town": "秀林鄉",
      "name": "加灣",
      "temp": 29.3,
      "at": 34.64769808173138,
      "lat": 24.083828,
      "lon": 121.600788
    },
    {
      "city": "花蓮縣",
      "town": "壽豐鄉",
      "name": "鹽寮",
      "temp": 28.8,
      "at": 33.09944641461401,
      "lat": 23.847418,
      "lon": 121.584524
    },
    {
      "city": "臺中市",
      "town": "大甲區",
      "name": "大甲溪埔",
      "temp": 28.5,
      "at": 33.64367307192701,
      "lat": 24.372375,
      "lon": 120.611895
    },
    {
      "city": "彰化縣",
      "town": "和美鎮",
      "name": "和美",
      "temp": 30.5,
      "at": 34.658027248300854,
      "lat": 24.106919,
      "lon": 120.483978
    },
    {
      "city": "屏東縣",
      "town": "滿州鄉",
      "name": "鼻頭",
      "temp": 29.9,
      "at": 35.462519652971324,
      "lat": 22.106107,
      "lon": 120.889862
    },
    {
      "city": "屏東縣",
      "town": "滿州鄉",
      "name": "興海",
      "temp": 29.3,
      "at": 33.83008735349259,
      "lat": 21.976985,
      "lon": 120.835907
    },
    {
      "city": "屏東縣",
      "town": "恆春鎮",
      "name": "後壁湖",
      "temp": 29.3,
      "at": 33.88818467143288,
      "lat": 21.94747,
      "lon": 120.737695
    },
    {
      "city": "屏東縣",
      "town": "恆春鎮",
      "name": "山海",
      "temp": 28.6,
      "at": 31.309046376532052,
      "lat": 21.989579,
      "lon": 120.701107
    },
    {
      "city": "屏東縣",
      "town": "車城鄉",
      "name": "竹坑",
      "temp": 29.1,
      "at": 34.621055810104835,
      "lat": 22.140248,
      "lon": 120.694128
    },
    {
      "city": "屏東縣",
      "town": "枋山鄉",
      "name": "加祿堂",
      "temp": 29.1,
      "at": 34.64351810260109,
      "lat": 22.338096,
      "lon": 120.613688
    },
    {
      "city": "臺南市",
      "town": "將軍區",
      "name": "鯤鯓國小",
      "temp": 29.6,
      "at": 34.204164938281664,
      "lat": 23.189624,
      "lon": 120.080813
    },
    {
      "city": "屏東縣",
      "town": "枋寮鄉",
      "name": "下寮",
      "temp": 29.6,
      "at": 34.39245594625243,
      "lat": 22.394648,
      "lon": 120.546743
    },
    {
      "city": "屏東縣",
      "town": "佳冬鄉",
      "name": "塭仔",
      "temp": 29.3,
      "at": 31.741990035552284,
      "lat": 22.418718,
      "lon": 120.511622
    },
    {
      "city": "高雄市",
      "town": "林園區",
      "name": "汕尾",
      "temp": 30.3,
      "at": 34.997098608641984,
      "lat": 22.479984,
      "lon": 120.407094
    },
    {
      "city": "高雄市",
      "town": "小港區",
      "name": "鳳鼻頭",
      "temp": 29.2,
      "at": 32.285573796103655,
      "lat": 22.510051,
      "lon": 120.351098
    },
    {
      "city": "高雄市",
      "town": "梓官區",
      "name": "蚵仔寮",
      "temp": 29.0,
      "at": 31.20002270205636,
      "lat": 22.727414,
      "lon": 120.244618
    },
    {
      "city": "高雄市",
      "town": "彌陀區",
      "name": "南寮",
      "temp": 29.5,
      "at": 32.6992176767663,
      "lat": 22.763381,
      "lon": 120.225866
    },
    {
      "city": "高雄市",
      "town": "彌陀區",
      "name": "文安",
      "temp": 31.4,
      "at": 35.515253276520866,
      "lat": 22.804288,
      "lon": 120.208308
    },
    {
      "city": "高雄市",
      "town": "茄萣區",
      "name": "興達",
      "temp": 30.3,
      "at": 34.009243678209884,
      "lat": 22.879517,
      "lon": 120.204681
    },
    {
      "city": "臺南市",
      "town": "安南區",
      "name": "城西",
      "temp": 29.6,
      "at": 32.73054677294346,
      "lat": 23.058558,
      "lon": 120.087492
    },
    {
      "city": "臺南市",
      "town": "安南區",
      "name": "四草",
      "temp": 29.6,
      "at": 31.9122557649727,
      "lat": 23.025295,
      "lon": 120.103558
    },
    {
      "city": "臺南市",
      "town": "北門區",
      "name": "蘆竹溝",
      "temp": 29.2,
      "at": 31.115737729581305,
      "lat": 23.236154,
      "lon": 120.088035
    },
    {
      "city": "臺南市",
      "town": "北門區",
      "name": "蚵寮",
      "temp": 29.5,
      "at": 31.596816814485024,
      "lat": 23.302745,
      "lon": 120.102281
    },
    {
      "city": "高雄市",
      "town": "前鎮區",
      "name": "前鎮",
      "temp": 32.0,
      "at": 38.261128361432036,
      "lat": 22.573925,
      "lon": 120.303144
    },
    {
      "city": "新北市",
      "town": "貢寮區",
      "name": "澳底",
      "temp": 26.6,
      "at": 29.977119505935875,
      "lat": 25.056993,
      "lon": 121.917036
    },
    {
      "city": "澎湖縣",
      "town": "七美鄉",
      "name": "七美",
      "temp": 29.5,
      "at": 34.39241703005534,
      "lat": 23.221053,
      "lon": 119.436809
    },
    {
      "city": "澎湖縣",
      "town": "望安鄉",
      "name": "望安",
      "temp": 30.4,
      "at": 33.94995413829838,
      "lat": 23.382282,
      "lon": 119.485981
    },
    {
      "city": "澎湖縣",
      "town": "湖西鄉",
      "name": "湖西",
      "temp": 30.5,
      "at": 34.45521644390377,
      "lat": 23.598035,
      "lon": 119.664639
    },
    {
      "city": "連江縣",
      "town": "北竿鄉",
      "name": "北竿",
      "temp": 25.3,
      "at": 27.726151449324814,
      "lat": 26.222038,
      "lon": 119.966574
    },
    {
      "city": "金門縣",
      "town": "烈嶼鄉",
      "name": "九宮",
      "temp": 26.7,
      "at": 31.400123873098302,
      "lat": 24.425386,
      "lon": 118.232031
    },
    {
      "city": "屏東縣",
      "town": "新埤鄉",
      "name": "萬隆國小",
      "temp": 30.0,
      "at": 34.43607245517363,
      "lat": 22.509453,
      "lon": 120.579772
    },
    {
      "city": "苗栗縣",
      "town": "通霄鎮",
      "name": "白沙屯",
      "temp": 26.9,
      "at": 31.15419357996599,
      "lat": 24.551198,
      "lon": 120.688617
    },
    {
      "city": "屏東縣",
      "town": "內埔鄉",
      "name": "內埔",
      "temp": 30.9,
      "at": 34.94336765180477,
      "lat": 22.610267,
      "lon": 120.562662
    },
    {
      "city": "臺北市",
      "town": "士林區",
      "name": "科教館",
      "temp": 27.5,
      "at": 34.036527993264315,
      "lat": 25.098133,
      "lon": 121.508275
    },
    {
      "city": "宜蘭縣",
      "town": "頭城鎮",
      "name": "大溪漁港",
      "temp": 29.2,
      "at": 34.209180351899725,
      "lat": 24.943603,
      "lon": 121.894736
    },
    {
      "city": "宜蘭縣",
      "town": "頭城鎮",
      "name": "石城",
      "temp": 26.6,
      "at": 30.352554913913615,
      "lat": 24.982247,
      "lon": 121.942992
    },
    {
      "city": "基隆市",
      "town": "安樂區",
      "name": "大武崙",
      "temp": 27.2,
      "at": 32.44666835185896,
      "lat": 25.168464,
      "lon": 121.698758
    },
    {
      "city": "新北市",
      "town": "萬里區",
      "name": "野柳",
      "temp": 25.9,
      "at": 29.963866406739925,
      "lat": 25.208817,
      "lon": 121.681783
    },
    {
      "city": "新北市",
      "town": "淡水區",
      "name": "淡水觀海",
      "temp": 26.4,
      "at": 30.640571725893395,
      "lat": 25.186364,
      "lon": 121.400381
    },
    {
      "city": "桃園市",
      "town": "大園區",
      "name": "竹圍",
      "temp": 27.0,
      "at": 31.45196809771152,
      "lat": 25.114458,
      "lon": 121.231594
    },
    {
      "city": "桃園市",
      "town": "新屋區",
      "name": "中大臨海站",
      "temp": 27.7,
      "at": 32.600213956025385,
      "lat": 24.967883,
      "lon": 121.000364
    },
    {
      "city": "新北市",
      "town": "石門區",
      "name": "石門",
      "temp": 25.2,
      "at": 30.16966516261084,
      "lat": 25.275453,
      "lon": 121.592956
    },
    {
      "city": "桃園市",
      "town": "觀音區",
      "name": "觀音工業區",
      "temp": 27.3,
      "at": 32.535826134108106,
      "lat": 25.066525,
      "lon": 121.106631
    },
    {
      "city": "新竹市",
      "town": "北區",
      "name": "海天一線",
      "temp": 27.8,
      "at": 32.583273889721404,
      "lat": 24.833742,
      "lon": 120.906231
    },
    {
      "city": "新竹市",
      "town": "香山區",
      "name": "香山濕地",
      "temp": 27.4,
      "at": 31.95541022301191,
      "lat": 24.785386,
      "lon": 120.906781
    },
    {
      "city": "新北市",
      "town": "瑞芳區",
      "name": "水湳洞",
      "temp": 26.2,
      "at": 31.472809212202485,
      "lat": 25.125492,
      "lon": 121.854006
    },
    {
      "city": "基隆市",
      "town": "中正區",
      "name": "八斗子",
      "temp": 26.6,
      "at": 30.60081328200262,
      "lat": 25.146547,
      "lon": 121.783436
    },
    {
      "city": "新竹縣",
      "town": "新豐鄉",
      "name": "外湖",
      "temp": 26.7,
      "at": 31.091082152769644,
      "lat": 24.919492,
      "lon": 120.960497
    },
    {
      "city": "苗栗縣",
      "town": "後龍鎮",
      "name": "海埔",
      "temp": 27.5,
      "at": 32.12351823440938,
      "lat": 24.650519,
      "lon": 120.764242
    },
    {
      "city": "苗栗縣",
      "town": "通霄鎮",
      "name": "通霄漁港",
      "temp": 26.7,
      "at": 30.790603012933964,
      "lat": 24.500339,
      "lon": 120.665694
    },
    {
      "city": "臺中市",
      "town": "大甲區",
      "name": "松柏",
      "temp": 27.5,
      "at": 32.49275295447674,
      "lat": 24.430864,
      "lon": 120.609306
    },
    {
      "city": "臺中市",
      "town": "大安區",
      "name": "溫寮",
      "temp": 27.6,
      "at": 31.880700397439114,
      "lat": 24.373925,
      "lon": 120.574953
    },
    {
      "city": "苗栗縣",
      "town": "竹南鎮",
      "name": "龍鳳",
      "temp": 28.0,
      "at": 32.6784575548294,
      "lat": 24.701789,
      "lon": 120.850928
    },
    {
      "city": "宜蘭縣",
      "town": "礁溪鄉",
      "name": "淡江大學蘭陽校園",
      "temp": 27.1,
      "at": 31.83793996532664,
      "lat": 24.825033,
      "lon": 121.722172
    },
    {
      "city": "屏東縣",
      "town": "林邊鄉",
      "name": "林邊",
      "temp": 30.1,
      "at": 35.367570630026655,
      "lat": 22.465232,
      "lon": 120.52585
    },
    {
      "city": "新北市",
      "town": "淡水區",
      "name": "六塊厝",
      "temp": 26.6,
      "at": 31.167119505935872,
      "lat": 25.241776,
      "lon": 121.439863
    },
    {
      "city": "新北市",
      "town": "三芝區",
      "name": "田寮",
      "temp": 26.3,
      "at": 31.352985572219723,
      "lat": 25.271575,
      "lon": 121.480355
    },
    {
      "city": "桃園市",
      "town": "觀音區",
      "name": "新興坑尾",
      "temp": 26.2,
      "at": 30.339516195879213,
      "lat": 25.007827,
      "lon": 121.088851
    },
    {
      "city": "宜蘭縣",
      "town": "蘇澳鎮",
      "name": "蘇澳",
      "temp": 28.1,
      "at": 31.149828838553688,
      "lat": 24.59875,
      "lon": 121.848895
    },
    {
      "city": "宜蘭縣",
      "town": "壯圍鄉",
      "name": "壯圍",
      "temp": 29.3,
      "at": 34.64769808173138,
      "lat": 24.737723,
      "lon": 121.808046
    },
    {
      "city": "宜蘭縣",
      "town": "頭城鎮",
      "name": "北關",
      "temp": 29.8,
      "at": 34.194935383299544,
      "lat": 24.90902,
      "lon": 121.865211
    },
    {
      "city": "彰化縣",
      "town": "伸港鄉",
      "name": "防潮門",
      "temp": 29.6,
      "at": 34.557783103619876,
      "lat": 24.185242,
      "lon": 120.478972
    },
    {
      "city": "臺中市",
      "town": "龍井區",
      "name": "臺中電廠",
      "temp": 29.0,
      "at": 34.08652213450496,
      "lat": 24.216388,
      "lon": 120.482584
    },
    {
      "city": "彰化縣",
      "town": "福興鄉",
      "name": "福寶",
      "temp": 29.4,
      "at": 33.315799662843325,
      "lat": 24.046048,
      "lon": 120.373213
    },
    {
      "city": "彰化縣",
      "town": "大城鄉",
      "name": "三豐",
      "temp": 28.0,
      "at": 31.8927923495921,
      "lat": 23.883719,
      "lon": 120.281409
    },
    {
      "city": "雲林縣",
      "town": "口湖鄉",
      "name": "箔子寮",
      "temp": 29.8,
      "at": 33.27267640160655,
      "lat": 23.621487,
      "lon": 120.13192
    },
    {
      "city": "嘉義縣",
      "town": "布袋鎮",
      "name": "好美里",
      "temp": 29.6,
      "at": 32.59054677294346,
      "lat": 23.338176,
      "lon": 120.129936
    },
    {
      "city": "新北市",
      "town": "板橋區",
      "name": "板橋",
      "temp": 27.7,
      "at": 31.934578416436295,
      "lat": 25.012431,
      "lon": 121.440638
    },
    {
      "city": "連江縣",
      "town": "莒光鄉",
      "name": "東莒",
      "temp": 25.8,
      "at": 29.375146867718797,
      "lat": 25.966883,
      "lon": 119.9724
    },
    {
      "city": "澎湖縣",
      "town": "西嶼鄉",
      "name": "西嶼",
      "temp": 29.1,
      "at": 35.701005533433175,
      "lat": 23.564311,
      "lon": 119.460328
    },
    {
      "city": "澎湖縣",
      "town": "望安鄉",
      "name": "花嶼",
      "temp": 28.5,
      "at": 34.37563534945705,
      "lat": 23.401778,
      "lon": 119.314667
    },
    {
      "city": "金門縣",
      "town": "金沙鎮",
      "name": "金沙",
      "temp": 26.8,
      "at": 29.92527679306813,
      "lat": 24.489931,
      "lon": 118.400617
    },
    {
      "city": "金門縣",
      "town": "金寧鄉",
      "name": "金寧",
      "temp": 26.8,
      "at": 30.27527679306813,
      "lat": 24.459339,
      "lon": 118.320831
    },
    {
      "city": "金門縣",
      "town": "烏坵鄉",
      "name": "烏坵",
      "temp": 26.0,
      "at": 29.42868733113653,
      "lat": 24.996081,
      "lon": 119.441347
    },
    {
      "city": "臺北市",
      "town": "松山區",
      "name": "松山",
      "temp": 27.3,
      "at": 32.045826134108104,
      "lat": 25.050492,
      "lon": 121.542203
    },
    {
      "city": "苗栗縣",
      "town": "後龍鎮",
      "name": "高鐵苗栗",
      "temp": 27.9,
      "at": 34.79884070227805,
      "lat": 24.609,
      "lon": 120.817906
    },
    {
      "city": "雲林縣",
      "town": "虎尾鎮",
      "name": "高鐵雲林",
      "temp": 31.1,
      "at": 37.18531321340228,
      "lat": 23.739206,
      "lon": 120.409817
    },
    {
      "city": "桃園市",
      "town": "龜山區",
      "name": "國一五楊N44K",
      "temp": 24.8,
      "at": 29.855103587494398,
      "lat": 25.065633,
      "lon": 121.332769
    },
    {
      "city": "基隆市",
      "town": "中正區",
      "name": "基隆嶼",
      "temp": 25.4,
      "at": 28.48565671578514,
      "lat": 25.1932,
      "lon": 121.775678
    },
    {
      "city": "臺東縣",
      "town": "蘭嶼鄉",
      "name": "蘭嶼高中",
      "temp": 28.0,
      "at": 32.817470707693694,
      "lat": 22.050931,
      "lon": 121.504119
    },
    {
      "city": "臺東縣",
      "town": "蘭嶼鄉",
      "name": "蘭嶼燈塔",
      "temp": 26.3,
      "at": 28.12346782032695,
      "lat": 22.083031,
      "lon": 121.495094
    },
    {
      "city": "新北市",
      "town": "石門區",
      "name": "白沙灣",
      "temp": 26.2,
      "at": 31.37470821453438,
      "lat": 25.284903,
      "lon": 121.510814
    },
    {
      "city": "高雄市",
      "town": "甲仙區",
      "name": "小林",
      "temp": 28.5,
      "at": 33.46766049777036,
      "lat": 23.150164,
      "lon": 120.625189
    },
    {
      "city": "桃園市",
      "town": "大溪區",
      "name": "大溪永福",
      "temp": 27.2,
      "at": 33.88000178432126,
      "lat": 24.894711,
      "lon": 121.316761
    },
    {
      "city": "宜蘭縣",
      "town": "大同鄉",
      "name": "玉蘭",
      "temp": 27.0,
      "at": 31.91739742871838,
      "lat": 24.677222,
      "lon": 121.578889
    },
    {
      "city": "宜蘭縣",
      "town": "五結鄉",
      "name": "五結",
      "temp": 29.1,
      "at": 33.7084426875936,
      "lat": 24.688722,
      "lon": 121.790222
    },
    {
      "city": "宜蘭縣",
      "town": "大同鄉",
      "name": "太平山",
      "temp": 19.6,
      "at": 22.292486286952723,
      "lat": 24.507222,
      "lon": 121.5175
    },
    {
      "city": "宜蘭縣",
      "town": "大同鄉",
      "name": "南山",
      "temp": 22.7,
      "at": 25.73557103215078,
      "lat": 24.439167,
      "lon": 121.373333
    },
    {
      "city": "宜蘭縣",
      "town": "員山鄉",
      "name": "雙連埤",
      "temp": 26.2,
      "at": 31.823314200543003,
      "lat": 24.754722,
      "lon": 121.633056
    },
    {
      "city": "宜蘭縣",
      "town": "頭城鎮",
      "name": "頭城",
      "temp": 29.2,
      "at": 34.97918035189972,
      "lat": 24.855031,
      "lon": 121.822586
    },
    {
      "city": "宜蘭縣",
      "town": "礁溪鄉",
      "name": "大礁溪",
      "temp": 26.5,
      "at": 32.29480325566919,
      "lat": 24.792836,
      "lon": 121.666839
    },
    {
      "city": "宜蘭縣",
      "town": "三星鄉",
      "name": "三星",
      "temp": 28.9,
      "at": 33.7083535068106,
      "lat": 24.669917,
      "lon": 121.644819
    },
    {
      "city": "宜蘭縣",
      "town": "員山鄉",
      "name": "內城",
      "temp": 29.2,
      "at": 34.159344285377365,
      "lat": 24.719928,
      "lon": 121.679461
    },
    {
      "city": "宜蘭縣",
      "town": "冬山鄉",
      "name": "冬山",
      "temp": 28.5,
      "at": 32.231668880541456,
      "lat": 24.635528,
      "lon": 121.7855
    },
    {
      "city": "宜蘭縣",
      "town": "礁溪鄉",
      "name": "礁溪",
      "temp": 30.4,
      "at": 36.53717699748867,
      "lat": 24.819336,
      "lon": 121.757397
    },
    {
      "city": "宜蘭縣",
      "town": "頭城鎮",
      "name": "龜山島",
      "temp": 25.7,
      "at": 28.446023531085523,
      "lat": 24.843392,
      "lon": 121.944947
    },
    {
      "city": "新北市",
      "town": "貢寮區",
      "name": "三貂角",
      "temp": 25.4,
      "at": 27.579115753913698,
      "lat": 25.009444,
      "lon": 121.993889
    },
    {
      "city": "宜蘭縣",
      "town": "羅東鎮",
      "name": "羅東",
      "temp": 29.7,
      "at": 35.704720078301264,
      "lat": 24.683636,
      "lon": 121.741144
    },
    {
      "city": "宜蘭縣",
      "town": "頭城鎮",
      "name": "鶯子嶺",
      "temp": 21.0,
      "at": 23.22529759589896,
      "lat": 24.899333,
      "lon": 121.784231
    },
    {
      "city": "宜蘭縣",
      "town": "壯圍鄉",
      "name": "大福",
      "temp": 29.6,
      "at": 35.55587393031091,
      "lat": 24.802436,
      "lon": 121.805683
    },
    {
      "city": "宜蘭縣",
      "town": "頭城鎮",
      "name": "坪林石牌",
      "temp": 23.2,
      "at": 27.01718956044335,
      "lat": 24.866578,
      "lon": 121.76575
    },
    {
      "city": "花蓮縣",
      "town": "秀林鄉",
      "name": "天祥",
      "temp": 27.7,
      "at": 31.570573884176298,
      "lat": 24.181389,
      "lon": 121.4875
    },
    {
      "city": "花蓮縣",
      "town": "壽豐鄉",
      "name": "東華",
      "temp": 28.7,
      "at": 35.05890178621867,
      "lat": 23.897056,
      "lon": 121.541694
    },
    {
      "city": "花蓮縣",
      "town": "壽豐鄉",
      "name": "鯉魚潭",
      "temp": 28.1,
      "at": 34.575126915007615,
      "lat": 23.937444,
      "lon": 121.500806
    },
    {
      "city": "花蓮縣",
      "town": "秀林鄉",
      "name": "水源",
      "temp": 25.0,
      "at": 30.82970630284116,
      "lat": 23.993718,
      "lon": 121.529043
    },
    {
      "city": "花蓮縣",
      "town": "鳳林鎮",
      "name": "鳳林山",
      "temp": 25.0,
      "at": 29.67548252652321,
      "lat": 23.737072,
      "lon": 121.411994
    },
    {
      "city": "花蓮縣",
      "town": "光復鄉",
      "name": "光復",
      "temp": 28.5,
      "at": 34.167660497770356,
      "lat": 23.662497,
      "lon": 121.416839
    },
    {
      "city": "花蓮縣",
      "town": "萬榮鄉",
      "name": "西林",
      "temp": 28.3,
      "at": 35.013786253980165,
      "lat": 23.813667,
      "lon": 121.433194
    },
    {
      "city": "花蓮縣",
      "town": "壽豐鄉",
      "name": "月眉山",
      "temp": 26.7,
      "at": 32.841082152769644,
      "lat": 23.811736,
      "lon": 121.531686
    },
    {
      "city": "花蓮縣",
      "town": "壽豐鄉",
      "name": "大坑",
      "temp": 25.4,
      "at": 31.259304311106533,
      "lat": 23.882433,
      "lon": 121.573839
    },
    {
      "city": "花蓮縣",
      "town": "豐濱鄉",
      "name": "加路蘭山",
      "temp": 24.1,
      "at": 27.675854129949286,
      "lat": 23.684706,
      "lon": 121.519219
    },
    {
      "city": "花蓮縣",
      "town": "壽豐鄉",
      "name": "水璉",
      "temp": 27.7,
      "at": 34.32985402787447,
      "lat": 23.798889,
      "lon": 121.534167
    },
    {
      "city": "花蓮縣",
      "town": "豐濱鄉",
      "name": "豐濱",
      "temp": 27.6,
      "at": 33.08100408990343,
      "lat": 23.585708,
      "lon": 121.506678
    },
    {
      "city": "花蓮縣",
      "town": "富里鄉",
      "name": "明里",
      "temp": 28.2,
      "at": 31.630413235268847,
      "lat": 23.210556,
      "lon": 121.254167
    },
    {
      "city": "花蓮縣",
      "town": "玉里鎮",
      "name": "玉里",
      "temp": 31.6,
      "at": 36.09153378536156,
      "lat": 23.323306,
      "lon": 121.331556
    },
    {
      "city": "花蓮縣",
      "town": "瑞穗鄉",
      "name": "舞鶴",
      "temp": 27.6,
      "at": 32.300700397439115,
      "lat": 23.469722,
      "lon": 121.365833
    },
    {
      "city": "花蓮縣",
      "town": "卓溪鄉",
      "name": "佳心",
      "temp": 24.6,
      "at": 29.27571492430316,
      "lat": 23.347464,
      "lon": 121.205061
    },
    {
      "city": "花蓮縣",
      "town": "光復鄉",
      "name": "富源",
      "temp": 26.7,
      "at": 32.23156129260531,
      "lat": 23.58975,
      "lon": 121.370389
    },
    {
      "city": "花蓮縣",
      "town": "吉安鄉",
      "name": "吉安光華",
      "temp": 28.5,
      "at": 33.851647923613704,
      "lat": 23.932733,
      "lon": 121.587003
    },
    {
      "city": "花蓮縣",
      "town": "鳳林鎮",
      "name": "鳳林",
      "temp": 28.9,
      "at": 33.32438624064297,
      "lat": 23.747917,
      "lon": 121.445278
    },
    {
      "city": "花蓮縣",
      "town": "卓溪鄉",
      "name": "卓溪",
      "temp": 29.3,
      "at": 32.98555210482093,
      "lat": 23.346133,
      "lon": 121.294748
    },
    {
      "city": "花蓮縣",
      "town": "新城鄉",
      "name": "新城",
      "temp": 28.7,
      "at": 34.14890178621867,
      "lat": 24.042289,
      "lon": 121.596724
    },
    {
      "city": "花蓮縣",
      "town": "秀林鄉",
      "name": "富世",
      "temp": 29.3,
      "at": 35.60984405864183,
      "lat": 24.149236,
      "lon": 121.621542
    },
    {
      "city": "花蓮縣",
      "town": "鳳林鎮",
      "name": "萬榮",
      "temp": 28.8,
      "at": 33.56826065762535,
      "lat": 23.711022,
      "lon": 121.411969
    },
    {
      "city": "花蓮縣",
      "town": "瑞穗鄉",
      "name": "瑞穗",
      "temp": 29.2,
      "at": 35.02229510726286,
      "lat": 23.525708,
      "lon": 121.382086
    },
    {
      "city": "花蓮縣",
      "town": "卓溪鄉",
      "name": "瑞穗林道",
      "temp": 21.8,
      "at": 25.87992977629332,
      "lat": 23.494642,
      "lon": 121.298764
    },
    {
      "city": "花蓮縣",
      "town": "壽豐鄉",
      "name": "蕃薯寮",
      "temp": 25.6,
      "at": 30.282185019022556,
      "lat": 23.740156,
      "lon": 121.531975
    },
    {
      "city": "花蓮縣",
      "town": "玉里鎮",
      "name": "德武",
      "temp": 30.0,
      "at": 36.254715353380575,
      "lat": 23.476069,
      "lon": 121.402597
    },
    {
      "city": "花蓮縣",
      "town": "玉里鎮",
      "name": "赤柯山",
      "temp": 24.0,
      "at": 28.2491626284259,
      "lat": 23.370733,
      "lon": 121.374825
    },
    {
      "city": "花蓮縣",
      "town": "富里鄉",
      "name": "東里",
      "temp": 30.0,
      "at": 34.71607245517363,
      "lat": 23.270336,
      "lon": 121.297364
    },
    {
      "city": "花蓮縣",
      "town": "秀林鄉",
      "name": "清水斷崖",
      "temp": 28.5,
      "at": 35.37964373222815,
      "lat": 24.2201,
      "lon": 121.680972
    },
    {
      "city": "花蓮縣",
      "town": "卓溪鄉",
      "name": "清水林道",
      "temp": 26.5,
      "at": 30.683658766769724,
      "lat": 23.273047,
      "lon": 121.180172
    },
    {
      "city": "花蓮縣",
      "town": "玉里鎮",
      "name": "安通山",
      "temp": 28.1,
      "at": 33.64464999268133,
      "lat": 23.292536,
      "lon": 121.340419
    },
    {
      "city": "花蓮縣",
      "town": "豐濱鄉",
      "name": "靜浦",
      "temp": 28.2,
      "at": 35.95302301556163,
      "lat": 23.456944,
      "lon": 121.486667
    },
    {
      "city": "臺東縣",
      "town": "長濱鄉",
      "name": "長濱",
      "temp": 26.7,
      "at": 33.34728000235882,
      "lat": 23.288611,
      "lon": 121.403889
    },
    {
      "city": "臺東縣",
      "town": "東河鄉",
      "name": "東河",
      "temp": 28.4,
      "at": 34.33854491411752,
      "lat": 22.973611,
      "lon": 121.298333
    },
    {
      "city": "臺東縣",
      "town": "綠島鄉",
      "name": "綠島",
      "temp": 29.8,
      "at": 35.49633109268255,
      "lat": 22.669025,
      "lon": 121.467267
    },
    {
      "city": "臺東縣",
      "town": "海端鄉",
      "name": "下馬",
      "temp": 28.0,
      "at": 31.972105222914323,
      "lat": 23.152222,
      "lon": 121.062222
    },
    {
      "city": "臺東縣",
      "town": "海端鄉",
      "name": "向陽",
      "temp": 17.2,
      "at": 17.59878348117296,
      "lat": 23.25,
      "lon": 120.978056
    },
    {
      "city": "臺東縣",
      "town": "海端鄉",
      "name": "紅石",
      "temp": 21.3,
      "at": 24.70353541154264,
      "lat": 23.070902,
      "lon": 121.11777
    },
    {
      "city": "臺東縣",
      "town": "池上鄉",
      "name": "池上",
      "temp": 28.8,
      "at": 33.55849780902309,
      "lat": 23.121389,
      "lon": 121.201667
    },
    {
      "city": "臺東縣",
      "town": "鹿野鄉",
      "name": "鹿野",
      "temp": 28.3,
      "at": 34.15770506061743,
      "lat": 22.919517,
      "lon": 121.114908
    },
    {
      "city": "臺東縣",
      "town": "達仁鄉",
      "name": "土坂",
      "temp": 30.2,
      "at": 35.59080494576984,
      "lat": 22.454908,
      "lon": 120.879528
    },
    {
      "city": "臺東縣",
      "town": "太麻里鄉",
      "name": "大溪山",
      "temp": 26.1,
      "at": 30.843012267059564,
      "lat": 22.48,
      "lon": 120.935278
    },
    {
      "city": "臺東縣",
      "town": "達仁鄉",
      "name": "南田",
      "temp": 31.6,
      "at": 36.415816358932865,
      "lat": 22.291944,
      "lon": 120.881944
    },
    {
      "city": "臺東縣",
      "town": "太麻里鄉",
      "name": "金崙",
      "temp": 27.4,
      "at": 33.35541022301191,
      "lat": 22.54,
      "lon": 120.958889
    },
    {
      "city": "臺東縣",
      "town": "太麻里鄉",
      "name": "太麻里",
      "temp": 25.0,
      "at": 29.434363644933462,
      "lat": 22.610825,
      "lon": 120.977275
    },
    {
      "city": "臺東縣",
      "town": "卑南鄉",
      "name": "知本",
      "temp": 26.2,
      "at": 31.97660721686627,
      "lat": 22.686667,
      "lon": 120.997583
    },
    {
      "city": "花蓮縣",
      "town": "富里鄉",
      "name": "富里",
      "temp": 29.4,
      "at": 34.12721969655899,
      "lat": 23.173442,
      "lon": 121.241286
    },
    {
      "city": "桃園市",
      "town": "中壢區",
      "name": "中壢",
      "temp": 26.3,
      "at": 31.265063605125896,
      "lat": 24.979428,
      "lon": 121.248156
    },
    {
      "city": "臺南市",
      "town": "柳營區",
      "name": "柳營",
      "temp": 32.3,
      "at": 34.06124102023986,
      "lat": 23.255089,
      "lon": 120.367158
    },
    {
      "city": "新竹縣",
      "town": "關西鎮",
      "name": "關西",
      "temp": 26.9,
      "at": 33.69699298961804,
      "lat": 24.799421,
      "lon": 121.165033
    },
    {
      "city": "嘉義縣",
      "town": "阿里山鄉",
      "name": "新美",
      "temp": 27.0,
      "at": 33.32110943569778,
      "lat": 23.339792,
      "lon": 120.675231
    },
    {
      "city": "彰化縣",
      "town": "永靖鄉",
      "name": "永靖",
      "temp": 32.3,
      "at": 36.79732375492252,
      "lat": 23.926458,
      "lon": 120.539392
    },
    {
      "city": "彰化縣",
      "town": "竹塘鄉",
      "name": "竹塘",
      "temp": 31.1,
      "at": 36.660971958623776,
      "lat": 23.85,
      "lon": 120.378628
    },
    {
      "city": "雲林縣",
      "town": "東勢鄉",
      "name": "雲林東勢",
      "temp": 30.9,
      "at": 36.58789391264797,
      "lat": 23.675939,
      "lon": 120.2476
    },
    {
      "city": "屏東縣",
      "town": "車城鄉",
      "name": "車城",
      "temp": 30.1,
      "at": 35.99722163470987,
      "lat": 22.075833,
      "lon": 120.708056
    },
    {
      "city": "屏東縣",
      "town": "春日鄉",
      "name": "大漢山",
      "temp": 18.8,
      "at": 20.61375719232942,
      "lat": 22.405861,
      "lon": 120.745083
    },
    {
      "city": "屏東縣",
      "town": "枋山鄉",
      "name": "枋山",
      "temp": 29.5,
      "at": 34.31801724562566,
      "lat": 22.249572,
      "lon": 120.652748
    },
    {
      "city": "屏東縣",
      "town": "枋寮鄉",
      "name": "枋寮",
      "temp": 29.1,
      "at": 33.68859351760858,
      "lat": 22.369511,
      "lon": 120.582611
    },
    {
      "city": "屏東縣",
      "town": "枋山鄉",
      "name": "楓港",
      "temp": 28.8,
      "at": 33.989920717409476,
      "lat": 22.191928,
      "lon": 120.684131
    },
    {
      "city": "屏東縣",
      "town": "滿州鄉",
      "name": "檳榔",
      "temp": 26.8,
      "at": 32.064456889783756,
      "lat": 22.077883,
      "lon": 120.828758
    },
    {
      "city": "屏東縣",
      "town": "牡丹鄉",
      "name": "牡丹",
      "temp": 27.0,
      "at": 31.109392111670303,
      "lat": 22.131817,
      "lon": 120.784589
    },
    {
      "city": "屏東縣",
      "town": "滿州鄉",
      "name": "佳樂水",
      "temp": 29.4,
      "at": 33.37544465441441,
      "lat": 21.995386,
      "lon": 120.853619
    },
    {
      "city": "屏東縣",
      "town": "恆春鎮",
      "name": "墾丁",
      "temp": 26.7,
      "at": 32.157280002358824,
      "lat": 21.968561,
      "lon": 120.802258
    },
    {
      "city": "屏東縣",
      "town": "牡丹鄉",
      "name": "旭海",
      "temp": 29.0,
      "at": 31.73952099940214,
      "lat": 22.207208,
      "lon": 120.879586
    },
    {
      "city": "屏東縣",
      "town": "恆春鎮",
      "name": "貓鼻頭",
      "temp": 29.4,
      "at": 34.89991214177103,
      "lat": 21.923578,
      "lon": 120.727792
    },
    {
      "city": "屏東縣",
      "town": "恆春鎮",
      "name": "墾雷",
      "temp": 28.6,
      "at": 33.58526386664109,
      "lat": 21.90265,
      "lon": 120.847244
    },
    {
      "city": "屏東縣",
      "town": "牡丹鄉",
      "name": "四林格山",
      "temp": 24.6,
      "at": 27.696948777617223,
      "lat": 22.078792,
      "lon": 120.794419
    },
    {
      "city": "屏東縣",
      "town": "恆春鎮",
      "name": "大坪頂",
      "temp": 29.4,
      "at": 36.96366961226982,
      "lat": 22.026433,
      "lon": 120.685536
    },
    {
      "city": "屏東縣",
      "town": "恆春鎮",
      "name": "龍磐",
      "temp": 27.8,
      "at": 33.05933894933441,
      "lat": 21.933481,
      "lon": 120.830933
    },
    {
      "city": "屏東縣",
      "town": "獅子鄉",
      "name": "獅子",
      "temp": 28.8,
      "at": 34.66063217160267,
      "lat": 22.204106,
      "lon": 120.69721
    },
    {
      "city": "宜蘭縣",
      "town": "南澳鄉",
      "name": "東澳",
      "temp": 29.8,
      "at": 36.21471956522205,
      "lat": 24.523767,
      "lon": 121.824986
    },
    {
      "city": "宜蘭縣",
      "town": "南澳鄉",
      "name": "南澳",
      "temp": 29.3,
      "at": 35.72603869452243,
      "lat": 24.451153,
      "lon": 121.802036
    },
    {
      "city": "花蓮縣",
      "town": "秀林鄉",
      "name": "和中",
      "temp": 28.1,
      "at": 34.85512691500762,
      "lat": 24.268567,
      "lon": 121.732861
    },
    {
      "city": "宜蘭縣",
      "town": "大同鄉",
      "name": "翠峰湖",
      "temp": 21.8,
      "at": 24.3965359798241,
      "lat": 24.51265,
      "lon": 121.599858
    },
    {
      "city": "花蓮縣",
      "town": "秀林鄉",
      "name": "和平林道",
      "temp": 25.9,
      "at": 31.73406009915867,
      "lat": 24.345722,
      "lon": 121.648142
    },
    {
      "city": "花蓮縣",
      "town": "秀林鄉",
      "name": "和平",
      "temp": 28.5,
      "at": 34.167660497770356,
      "lat": 24.308961,
      "lon": 121.761903
    },
    {
      "city": "宜蘭縣",
      "town": "南澳鄉",
      "name": "樟樹山",
      "temp": 26.9,
      "at": 31.45779387513997,
      "lat": 24.415731,
      "lon": 121.775067
    },
    {
      "city": "宜蘭縣",
      "town": "頭城鎮",
      "name": "桃源谷",
      "temp": 23.6,
      "at": 26.963598650568308,
      "lat": 24.964408,
      "lon": 121.880658
    },
    {
      "city": "宜蘭縣",
      "town": "南澳鄉",
      "name": "西帽山",
      "temp": 25.8,
      "at": 31.605173570940394,
      "lat": 24.557164,
      "lon": 121.794436
    },
    {
      "city": "宜蘭縣",
      "town": "南澳鄉",
      "name": "西德山",
      "temp": 24.2,
      "at": 27.9935526633755,
      "lat": 24.562447,
      "lon": 121.744417
    },
    {
      "city": "新北市",
      "town": "烏來區",
      "name": "福山植物園",
      "temp": 26.1,
      "at": 31.205494490362206,
      "lat": 24.762506,
      "lon": 121.573147
    },
    {
      "city": "宜蘭縣",
      "town": "大同鄉",
      "name": "鴛鴦湖",
      "temp": 21.3,
      "at": 24.733421366009004,
      "lat": 24.592053,
      "lon": 121.404039
    },
    {
      "city": "宜蘭縣",
      "town": "大同鄉",
      "name": "白嶺",
      "temp": 22.9,
      "at": 27.262196591698633,
      "lat": 24.529611,
      "lon": 121.510844
    },
    {
      "city": "宜蘭縣",
      "town": "大同鄉",
      "name": "土場",
      "temp": 27.9,
      "at": 33.5090907272774,
      "lat": 24.578356,
      "lon": 121.487153
    },
    {
      "city": "宜蘭縣",
      "town": "員山鄉",
      "name": "員山",
      "temp": 29.7,
      "at": 35.42472007830126,
      "lat": 24.746147,
      "lon": 121.714269
    },
    {
      "city": "桃園市",
      "town": "蘆竹區",
      "name": "蘆竹",
      "temp": 26.7,
      "at": 31.72536344301613,
      "lat": 25.086111,
      "lon": 121.2575
    },
    {
      "city": "新竹縣",
      "town": "橫山鄉",
      "name": "橫山",
      "temp": 25.6,
      "at": 32.29219486045992,
      "lat": 24.712925,
      "lon": 121.108733
    },
    {
      "city": "新竹縣",
      "town": "新豐鄉",
      "name": "新豐",
      "temp": 26.8,
      "at": 32.51303082208282,
      "lat": 24.872436,
      "lon": 120.969
    },
    {
      "city": "新竹縣",
      "town": "五峰鄉",
      "name": "雪霸",
      "temp": 19.5,
      "at": 20.96096522639595,
      "lat": 24.528722,
      "lon": 121.107917
    },
    {
      "city": "新竹縣",
      "town": "竹東鎮",
      "name": "竹東",
      "temp": 27.6,
      "at": 32.683644309571775,
      "lat": 24.76925,
      "lon": 121.049861
    },
    {
      "city": "桃園市",
      "town": "平鎮區",
      "name": "平鎮",
      "temp": 26.1,
      "at": 31.77797671366485,
      "lat": 24.899444,
      "lon": 121.206389
    },
    {
      "city": "桃園市",
      "town": "大溪區",
      "name": "大溪",
      "temp": 25.9,
      "at": 30.16444748399615,
      "lat": 24.884722,
      "lon": 121.256944
    },
    {
      "city": "苗栗縣",
      "town": "頭份市",
      "name": "頭份",
      "temp": 28.3,
      "at": 33.67858327057333,
      "lat": 24.69,
      "lon": 120.904167
    },
    {
      "city": "新竹縣",
      "town": "寶山鄉",
      "name": "寶山",
      "temp": 26.8,
      "at": 33.11670286076907,
      "lat": 24.736722,
      "lon": 121.016769
    },
    {
      "city": "苗栗縣",
      "town": "獅潭鄉",
      "name": "獅潭",
      "temp": 27.2,
      "at": 33.17400172484388,
      "lat": 24.541028,
      "lon": 120.911972
    },
    {
      "city": "桃園市",
      "town": "楊梅區",
      "name": "楊梅",
      "temp": 26.2,
      "at": 31.011415198211104,
      "lat": 24.914139,
      "lon": 121.134833
    },
    {
      "city": "新竹縣",
      "town": "湖口鄉",
      "name": "湖口",
      "temp": 26.1,
      "at": 30.521771155408246,
      "lat": 24.906556,
      "lon": 121.035417
    },
    {
      "city": "桃園市",
      "town": "龍潭區",
      "name": "龍潭",
      "temp": 26.0,
      "at": 31.31162030289174,
      "lat": 24.871833,
      "lon": 121.213194
    },
    {
      "city": "新竹市",
      "town": "東區",
      "name": "新竹市東區",
      "temp": 27.2,
      "at": 31.7073348599193,
      "lat": 24.800436,
      "lon": 120.978742
    },
    {
      "city": "苗栗縣",
      "town": "三灣鄉",
      "name": "大河",
      "temp": 27.0,
      "at": 33.08653876670465,
      "lat": 24.619833,
      "lon": 120.94055
    },
    {
      "city": "臺中市",
      "town": "和平區",
      "name": "桃山",
      "temp": 10.1,
      "at": 8.388497466870689,
      "lat": 24.434519,
      "lon": 121.295628
    },
    {
      "city": "臺中市",
      "town": "和平區",
      "name": "雪山東峰",
      "temp": 13.0,
      "at": 12.410504653678093,
      "lat": 24.390581,
      "lon": 121.263286
    },
    {
      "city": "臺中市",
      "town": "和平區",
      "name": "雪山圈谷",
      "temp": 7.4,
      "at": 2.873484100084946,
      "lat": 24.390375,
      "lon": 121.228197
    },
    {
      "city": "桃園市",
      "town": "龜山區",
      "name": "龜山",
      "temp": 25.5,
      "at": 29.86067672825532,
      "lat": 25.030231,
      "lon": 121.378336
    },
    {
      "city": "臺中市",
      "town": "和平區",
      "name": "審馬陣",
      "temp": 10.7,
      "at": 8.97914904549443,
      "lat": 24.383461,
      "lon": 121.412122
    },
    {
      "city": "臺中市",
      "town": "和平區",
      "name": "南湖圈谷",
      "temp": 7.9,
      "at": 3.3511879962947484,
      "lat": 24.365503,
      "lon": 121.436489
    },
    {
      "city": "苗栗縣",
      "town": "苗栗市",
      "name": "苗栗",
      "temp": 28.7,
      "at": 34.05095669690774,
      "lat": 24.566667,
      "lon": 120.816444
    },
    {
      "city": "苗栗縣",
      "town": "銅鑼鄉",
      "name": "銅鑼",
      "temp": 28.8,
      "at": 34.96992071740947,
      "lat": 24.491528,
      "lon": 120.782639
    },
    {
      "city": "苗栗縣",
      "town": "西湖鄉",
      "name": "西湖",
      "temp": 27.2,
      "at": 32.61400172484389,
      "lat": 24.564417,
      "lon": 120.740278
    },
    {
      "city": "臺中市",
      "town": "大安區",
      "name": "大安",
      "temp": 28.3,
      "at": 33.1616238672547,
      "lat": 24.347444,
      "lon": 120.579972
    },
    {
      "city": "臺中市",
      "town": "后里區",
      "name": "后里",
      "temp": 30.2,
      "at": 36.0854223712424,
      "lat": 24.312111,
      "lon": 120.7215
    },
    {
      "city": "臺中市",
      "town": "豐原區",
      "name": "豐原",
      "temp": 32.6,
      "at": 38.083972723230566,
      "lat": 24.256306,
      "lon": 120.712333
    },
    {
      "city": "臺中市",
      "town": "潭子區",
      "name": "潭子",
      "temp": 31.5,
      "at": 37.60368269595645,
      "lat": 24.21475,
      "lon": 120.695833
    },
    {
      "city": "臺中市",
      "town": "清水區",
      "name": "清水",
      "temp": 29.0,
      "at": 34.646522134504956,
      "lat": 24.314028,
      "lon": 120.554083
    },
    {
      "city": "臺中市",
      "town": "外埔區",
      "name": "外埔",
      "temp": 29.5,
      "at": 35.438017245625666,
      "lat": 24.349556,
      "lon": 120.697472
    },
    {
      "city": "臺中市",
      "town": "龍井區",
      "name": "龍井",
      "temp": 30.4,
      "at": 34.641622715869275,
      "lat": 24.186278,
      "lon": 120.520833
    },
    {
      "city": "彰化縣",
      "town": "伸港鄉",
      "name": "伸港",
      "temp": 30.3,
      "at": 34.911388747777785,
      "lat": 24.150528,
      "lon": 120.476167
    },
    {
      "city": "苗栗縣",
      "town": "苑裡鎮",
      "name": "苑裡",
      "temp": 27.5,
      "at": 32.1619876745441,
      "lat": 24.441458,
      "lon": 120.644883
    },
    {
      "city": "臺中市",
      "town": "石岡區",
      "name": "石岡",
      "temp": 30.0,
      "at": 34.994262986116226,
      "lat": 24.277822,
      "lon": 120.769478
    },
    {
      "city": "臺中市",
      "town": "和平區",
      "name": "中坑",
      "temp": 25.8,
      "at": 31.308023084305653,
      "lat": 24.250283,
      "lon": 120.895153
    },
    {
      "city": "南投縣",
      "town": "魚池鄉",
      "name": "魚池",
      "temp": 28.3,
      "at": 32.93294118218854,
      "lat": 23.897478,
      "lon": 120.933219
    },
    {
      "city": "南投縣",
      "town": "國姓鄉",
      "name": "國姓",
      "temp": 31.5,
      "at": 36.713726765962505,
      "lat": 24.039567,
      "lon": 120.846925
    },
    {
      "city": "南投縣",
      "town": "仁愛鄉",
      "name": "仁愛",
      "temp": 24.2,
      "at": 27.851163540223748,
      "lat": 24.023903,
      "lon": 121.124056
    },
    {
      "city": "南投縣",
      "town": "水里鄉",
      "name": "水里",
      "temp": 28.2,
      "at": 30.42937967751265,
      "lat": 23.814322,
      "lon": 120.841658
    },
    {
      "city": "南投縣",
      "town": "集集鎮",
      "name": "集集",
      "temp": 29.3,
      "at": 33.69745478688064,
      "lat": 23.829972,
      "lon": 120.793328
    },
    {
      "city": "南投縣",
      "town": "名間鄉",
      "name": "名間",
      "temp": 31.6,
      "at": 37.19867507214721,
      "lat": 23.838817,
      "lon": 120.693306
    },
    {
      "city": "南投縣",
      "town": "仁愛鄉",
      "name": "萬大林道",
      "temp": 19.6,
      "at": 22.582650820731907,
      "lat": 23.930008,
      "lon": 121.083267
    },
    {
      "city": "南投縣",
      "town": "仁愛鄉",
      "name": "梅峰",
      "temp": 17.0,
      "at": 19.060798925051166,
      "lat": 24.087056,
      "lon": 121.165414
    },
    {
      "city": "南投縣",
      "town": "信義鄉",
      "name": "玉山風口",
      "temp": 6.0,
      "at": 2.7721900355676956,
      "lat": 23.472294,
      "lon": 120.947853
    },
    {
      "city": "南投縣",
      "town": "仁愛鄉",
      "name": "小奇萊",
      "temp": 10.3,
      "at": 6.43764728422307,
      "lat": 24.13355,
      "lon": 121.287556
    },
    {
      "city": "南投縣",
      "town": "仁愛鄉",
      "name": "奇萊稜線",
      "temp": 9.1,
      "at": 4.008457499067124,
      "lat": 24.111019,
      "lon": 121.318297
    },
    {
      "city": "臺中市",
      "town": "大里區",
      "name": "大里",
      "temp": 32.6,
      "at": 38.84915330155923,
      "lat": 24.094389,
      "lon": 120.692194
    },
    {
      "city": "臺中市",
      "town": "烏日區",
      "name": "烏日",
      "temp": 32.1,
      "at": 36.06326350428716,
      "lat": 24.108833,
      "lon": 120.615917
    },
    {
      "city": "臺中市",
      "town": "西屯區",
      "name": "西屯",
      "temp": 32.9,
      "at": 37.97732192305039,
      "lat": 24.182028,
      "lon": 120.632861
    },
    {
      "city": "臺中市",
      "town": "南屯區",
      "name": "南屯",
      "temp": 32.7,
      "at": 37.45354114061777,
      "lat": 24.138861,
      "lon": 120.630111
    },
    {
      "city": "彰化縣",
      "town": "福興鄉",
      "name": "福興",
      "temp": 31.9,
      "at": 37.235788845180394,
      "lat": 24.042972,
      "lon": 120.429528
    },
    {
      "city": "彰化縣",
      "town": "秀水鄉",
      "name": "秀水",
      "temp": 31.2,
      "at": 35.84964275215713,
      "lat": 24.035917,
      "lon": 120.495722
    },
    {
      "city": "彰化縣",
      "town": "埔鹽鄉",
      "name": "埔鹽",
      "temp": 31.9,
      "at": 38.518630892427815,
      "lat": 24.002167,
      "lon": 120.423583
    },
    {
      "city": "彰化縣",
      "town": "埔心鄉",
      "name": "埔心",
      "temp": 32.2,
      "at": 38.67517332825261,
      "lat": 23.948694,
      "lon": 120.517611
    },
    {
      "city": "彰化縣",
      "town": "田尾鄉",
      "name": "田尾",
      "temp": 33.2,
      "at": 41.266233129858726,
      "lat": 23.903417,
      "lon": 120.501389
    },
    {
      "city": "彰化縣",
      "town": "埤頭鄉",
      "name": "埤頭",
      "temp": 31.8,
      "at": 38.41781891215094,
      "lat": 23.867806,
      "lon": 120.444722
    },
    {
      "city": "彰化縣",
      "town": "社頭鄉",
      "name": "社頭",
      "temp": 32.6,
      "at": 38.419514458216554,
      "lat": 23.899417,
      "lon": 120.578083
    },
    {
      "city": "苗栗縣",
      "town": "造橋鄉",
      "name": "造橋",
      "temp": 29.2,
      "at": 34.97245904074051,
      "lat": 24.63875,
      "lon": 120.856583
    },
    {
      "city": "新竹縣",
      "town": "尖石鄉",
      "name": "梅花",
      "temp": 23.9,
      "at": 29.366774651891433,
      "lat": 24.680119,
      "lon": 121.200361
    },
    {
      "city": "新北市",
      "town": "坪林區",
      "name": "坪林",
      "temp": 24.4,
      "at": 29.953329126913346,
      "lat": 24.939975,
      "lon": 121.701531
    },
    {
      "city": "新北市",
      "town": "雙溪區",
      "name": "泰平",
      "temp": 24.6,
      "at": 30.57340980206488,
      "lat": 24.973056,
      "lon": 121.815278
    },
    {
      "city": "新北市",
      "town": "汐止區",
      "name": "五指山",
      "temp": 22.4,
      "at": 22.968529356600815,
      "lat": 25.133889,
      "lon": 121.600278
    },
    {
      "city": "新北市",
      "town": "汐止區",
      "name": "汐止",
      "temp": 28.9,
      "at": 33.94331258952013,
      "lat": 25.068667,
      "lon": 121.650556
    },
    {
      "city": "新北市",
      "town": "三峽區",
      "name": "三峽",
      "temp": 28.9,
      "at": 35.632320772978225,
      "lat": 24.940806,
      "lon": 121.3615
    },
    {
      "city": "臺北市",
      "town": "信義區",
      "name": "信義",
      "temp": 27.7,
      "at": 32.390213956025384,
      "lat": 25.039606,
      "lon": 121.556372
    },
    {
      "city": "臺北市",
      "town": "文山區",
      "name": "文山",
      "temp": 28.2,
      "at": 36.65302301556163,
      "lat": 25.004083,
      "lon": 121.567528
    },
    {
      "city": "新北市",
      "town": "新莊區",
      "name": "新莊",
      "temp": 26.4,
      "at": 32.06734676352681,
      "lat": 25.05325,
      "lon": 121.438528
    },
    {
      "city": "新北市",
      "town": "樹林區",
      "name": "山佳",
      "temp": 29.0,
      "at": 34.737023837159185,
      "lat": 24.976719,
      "lon": 121.393789
    },
    {
      "city": "新北市",
      "town": "烏來區",
      "name": "桶後",
      "temp": 25.4,
      "at": 31.32584527297798,
      "lat": 24.850056,
      "lon": 121.589639
    },
    {
      "city": "新北市",
      "town": "雙溪區",
      "name": "雙溪",
      "temp": 28.9,
      "at": 34.8893453233525,
      "lat": 25.037861,
      "lon": 121.856056
    },
    {
      "city": "宜蘭縣",
      "town": "大同鄉",
      "name": "多加屯",
      "temp": 15.8,
      "at": 15.118029404860842,
      "lat": 24.3704,
      "lon": 121.365011
    },
    {
      "city": "新北市",
      "town": "萬里區",
      "name": "大坪",
      "temp": 25.7,
      "at": 30.311952942909997,
      "lat": 25.167694,
      "lon": 121.62475
    },
    {
      "city": "新北市",
      "town": "金山區",
      "name": "三和",
      "temp": 26.6,
      "at": 31.899071650091628,
      "lat": 25.234933,
      "lon": 121.586997
    },
    {
      "city": "新北市",
      "town": "金山區",
      "name": "金山",
      "temp": 26.4,
      "at": 32.59024661299317,
      "lat": 25.225278,
      "lon": 121.635556
    },
    {
      "city": "新北市",
      "town": "石碇區",
      "name": "石碇",
      "temp": 25.0,
      "at": 30.588587421251418,
      "lat": 24.995758,
      "lon": 121.654639
    },
    {
      "city": "桃園市",
      "town": "復興區",
      "name": "復興",
      "temp": 24.1,
      "at": 29.582172005108937,
      "lat": 24.822,
      "lon": 121.344094
    },
    {
      "city": "桃園市",
      "town": "八德區",
      "name": "八德",
      "temp": 26.6,
      "at": 31.243425729869124,
      "lat": 24.930528,
      "lon": 121.275
    },
    {
      "city": "臺北市",
      "town": "內湖區",
      "name": "內湖",
      "temp": 29.6,
      "at": 35.39778310361987,
      "lat": 25.081206,
      "lon": 121.567222
    },
    {
      "city": "新北市",
      "town": "中和區",
      "name": "中和",
      "temp": 27.9,
      "at": 32.54547709318644,
      "lat": 24.993403,
      "lon": 121.483569
    },
    {
      "city": "基隆市",
      "town": "暖暖區",
      "name": "暖暖",
      "temp": 28.6,
      "at": 35.67156804979268,
      "lat": 25.097533,
      "lon": 121.732069
    },
    {
      "city": "臺北市",
      "town": "士林區",
      "name": "天母",
      "temp": 28.7,
      "at": 34.159415513890934,
      "lat": 25.119253,
      "lon": 121.528939
    },
    {
      "city": "臺北市",
      "town": "士林區",
      "name": "社子",
      "temp": 27.7,
      "at": 33.333307337258105,
      "lat": 25.111389,
      "lon": 121.461389
    },
    {
      "city": "臺北市",
      "town": "北投區",
      "name": "大屯山",
      "temp": 21.0,
      "at": 19.935297595898962,
      "lat": 25.177333,
      "lon": 121.514167
    },
    {
      "city": "新北市",
      "town": "八里區",
      "name": "八里",
      "temp": 27.0,
      "at": 32.552965439187474,
      "lat": 25.15225,
      "lon": 121.395306
    },
    {
      "city": "新北市",
      "town": "蘆洲區",
      "name": "蘆洲",
      "temp": 27.8,
      "at": 33.14327388972141,
      "lat": 25.088528,
      "lon": 121.464056
    },
    {
      "city": "新北市",
      "town": "土城區",
      "name": "土城",
      "temp": 26.9,
      "at": 31.27139417031394,
      "lat": 24.974944,
      "lon": 121.436917
    },
    {
      "city": "新北市",
      "town": "永和區",
      "name": "永和",
      "temp": 27.4,
      "at": 32.69528585006911,
      "lat": 25.013028,
      "lon": 121.499889
    },
    {
      "city": "臺北市",
      "town": "士林區",
      "name": "平等",
      "temp": 25.5,
      "at": 30.04749722987919,
      "lat": 25.130925,
      "lon": 121.568856
    },
    {
      "city": "新北市",
      "town": "林口區",
      "name": "林口",
      "temp": 24.5,
      "at": 28.726385041886218,
      "lat": 25.073953,
      "lon": 121.372611
    },
    {
      "city": "基隆市",
      "town": "七堵區",
      "name": "七堵",
      "temp": 29.7,
      "at": 36.857895881168595,
      "lat": 25.096608,
      "lon": 121.708897
    },
    {
      "city": "新北市",
      "town": "五股區",
      "name": "五股",
      "temp": 25.8,
      "at": 30.751611679233825,
      "lat": 25.076228,
      "lon": 121.419053
    },
    {
      "city": "新北市",
      "town": "新店區",
      "name": "屈尺",
      "temp": 28.6,
      "at": 35.20652470327141,
      "lat": 24.923619,
      "lon": 121.536533
    },
    {
      "city": "新北市",
      "town": "三重區",
      "name": "三重",
      "temp": 28.5,
      "at": 34.6676395408426,
      "lat": 25.059108,
      "lon": 121.4924
    },
    {
      "city": "臺北市",
      "town": "北投區",
      "name": "石牌",
      "temp": 28.4,
      "at": 33.32677633749988,
      "lat": 25.117336,
      "lon": 121.504825
    },
    {
      "city": "臺東縣",
      "town": "金峰鄉",
      "name": "金峰嘉蘭",
      "temp": 27.7,
      "at": 32.70457841643629,
      "lat": 22.596589,
      "lon": 120.952772
    },
    {
      "city": "臺東縣",
      "town": "延平鄉",
      "name": "延平",
      "temp": 30.6,
      "at": 37.00237679407433,
      "lat": 22.904381,
      "lon": 121.075983
    },
    {
      "city": "臺東縣",
      "town": "長濱鄉",
      "name": "石寧山",
      "temp": 27.1,
      "at": 32.53160520969222,
      "lat": 23.225581,
      "lon": 121.398542
    },
    {
      "city": "臺東縣",
      "town": "東河鄉",
      "name": "七塊厝",
      "temp": 28.3,
      "at": 34.015103568914014,
      "lat": 22.957525,
      "lon": 121.221089
    },
    {
      "city": "臺東縣",
      "town": "臺東市",
      "name": "知本(水試所)",
      "temp": 29.2,
      "at": 36.09524592914836,
      "lat": 22.704053,
      "lon": 121.074603
    },
    {
      "city": "臺東縣",
      "town": "大武鄉",
      "name": "加津林",
      "temp": 30.2,
      "at": 35.245422371242405,
      "lat": 22.418014,
      "lon": 120.9189
    },
    {
      "city": "臺東縣",
      "town": "達仁鄉",
      "name": "勝林山",
      "temp": 27.5,
      "at": 31.050508475554444,
      "lat": 22.432239,
      "lon": 120.885742
    },
    {
      "city": "臺東縣",
      "town": "大武鄉",
      "name": "山豬窟",
      "temp": 27.7,
      "at": 30.58803172581993,
      "lat": 22.320422,
      "lon": 120.849339
    },
    {
      "city": "臺東縣",
      "town": "太麻里鄉",
      "name": "歷坵",
      "temp": 26.7,
      "at": 31.960123873098297,
      "lat": 22.522769,
      "lon": 120.883803
    },
    {
      "city": "臺東縣",
      "town": "卑南鄉",
      "name": "檳榔四格山",
      "temp": 26.5,
      "at": 31.612589377894054,
      "lat": 22.811789,
      "lon": 121.101247
    },
    {
      "city": "臺東縣",
      "town": "太麻里鄉",
      "name": "金崙山",
      "temp": 23.5,
      "at": 27.375043140871686,
      "lat": 22.569219,
      "lon": 120.951617
    },
    {
      "city": "臺東縣",
      "town": "成功鎮",
      "name": "都歷",
      "temp": 28.3,
      "at": 32.95422535895811,
      "lat": 23.022142,
      "lon": 121.315558
    },
    {
      "city": "臺東縣",
      "town": "達仁鄉",
      "name": "達仁林場",
      "temp": 26.4,
      "at": 31.25412180116021,
      "lat": 22.266147,
      "lon": 120.815942
    },
    {
      "city": "屏東縣",
      "town": "牡丹鄉",
      "name": "牡丹池山",
      "temp": 25.8,
      "at": 28.948762165868565,
      "lat": 22.170192,
      "lon": 120.8332
    },
    {
      "city": "屏東縣",
      "town": "牡丹鄉",
      "name": "高士",
      "temp": 25.8,
      "at": 30.664461192599084,
      "lat": 22.123631,
      "lon": 120.828758
    },
    {
      "city": "屏東縣",
      "town": "來義鄉",
      "name": "白鷺",
      "temp": 25.0,
      "at": 30.61970630284116,
      "lat": 22.456067,
      "lon": 120.658178
    },
    {
      "city": "屏東縣",
      "town": "獅子鄉",
      "name": "內獅",
      "temp": 29.3,
      "at": 36.72247662525379,
      "lat": 22.306856,
      "lon": 120.634956
    },
    {
      "city": "屏東縣",
      "town": "獅子鄉",
      "name": "丹路",
      "temp": 28.5,
      "at": 35.89958086144489,
      "lat": 22.206281,
      "lon": 120.742964
    },
    {
      "city": "屏東縣",
      "town": "滿州鄉",
      "name": "九棚",
      "temp": 28.6,
      "at": 32.64787223294427,
      "lat": 22.143756,
      "lon": 120.886331
    },
    {
      "city": "屏東縣",
      "town": "滿州鄉",
      "name": "滿州",
      "temp": 29.0,
      "at": 33.197023837159186,
      "lat": 22.026208,
      "lon": 120.831875
    },
    {
      "city": "屏東縣",
      "town": "車城鄉",
      "name": "保力",
      "temp": 28.1,
      "at": 31.53524614558919,
      "lat": 22.072925,
      "lon": 120.756094
    },
    {
      "city": "屏東縣",
      "town": "滿州鄉",
      "name": "南仁湖",
      "temp": 26.4,
      "at": 30.986371424826118,
      "lat": 22.086486,
      "lon": 120.855333
    },
    {
      "city": "南投縣",
      "town": "仁愛鄉",
      "name": "合歡山頂",
      "temp": 9.6,
      "at": 7.648712502446429,
      "lat": 24.144778,
      "lon": 121.264083
    },
    {
      "city": "臺中市",
      "town": "北屯區",
      "name": "大坑",
      "temp": 34.2,
      "at": 40.98758904583066,
      "lat": 24.174889,
      "lon": 120.714139
    },
    {
      "city": "彰化縣",
      "town": "溪湖鎮",
      "name": "溪湖",
      "temp": 32.1,
      "at": 37.56669445781408,
      "lat": 23.95175,
      "lon": 120.471056
    },
    {
      "city": "彰化縣",
      "town": "員林市",
      "name": "員林",
      "temp": 33.9,
      "at": 40.464471157830225,
      "lat": 23.948333,
      "lon": 120.577528
    },
    {
      "city": "南投縣",
      "town": "草屯鎮",
      "name": "草屯",
      "temp": 33.1,
      "at": 38.93956355156937,
      "lat": 23.975444,
      "lon": 120.672194
    },
    {
      "city": "彰化縣",
      "town": "芬園鄉",
      "name": "芬園",
      "temp": 31.4,
      "at": 38.606389986874476,
      "lat": 24.017222,
      "lon": 120.613056
    },
    {
      "city": "臺中市",
      "town": "東勢區",
      "name": "東勢",
      "temp": 33.0,
      "at": 38.76462910901563,
      "lat": 24.248194,
      "lon": 120.824917
    },
    {
      "city": "南投縣",
      "town": "竹山鎮",
      "name": "竹山",
      "temp": 32.2,
      "at": 37.70577184754735,
      "lat": 23.764722,
      "lon": 120.677778
    },
    {
      "city": "苗栗縣",
      "town": "泰安鄉",
      "name": "馬都安",
      "temp": 25.1,
      "at": 30.53608177091256,
      "lat": 24.453056,
      "lon": 120.921944
    },
    {
      "city": "苗栗縣",
      "town": "頭屋鄉",
      "name": "明德",
      "temp": 28.2,
      "at": 34.444625124000545,
      "lat": 24.58525,
      "lon": 120.877222
    },
    {
      "city": "苗栗縣",
      "town": "通霄鎮",
      "name": "通霄",
      "temp": 27.6,
      "at": 32.805116265638105,
      "lat": 24.473639,
      "lon": 120.696444
    },
    {
      "city": "臺中市",
      "town": "神岡區",
      "name": "神岡",
      "temp": 28.9,
      "at": 33.026369873726786,
      "lat": 24.274222,
      "lon": 120.650306
    },
    {
      "city": "苗栗縣",
      "town": "卓蘭鎮",
      "name": "卓蘭",
      "temp": 29.2,
      "at": 34.77196724030758,
      "lat": 24.314319,
      "lon": 120.816192
    },
    {
      "city": "臺中市",
      "town": "新社區",
      "name": "新社",
      "temp": 30.2,
      "at": 34.19195930213798,
      "lat": 24.201583,
      "lon": 120.8075
    },
    {
      "city": "南投縣",
      "town": "埔里鎮",
      "name": "埔里",
      "temp": 30.2,
      "at": 34.109261382088434,
      "lat": 23.973944,
      "lon": 120.944278
    },
    {
      "city": "南投縣",
      "town": "信義鄉",
      "name": "信義",
      "temp": 22.6,
      "at": 27.323663637088146,
      "lat": 23.691389,
      "lon": 120.842778
    },
    {
      "city": "南投縣",
      "town": "仁愛鄉",
      "name": "昆陽",
      "temp": 10.1,
      "at": 6.9528696456071195,
      "lat": 24.123139,
      "lon": 121.265361
    },
    {
      "city": "南投縣",
      "town": "仁愛鄉",
      "name": "廬山",
      "temp": 21.1,
      "at": 24.841500885369143,
      "lat": 24.035,
      "lon": 121.173333
    },
    {
      "city": "臺中市",
      "town": "大雅區",
      "name": "大雅",
      "temp": 29.4,
      "at": 33.20168718391561,
      "lat": 24.217056,
      "lon": 120.616239
    },
    {
      "city": "南投縣",
      "town": "南投市",
      "name": "南投",
      "temp": 32.8,
      "at": 38.49673986476317,
      "lat": 23.913208,
      "lon": 120.679183
    },
    {
      "city": "彰化縣",
      "town": "花壇鄉",
      "name": "花壇",
      "temp": 30.8,
      "at": 35.76178588090343,
      "lat": 24.032075,
      "lon": 120.541314
    },
    {
      "city": "彰化縣",
      "town": "線西鄉",
      "name": "線西",
      "temp": 30.2,
      "at": 35.73542237124241,
      "lat": 24.141081,
      "lon": 120.435381
    },
    {
      "city": "臺中市",
      "town": "霧峰區",
      "name": "霧峰",
      "temp": 33.9,
      "at": 39.529182008966345,
      "lat": 24.043658,
      "lon": 120.691323
    },
    {
      "city": "雲林縣",
      "town": "虎尾鎮",
      "name": "虎尾",
      "temp": 31.4,
      "at": 35.997296304045584,
      "lat": 23.720939,
      "lon": 120.433911
    },
    {
      "city": "雲林縣",
      "town": "口湖鄉",
      "name": "宜梧",
      "temp": 29.7,
      "at": 33.0418874477526,
      "lat": 23.538014,
      "lon": 120.1612
    },
    {
      "city": "嘉義縣",
      "town": "義竹鄉",
      "name": "東後寮",
      "temp": 30.4,
      "at": 34.23273127910808,
      "lat": 23.371644,
      "lon": 120.239936
    },
    {
      "city": "臺南市",
      "town": "東山區",
      "name": "東河",
      "temp": 32.4,
      "at": 36.22518201004975,
      "lat": 23.298339,
      "lon": 120.377492
    },
    {
      "city": "臺南市",
      "town": "佳里區",
      "name": "佳里",
      "temp": 30.8,
      "at": 34.22500014399062,
      "lat": 23.175,
      "lon": 120.136667
    },
    {
      "city": "彰化縣",
      "town": "二林鎮",
      "name": "二林",
      "temp": 29.6,
      "at": 35.45331044226705,
      "lat": 23.905067,
      "lon": 120.367928
    },
    {
      "city": "臺南市",
      "town": "白河區",
      "name": "白河",
      "temp": 31.2,
      "at": 33.71191639992293,
      "lat": 23.349228,
      "lon": 120.406328
    },
    {
      "city": "嘉義縣",
      "town": "番路鄉",
      "name": "番路",
      "temp": 32.1,
      "at": 36.39602501203267,
      "lat": 23.466408,
      "lon": 120.546028
    },
    {
      "city": "臺南市",
      "town": "新營區",
      "name": "新營",
      "temp": 31.9,
      "at": 36.730315170639166,
      "lat": 23.312447,
      "lon": 120.308586
    },
    {
      "city": "臺南市",
      "town": "將軍區",
      "name": "將軍",
      "temp": 30.3,
      "at": 34.00531621299383,
      "lat": 23.216733,
      "lon": 120.127656
    },
    {
      "city": "雲林縣",
      "town": "褒忠鄉",
      "name": "褒忠",
      "temp": 30.2,
      "at": 34.12080494576984,
      "lat": 23.692672,
      "lon": 120.295503
    },
    {
      "city": "嘉義縣",
      "town": "溪口鄉",
      "name": "溪口",
      "temp": 31.5,
      "at": 33.669713544960686,
      "lat": 23.605872,
      "lon": 120.395439
    },
    {
      "city": "雲林縣",
      "town": "二崙鄉",
      "name": "二崙",
      "temp": 30.6,
      "at": 35.471209035007874,
      "lat": 23.77455,
      "lon": 120.400811
    },
    {
      "city": "嘉義縣",
      "town": "竹崎鄉",
      "name": "竹崎",
      "temp": 32.6,
      "at": 38.2987921449019,
      "lat": 23.527931,
      "lon": 120.547378
    },
    {
      "city": "嘉義縣",
      "town": "中埔鄉",
      "name": "中埔",
      "temp": 32.1,
      "at": 35.66154802752369,
      "lat": 23.427144,
      "lon": 120.514797
    },
    {
      "city": "臺南市",
      "town": "鹽水區",
      "name": "鹽水",
      "temp": 30.8,
      "at": 34.505000143990614,
      "lat": 23.274339,
      "lon": 120.239506
    },
    {
      "city": "臺南市",
      "town": "學甲區",
      "name": "學甲",
      "temp": 31.1,
      "at": 35.375216017539906,
      "lat": 23.2321,
      "lon": 120.174072
    },
    {
      "city": "臺南市",
      "town": "後壁區",
      "name": "後壁",
      "temp": 31.3,
      "at": 33.648615157119885,
      "lat": 23.368094,
      "lon": 120.354211
    },
    {
      "city": "雲林縣",
      "town": "西螺鎮",
      "name": "西螺",
      "temp": 30.6,
      "at": 34.687960673607556,
      "lat": 23.80215,
      "lon": 120.459253
    },
    {
      "city": "雲林縣",
      "town": "土庫鎮",
      "name": "土庫",
      "temp": 30.9,
      "at": 33.935746643130216,
      "lat": 23.680772,
      "lon": 120.387436
    },
    {
      "city": "嘉義縣",
      "town": "大林鎮",
      "name": "大林",
      "temp": 32.1,
      "at": 36.44774048879613,
      "lat": 23.602361,
      "lon": 120.450281
    },
    {
      "city": "嘉義縣",
      "town": "東石鄉",
      "name": "東石",
      "temp": 29.9,
      "at": 34.13751864512663,
      "lat": 23.460653,
      "lon": 120.145722
    },
    {
      "city": "嘉義縣",
      "town": "水上鄉",
      "name": "水上",
      "temp": 31.1,
      "at": 33.95804539015065,
      "lat": 23.421475,
      "lon": 120.380792
    },
    {
      "city": "嘉義市",
      "town": "東區",
      "name": "嘉義市東區",
      "temp": 32.9,
      "at": 37.23179485729314,
      "lat": 23.459414,
      "lon": 120.452408
    },
    {
      "city": "臺南市",
      "town": "白河區",
      "name": "關子嶺",
      "temp": 27.2,
      "at": 32.26400172484389,
      "lat": 23.332933,
      "lon": 120.499931
    },
    {
      "city": "臺南市",
      "town": "新化區",
      "name": "虎頭埤",
      "temp": 31.6,
      "at": 36.62010992500462,
      "lat": 23.023139,
      "lon": 120.339806
    },
    {
      "city": "臺南市",
      "town": "歸仁區",
      "name": "媽廟",
      "temp": 31.5,
      "at": 37.183682695956456,
      "lat": 22.993514,
      "lon": 120.285431
    },
    {
      "city": "臺南市",
      "town": "龍崎區",
      "name": "崎頂",
      "temp": 30.7,
      "at": 35.67692080210645,
      "lat": 22.961306,
      "lon": 120.361194
    },
    {
      "city": "臺南市",
      "town": "新市區",
      "name": "新市",
      "temp": 31.2,
      "at": 36.99793751633278,
      "lat": 23.063556,
      "lon": 120.290417
    },
    {
      "city": "臺南市",
      "town": "南化區",
      "name": "北寮",
      "temp": 26.5,
      "at": 31.88426856123135,
      "lat": 23.081611,
      "lon": 120.486944
    },
    {
      "city": "臺南市",
      "town": "善化區",
      "name": "善化",
      "temp": 31.6,
      "at": 36.207262204290735,
      "lat": 23.114444,
      "lon": 120.289444
    },
    {
      "city": "高雄市",
      "town": "桃源區",
      "name": "復興",
      "temp": 28.0,
      "at": 34.91013152864289,
      "lat": 23.224167,
      "lon": 120.797778
    },
    {
      "city": "臺南市",
      "town": "六甲區",
      "name": "王爺宮",
      "temp": 30.2,
      "at": 35.037731083978684,
      "lat": 23.223828,
      "lon": 120.392758
    },
    {
      "city": "臺南市",
      "town": "大內區",
      "name": "大內",
      "temp": 31.1,
      "at": 36.69531321340228,
      "lat": 23.120611,
      "lon": 120.35275
    },
    {
      "city": "高雄市",
      "town": "阿蓮區",
      "name": "阿蓮",
      "temp": 30.6,
      "at": 35.52354455314079,
      "lat": 22.884944,
      "lon": 120.319528
    },
    {
      "city": "臺南市",
      "town": "北區",
      "name": "臺南市北區",
      "temp": 30.7,
      "at": 34.857887705083954,
      "lat": 23.012167,
      "lon": 120.186333
    },
    {
      "city": "臺南市",
      "town": "南區",
      "name": "臺南市南區",
      "temp": 29.6,
      "at": 34.484164938281666,
      "lat": 22.963028,
      "lon": 120.180417
    },
    {
      "city": "臺南市",
      "town": "安平區",
      "name": "安平",
      "temp": 30.4,
      "at": 34.288845575059575,
      "lat": 22.994972,
      "lon": 120.144111
    },
    {
      "city": "臺南市",
      "town": "麻豆區",
      "name": "麻豆",
      "temp": 32.3,
      "at": 38.13948922428784,
      "lat": 23.185056,
      "lon": 120.2405
    },
    {
      "city": "臺南市",
      "town": "安定區",
      "name": "安定",
      "temp": 31.7,
      "at": 36.962004460269846,
      "lat": 23.104417,
      "lon": 120.219972
    },
    {
      "city": "臺南市",
      "town": "山上區",
      "name": "山上",
      "temp": 31.5,
      "at": 37.13767388195525,
      "lat": 23.077444,
      "lon": 120.355194
    },
    {
      "city": "臺南市",
      "town": "關廟區",
      "name": "關廟",
      "temp": 31.7,
      "at": 36.92082619477931,
      "lat": 22.964861,
      "lon": 120.319722
    },
    {
      "city": "臺南市",
      "town": "官田區",
      "name": "官田",
      "temp": 31.9,
      "at": 36.20863089242782,
      "lat": 23.195028,
      "lon": 120.307528
    },
    {
      "city": "臺南市",
      "town": "西港區",
      "name": "西港",
      "temp": 30.7,
      "at": 34.971679076362065,
      "lat": 23.127417,
      "lon": 120.195083
    },
    {
      "city": "臺南市",
      "town": "仁德區",
      "name": "仁德",
      "temp": 30.3,
      "at": 34.28335248038581,
      "lat": 22.970111,
      "lon": 120.249778
    },
    {
      "city": "臺南市",
      "town": "左鎮區",
      "name": "左鎮",
      "temp": 31.9,
      "at": 37.21957824151029,
      "lat": 23.058528,
      "lon": 120.400444
    },
    {
      "city": "嘉義縣",
      "town": "大埔鄉",
      "name": "表湖",
      "temp": 26.0,
      "at": 32.94807284075321,
      "lat": 23.243628,
      "lon": 120.633564
    },
    {
      "city": "屏東縣",
      "town": "泰武鄉",
      "name": "舊泰武",
      "temp": 23.7,
      "at": 27.793793574757704,
      "lat": 22.58995,
      "lon": 120.656922
    },
    {
      "city": "高雄市",
      "town": "茂林區",
      "name": "萬山",
      "temp": 28.6,
      "at": 33.81535055968364,
      "lat": 22.907694,
      "lon": 120.68
    },
    {
      "city": "高雄市",
      "town": "六龜區",
      "name": "六龜",
      "temp": 28.0,
      "at": 33.7441227600667,
      "lat": 22.99975,
      "lon": 120.625528
    },
    {
      "city": "屏東縣",
      "town": "里港鄉",
      "name": "里港",
      "temp": 30.6,
      "at": 34.613544553140784,
      "lat": 22.780972,
      "lon": 120.486528
    },
    {
      "city": "高雄市",
      "town": "左營區",
      "name": "左營",
      "temp": 29.9,
      "at": 33.157518645126636,
      "lat": 22.676689,
      "lon": 120.27685
    },
    {
      "city": "屏東縣",
      "town": "東港鎮",
      "name": "東港",
      "temp": 30.6,
      "at": 35.90004127594142,
      "lat": 22.464244,
      "lon": 120.432703
    },
    {
      "city": "屏東縣",
      "town": "竹田鄉",
      "name": "竹田",
      "temp": 30.8,
      "at": 35.88357158901812,
      "lat": 22.586642,
      "lon": 120.535392
    },
    {
      "city": "屏東縣",
      "town": "萬丹鄉",
      "name": "萬丹",
      "temp": 30.9,
      "at": 38.44052521686397,
      "lat": 22.590256,
      "lon": 120.477031
    },
    {
      "city": "屏東縣",
      "town": "霧臺鄉",
      "name": "阿禮",
      "temp": 20.7,
      "at": 22.594447355266432,
      "lat": 22.744444,
      "lon": 120.735556
    },
    {
      "city": "屏東縣",
      "town": "瑪家鄉",
      "name": "瑪家",
      "temp": 25.8,
      "at": 31.989474544209877,
      "lat": 22.684722,
      "lon": 120.678889
    },
    {
      "city": "高雄市",
      "town": "大樹區",
      "name": "溪埔",
      "temp": 32.7,
      "at": 36.21826561995268,
      "lat": 22.740278,
      "lon": 120.438611
    },
    {
      "city": "高雄市",
      "town": "燕巢區",
      "name": "阿公店",
      "temp": 30.6,
      "at": 34.98120903500787,
      "lat": 22.805944,
      "lon": 120.347444
    },
    {
      "city": "高雄市",
      "town": "內門區",
      "name": "內門",
      "temp": 27.9,
      "at": 34.782454336369014,
      "lat": 22.976944,
      "lon": 120.458333
    },
    {
      "city": "高雄市",
      "town": "田寮區",
      "name": "古亭坑",
      "temp": 30.7,
      "at": 36.8074042535952,
      "lat": 22.895,
      "lon": 120.393889
    },
    {
      "city": "屏東縣",
      "town": "琉球鄉",
      "name": "琉球嶼",
      "temp": 30.9,
      "at": 36.74170441698526,
      "lat": 22.334025,
      "lon": 120.354194
    },
    {
      "city": "高雄市",
      "town": "鳳山區",
      "name": "鳳山",
      "temp": 31.7,
      "at": 38.11082619477931,
      "lat": 22.648611,
      "lon": 120.348056
    },
    {
      "city": "屏東縣",
      "town": "鹽埔鄉",
      "name": "鹽埔",
      "temp": 31.1,
      "at": 36.86106915448615,
      "lat": 22.741342,
      "lon": 120.522697
    },
    {
      "city": "高雄市",
      "town": "小港區",
      "name": "鳳森",
      "temp": 30.9,
      "at": 35.664083408310695,
      "lat": 22.546944,
      "lon": 120.3845
    },
    {
      "city": "屏東縣",
      "town": "萬巒鄉",
      "name": "赤山",
      "temp": 31.4,
      "at": 37.02184314546003,
      "lat": 22.594139,
      "lon": 120.60625
    },
    {
      "city": "屏東縣",
      "town": "內埔鄉",
      "name": "三地門",
      "temp": 30.7,
      "at": 36.24740425359521,
      "lat": 22.711667,
      "lon": 120.631889
    },
    {
      "city": "屏東縣",
      "town": "潮州鎮",
      "name": "潮州",
      "temp": 31.0,
      "at": 36.25299735280432,
      "lat": 22.536139,
      "lon": 120.531972
    },
    {
      "city": "高雄市",
      "town": "新興區",
      "name": "新興",
      "temp": 31.6,
      "at": 36.97010992500462,
      "lat": 22.629111,
      "lon": 120.290583
    },
    {
      "city": "高雄市",
      "town": "湖內區",
      "name": "湖內",
      "temp": 30.5,
      "at": 33.75162184610232,
      "lat": 22.888889,
      "lon": 120.236444
    },
    {
      "city": "高雄市",
      "town": "永安區",
      "name": "永安",
      "temp": 30.4,
      "at": 35.07828556072747,
      "lat": 22.824944,
      "lon": 120.228806
    },
    {
      "city": "高雄市",
      "town": "大社區",
      "name": "大社",
      "temp": 31.1,
      "at": 36.336727899707654,
      "lat": 22.731944,
      "lon": 120.338583
    },
    {
      "city": "高雄市",
      "town": "梓官區",
      "name": "梓官",
      "temp": 30.5,
      "at": 34.67600023730816,
      "lat": 22.762444,
      "lon": 120.25925
    },
    {
      "city": "高雄市",
      "town": "路竹區",
      "name": "路竹",
      "temp": 30.4,
      "at": 34.15439985667897,
      "lat": 22.856639,
      "lon": 120.251361
    },
    {
      "city": "高雄市",
      "town": "茄萣區",
      "name": "茄萣",
      "temp": 31.0,
      "at": 36.39299735280432,
      "lat": 22.908444,
      "lon": 120.174583
    },
    {
      "city": "高雄市",
      "town": "岡山區",
      "name": "岡山",
      "temp": 31.2,
      "at": 35.60191639992293,
      "lat": 22.798844,
      "lon": 120.286889
    },
    {
      "city": "高雄市",
      "town": "彌陀區",
      "name": "彌陀",
      "temp": 30.0,
      "at": 33.94607245517363,
      "lat": 22.785583,
      "lon": 120.238278
    },
    {
      "city": "高雄市",
      "town": "仁武區",
      "name": "仁武",
      "temp": 30.6,
      "at": 34.543544553140784,
      "lat": 22.702861,
      "lon": 120.339667
    },
    {
      "city": "高雄市",
      "town": "三民區",
      "name": "三民",
      "temp": 30.2,
      "at": 34.62119415308312,
      "lat": 22.646917,
      "lon": 120.303278
    },
    {
      "city": "高雄市",
      "town": "鼓山區",
      "name": "鼓山",
      "temp": 29.9,
      "at": 33.57626889708781,
      "lat": 22.625139,
      "lon": 120.2675
    },
    {
      "city": "高雄市",
      "town": "苓雅區",
      "name": "苓雅",
      "temp": 31.5,
      "at": 37.709669474954644,
      "lat": 22.624528,
      "lon": 120.322583
    },
    {
      "city": "高雄市",
      "town": "旗山區",
      "name": "旗山",
      "temp": 31.8,
      "at": 37.64184154813208,
      "lat": 22.890389,
      "lon": 120.475528
    },
    {
      "city": "屏東縣",
      "town": "長治鄉",
      "name": "長治",
      "temp": 33.5,
      "at": 39.82555198499732,
      "lat": 22.694833,
      "lon": 120.534611
    },
    {
      "city": "屏東縣",
      "town": "麟洛鄉",
      "name": "麟洛",
      "temp": 32.5,
      "at": 37.43988859701555,
      "lat": 22.652556,
      "lon": 120.519139
    },
    {
      "city": "屏東縣",
      "town": "南州鄉",
      "name": "南州",
      "temp": 30.7,
      "at": 35.56312943082833,
      "lat": 22.487694,
      "lon": 120.494694
    },
    {
      "city": "屏東縣",
      "town": "佳冬鄉",
      "name": "佳冬",
      "temp": 30.3,
      "at": 35.41709860864198,
      "lat": 22.421194,
      "lon": 120.544222
    },
    {
      "city": "屏東縣",
      "town": "高樹鄉",
      "name": "高樹",
      "temp": 30.9,
      "at": 36.49027290397341,
      "lat": 22.828222,
      "lon": 120.592722
    },
    {
      "city": "高雄市",
      "town": "大寮區",
      "name": "大寮",
      "temp": 31.5,
      "at": 35.82969150995766,
      "lat": 22.607389,
      "lon": 120.387667
    },
    {
      "city": "屏東縣",
      "town": "新園鄉",
      "name": "新園",
      "temp": 30.5,
      "at": 34.31881104170524,
      "lat": 22.545194,
      "lon": 120.4535
    },
    {
      "city": "高雄市",
      "town": "林園區",
      "name": "林園",
      "temp": 30.8,
      "at": 35.92321443587593,
      "lat": 22.509583,
      "lon": 120.386556
    },
    {
      "city": "彰化縣",
      "town": "溪州鄉",
      "name": "溪州",
      "temp": 31.1,
      "at": 34.68380133123453,
      "lat": 23.853347,
      "lon": 120.490944
    },
    {
      "city": "雲林縣",
      "town": "斗南鎮",
      "name": "斗南",
      "temp": 31.8,
      "at": 35.58563475733773,
      "lat": 23.680478,
      "lon": 120.470231
    },
    {
      "city": "雲林縣",
      "town": "斗六市",
      "name": "斗六",
      "temp": 31.0,
      "at": 35.04751093786366,
      "lat": 23.722303,
      "lon": 120.532972
    },
    {
      "city": "嘉義縣",
      "town": "朴子市",
      "name": "朴子",
      "temp": 30.1,
      "at": 35.36582565344269,
      "lat": 23.436364,
      "lon": 120.230928
    },
    {
      "city": "雲林縣",
      "town": "北港鎮",
      "name": "北港",
      "temp": 30.4,
      "at": 33.87439985667897,
      "lat": 23.575803,
      "lon": 120.283672
    },
    {
      "city": "嘉義縣",
      "town": "太保市",
      "name": "太保",
      "temp": 31.3,
      "at": 35.287486965779294,
      "lat": 23.456792,
      "lon": 120.323303
    },
    {
      "city": "雲林縣",
      "town": "林內鄉",
      "name": "林內",
      "temp": 32.2,
      "at": 37.1845362915684,
      "lat": 23.750436,
      "lon": 120.601508
    },
    {
      "city": "彰化縣",
      "town": "大城鄉",
      "name": "大城",
      "temp": 29.2,
      "at": 33.57918035189972,
      "lat": 23.854225,
      "lon": 120.312789
    },
    {
      "city": "嘉義縣",
      "town": "民雄鄉",
      "name": "民雄",
      "temp": 32.0,
      "at": 35.976650917347186,
      "lat": 23.553497,
      "lon": 120.420331
    },
    {
      "city": "雲林縣",
      "town": "大埤鄉",
      "name": "大埤",
      "temp": 31.7,
      "at": 35.815921840791916,
      "lat": 23.647817,
      "lon": 120.4234
    },
    {
      "city": "雲林縣",
      "town": "莿桐鄉",
      "name": "莿桐",
      "temp": 30.5,
      "at": 35.02959483510962,
      "lat": 23.762947,
      "lon": 120.494247
    },
    {
      "city": "雲林縣",
      "town": "臺西鄉",
      "name": "臺西",
      "temp": 29.1,
      "at": 33.755980395097346,
      "lat": 23.703283,
      "lon": 120.189422
    },
    {
      "city": "雲林縣",
      "town": "水林鄉",
      "name": "水林",
      "temp": 30.9,
      "at": 35.79027290397342,
      "lat": 23.574658,
      "lon": 120.237839
    },
    {
      "city": "雲林縣",
      "town": "元長鄉",
      "name": "元長",
      "temp": 30.5,
      "at": 34.24521644390377,
      "lat": 23.644608,
      "lon": 120.311544
    },
    {
      "city": "嘉義縣",
      "town": "布袋鎮",
      "name": "布袋",
      "temp": 30.1,
      "at": 32.98373168154194,
      "lat": 23.382611,
      "lon": 120.159667
    },
    {
      "city": "嘉義縣",
      "town": "鹿草鄉",
      "name": "鹿草",
      "temp": 31.3,
      "at": 34.88805106144959,
      "lat": 23.413075,
      "lon": 120.300231
    },
    {
      "city": "嘉義縣",
      "town": "六腳鄉",
      "name": "六腳",
      "temp": 30.6,
      "at": 34.19354455314079,
      "lat": 23.494611,
      "lon": 120.2825
    },
    {
      "city": "嘉義縣",
      "town": "新港鄉",
      "name": "新港",
      "temp": 30.8,
      "at": 35.05892871336218,
      "lat": 23.555011,
      "lon": 120.3376
    },
    {
      "city": "嘉義縣",
      "town": "梅山鄉",
      "name": "梅山",
      "temp": 30.8,
      "at": 36.815000143990616,
      "lat": 23.587147,
      "lon": 120.547464
    },
    {
      "city": "嘉義縣",
      "town": "阿里山鄉",
      "name": "達邦",
      "temp": 24.6,
      "at": 29.352175948750812,
      "lat": 23.455769,
      "lon": 120.741403
    },
    {
      "city": "臺南市",
      "town": "白河區",
      "name": "鹿寮",
      "temp": 31.6,
      "at": 35.912957645718514,
      "lat": 23.387811,
      "lon": 120.469225
    },
    {
      "city": "嘉義縣",
      "town": "阿里山鄉",
      "name": "茶山",
      "temp": 29.6,
      "at": 34.72672842632553,
      "lat": 23.300847,
      "lon": 120.656664
    },
    {
      "city": "雲林縣",
      "town": "古坑鄉",
      "name": "棋山",
      "temp": 32.9,
      "at": 38.27837605456489,
      "lat": 23.688211,
      "lon": 120.595289
    },
    {
      "city": "雲林縣",
      "town": "水林鄉",
      "name": "蔦松",
      "temp": 31.3,
      "at": 36.679179252790185,
      "lat": 23.516064,
      "lon": 120.221625
    },
    {
      "city": "臺南市",
      "town": "北門區",
      "name": "北門",
      "temp": 30.2,
      "at": 34.827731083978684,
      "lat": 23.269517,
      "lon": 120.117367
    },
    {
      "city": "雲林縣",
      "town": "口湖鄉",
      "name": "口湖工作站",
      "temp": 29.6,
      "at": 33.728637599634496,
      "lat": 23.591722,
      "lon": 120.172281
    },
    {
      "city": "屏東縣",
      "town": "東港鎮",
      "name": "東港工作站",
      "temp": 30.0,
      "at": 35.20471535338058,
      "lat": 22.481778,
      "lon": 120.458017
    },
    {
      "city": "屏東縣",
      "town": "車城鄉",
      "name": "恆春工作站",
      "temp": 29.6,
      "at": 34.19692860760526,
      "lat": 22.081478,
      "lon": 120.706406
    },
    {
      "city": "南投縣",
      "town": "仁愛鄉",
      "name": "萬大發電廠",
      "temp": 24.6,
      "at": 28.79863697319847,
      "lat": 23.980611,
      "lon": 121.131497
    },
    {
      "city": "新北市",
      "town": "新店區",
      "name": "新北",
      "temp": 27.5,
      "at": 33.74581407420731,
      "lat": 24.96099,
      "lon": 121.516977
    },
    {
      "city": "新北市",
      "town": "淡水區",
      "name": "淡水",
      "temp": 26.5,
      "at": 31.157017133444327,
      "lat": 25.166664,
      "lon": 121.440672
    },
    {
      "city": "臺北市",
      "town": "北投區",
      "name": "鞍部",
      "temp": 21.0,
      "at": 23.295297595898962,
      "lat": 25.184365,
      "lon": 121.521495
    },
    {
      "city": "臺北市",
      "town": "中正區",
      "name": "臺北",
      "temp": 28.1,
      "at": 33.334769223262896,
      "lat": 25.039439,
      "lon": 121.506628
    },
    {
      "city": "臺北市",
      "town": "北投區",
      "name": "陽明山",
      "temp": 23.7,
      "at": 27.083054097207864,
      "lat": 25.163858,
      "lon": 121.536313
    },
    {
      "city": "基隆市",
      "town": "仁愛區",
      "name": "基隆",
      "temp": 26.9,
      "at": 30.57099372755298,
      "lat": 25.135104,
      "lon": 121.732242
    },
    {
      "city": "基隆市",
      "town": "中正區",
      "name": "彭佳嶼",
      "temp": 26.6,
      "at": 27.947119505935873,
      "lat": 25.629774,
      "lon": 122.071474
    },
    {
      "city": "花蓮縣",
      "town": "花蓮市",
      "name": "花蓮",
      "temp": 29.9,
      "at": 33.9962688970878,
      "lat": 23.976933,
      "lon": 121.605126
    },
    {
      "city": "桃園市",
      "town": "新屋區",
      "name": "新屋",
      "temp": 27.1,
      "at": 30.95388846445981,
      "lat": 25.008484,
      "lon": 121.039271
    },
    {
      "city": "宜蘭縣",
      "town": "宜蘭市",
      "name": "宜蘭",
      "temp": 29.8,
      "at": 35.032892219684044,
      "lat": 24.765773,
      "lon": 121.748322
    },
    {
      "city": "金門縣",
      "town": "金城鎮",
      "name": "金門",
      "temp": 26.7,
      "at": 31.165363443016133,
      "lat": 24.408942,
      "lon": 118.281127
    },
    {
      "city": "彰化縣",
      "town": "田中鎮",
      "name": "田中",
      "temp": 31.9,
      "at": 36.10768354334534,
      "lat": 23.875561,
      "lon": 120.573149
    },
    {
      "city": "苗栗縣",
      "town": "造橋鄉",
      "name": "後龍",
      "temp": 27.5,
      "at": 32.35275295447674,
      "lat": 24.650318,
      "lon": 120.823641
    },
    {
      "city": "雲林縣",
      "town": "古坑鄉",
      "name": "古坑",
      "temp": 33.2,
      "at": 37.21734214334743,
      "lat": 23.635298,
      "lon": 120.543786
    },
    {
      "city": "澎湖縣",
      "town": "望安鄉",
      "name": "東吉島",
      "temp": 29.4,
      "at": 33.80579966284332,
      "lat": 23.258999,
      "lon": 119.659533
    },
    {
      "city": "澎湖縣",
      "town": "馬公市",
      "name": "澎湖",
      "temp": 29.8,
      "at": 34.88880589245305,
      "lat": 23.56722,
      "lon": 119.554987
    },
    {
      "city": "臺南市",
      "town": "中西區",
      "name": "臺南",
      "temp": 30.0,
      "at": 33.736072455173634,
      "lat": 22.995039,
      "lon": 120.196846
    },
    {
      "city": "臺南市",
      "town": "永康區",
      "name": "永康",
      "temp": 31.3,
      "at": 34.48861515711989,
      "lat": 23.040146,
      "lon": 120.228623
    },
    {
      "city": "高雄市",
      "town": "楠梓區",
      "name": "高雄",
      "temp": 30.6,
      "at": 35.270041275941416,
      "lat": 22.732201,
      "lon": 120.304459
    },
    {
      "city": "嘉義市",
      "town": "西區",
      "name": "嘉義",
      "temp": 32.1,
      "at": 35.974978981050626,
      "lat": 23.497684,
      "lon": 120.424796
    },
    {
      "city": "臺中市",
      "town": "北區",
      "name": "臺中",
      "temp": 32.5,
      "at": 37.56086428787623,
      "lat": 24.147494,
      "lon": 120.675919
    },
    {
      "city": "嘉義縣",
      "town": "阿里山鄉",
      "name": "阿里山",
      "temp": 14.3,
      "at": 14.82796806922143,
      "lat": 23.509984,
      "lon": 120.805129
    },
    {
      "city": "臺東縣",
      "town": "大武鄉",
      "name": "大武",
      "temp": 29.9,
      "at": 34.84126788924313,
      "lat": 22.357523,
      "lon": 120.895703
    },
    {
      "city": "南投縣",
      "town": "信義鄉",
      "name": "玉山",
      "temp": 7.2,
      "at": 3.713910513493027,
      "lat": 23.488964,
      "lon": 120.951318
    },
    {
      "city": "新竹縣",
      "town": "竹北市",
      "name": "新竹",
      "temp": 27.8,
      "at": 33.737481654251845,
      "lat": 24.830335,
      "lon": 121.006343
    },
    {
      "city": "屏東縣",
      "town": "恆春鎮",
      "name": "恆春",
      "temp": 29.8,
      "at": 34.94450374714455,
      "lat": 22.0057,
      "lon": 120.738326
    },
    {
      "city": "臺東縣",
      "town": "成功鎮",
      "name": "成功",
      "temp": 28.9,
      "at": 32.823312589520135,
      "lat": 23.099296,
      "lon": 121.36534
    },
    {
      "city": "臺東縣",
      "town": "蘭嶼鄉",
      "name": "蘭嶼",
      "temp": 25.4,
      "at": 20.556222387363658,
      "lat": 22.038737,
      "lon": 121.55041
    },
    {
      "city": "南投縣",
      "town": "魚池鄉",
      "name": "日月潭",
      "temp": 24.8,
      "at": 30.03211333110859,
      "lat": 23.883099,
      "lon": 120.899911
    },
    {
      "city": "臺東縣",
      "town": "臺東市",
      "name": "臺東",
      "temp": 29.5,
      "at": 36.11601832347727,
      "lat": 22.754017,
      "lon": 121.146522
    },
    {
      "city": "連江縣",
      "town": "南竿鄉",
      "name": "馬祖",
      "temp": 24.8,
      "at": 28.471181536407933,
      "lat": 26.171145,
      "lon": 119.914855
    },
    {
      "city": "新北市",
      "town": "樹林區",
      "name": "桃改樹林分場",
      "temp": 27.6,
      "at": 32.411868661041126,
      "lat": 24.946279,
      "lon": 121.378755
    },
    {
      "city": "桃園市",
      "town": "新屋區",
      "name": "桃園農改",
      "temp": 27.1,
      "at": 31.933888464459805,
      "lat": 24.952721,
      "lon": 121.022375
    },
    {
      "city": "新竹縣",
      "town": "五峰鄉",
      "name": "桃改五峰分場",
      "temp": 22.8,
      "at": 27.659812686945006,
      "lat": 24.613978,
      "lon": 121.148983
    },
    {
      "city": "新竹縣",
      "town": "新埔鎮",
      "name": "桃改新埔分場",
      "temp": 27.3,
      "at": 32.02965017170047,
      "lat": 24.836,
      "lon": 121.058
    },
    {
      "city": "彰化縣",
      "town": "大村鄉",
      "name": "臺中農改",
      "temp": 31.5,
      "at": 35.39769591695827,
      "lat": 24.004779,
      "lon": 120.526236
    },
    {
      "city": "南投縣",
      "town": "魚池鄉",
      "name": "中改埔里分場",
      "temp": 27.9,
      "at": 33.17102255682257,
      "lat": 23.904982,
      "lon": 120.955222
    },
    {
      "city": "雲林縣",
      "town": "斗南鎮",
      "name": "南改斗南分場",
      "temp": 32.8,
      "at": 37.07450542744868,
      "lat": 23.636304,
      "lon": 120.469202
    },
    {
      "city": "嘉義縣",
      "town": "義竹鄉",
      "name": "南改義竹分場",
      "temp": 31.4,
      "at": 33.79388617298475,
      "lat": 23.362432,
      "lon": 120.271244
    },
    {
      "city": "嘉義縣",
      "town": "鹿草鄉",
      "name": "南改鹿草分場",
      "temp": 30.9,
      "at": 32.81574664313021,
      "lat": 23.418608,
      "lon": 120.274941
    },
    {
      "city": "臺南市",
      "town": "新化區",
      "name": "臺南農改",
      "temp": 31.9,
      "at": 38.31673619426287,
      "lat": 23.062242,
      "lon": 120.334096
    },
    {
      "city": "臺南市",
      "town": "七股區",
      "name": "七股研究中心",
      "temp": 30.3,
      "at": 34.01120741081791,
      "lat": 23.083472,
      "lon": 120.054792
    },
    {
      "city": "屏東縣",
      "town": "長治鄉",
      "name": "高雄農改",
      "temp": 32.8,
      "at": 38.14673986476317,
      "lat": 22.711084,
      "lon": 120.517814
    },
    {
      "city": "臺東縣",
      "town": "卑南鄉",
      "name": "東改班鳩分場",
      "temp": 28.6,
      "at": 33.1603939062049,
      "lat": 22.831307,
      "lon": 121.069619
    },
    {
      "city": "花蓮縣",
      "town": "吉安鄉",
      "name": "花蓮農改",
      "temp": 29.2,
      "at": 34.87557379610366,
      "lat": 23.977028,
      "lon": 121.555752
    },
    {
      "city": "宜蘭縣",
      "town": "三星鄉",
      "name": "花改蘭陽分場",
      "temp": 29.2,
      "at": 34.272459040740515,
      "lat": 24.688121,
      "lon": 121.708402
    },
    {
      "city": "高雄市",
      "town": "旗山區",
      "name": "高改旗南分場",
      "temp": 31.0,
      "at": 36.58751093786366,
      "lat": 22.859612,
      "lon": 120.508583
    },
    {
      "city": "新北市",
      "town": "石碇區",
      "name": "茶改北部分場",
      "temp": 24.1,
      "at": 29.1046267550025,
      "lat": 24.957588,
      "lon": 121.623022
    },
    {
      "city": "桃園市",
      "town": "楊梅區",
      "name": "茶改場",
      "temp": 26.4,
      "at": 30.897996989327254,
      "lat": 24.910258,
      "lon": 121.17713
    },
    {
      "city": "南投縣",
      "town": "魚池鄉",
      "name": "茶改中部分場",
      "temp": 25.2,
      "at": 29.288553087727244,
      "lat": 23.877382,
      "lon": 120.905442
    },
    {
      "city": "南投縣",
      "town": "鹿谷鄉",
      "name": "茶改南部分場",
      "temp": 29.3,
      "at": 33.86126015100004,
      "lat": 23.76429,
      "lon": 120.732364
    },
    {
      "city": "臺北市",
      "town": "大安區",
      "name": "臺灣大學",
      "temp": 27.6,
      "at": 32.393340617107455,
      "lat": 25.01606,
      "lon": 121.531193
    },
    {
      "city": "臺北市",
      "town": "士林區",
      "name": "文化大學",
      "temp": 24.7,
      "at": 28.35215423668383,
      "lat": 25.137855,
      "lon": 121.531657
    },
    {
      "city": "臺中市",
      "town": "和平區",
      "name": "武陵",
      "temp": 20.3,
      "at": 21.15549190961834,
      "lat": 24.354609,
      "lon": 121.300112
    },
    {
      "city": "彰化縣",
      "town": "彰化市",
      "name": "彰師大",
      "temp": 31.4,
      "at": 36.76411656616725,
      "lat": 24.08314,
      "lon": 120.548508
    },
    {
      "city": "雲林縣",
      "town": "麥寮鄉",
      "name": "麥寮",
      "temp": 29.7,
      "at": 35.077552708849936,
      "lat": 23.800517,
      "lon": 120.209572
    },
    {
      "city": "花蓮縣",
      "town": "秀林鄉",
      "name": "合歡山",
      "temp": 9.7,
      "at": 6.865228610410242,
      "lat": 24.144972,
      "lon": 121.276071
    },
    {
      "city": "桃園市",
      "town": "中壢區",
      "name": "農工中心",
      "temp": 26.4,
      "at": 31.74412180116021,
      "lat": 24.987706,
      "lon": 121.231626
    },
    {
      "city": "雲林縣",
      "town": "古坑鄉",
      "name": "古坑(花卉中心)",
      "temp": 33.5,
      "at": 37.94537848546615,
      "lat": 23.6353,
      "lon": 120.54428
    },
    {
      "city": "雲林縣",
      "town": "虎尾鎮",
      "name": "雲林臺大",
      "temp": 31.0,
      "at": 35.615254145333985,
      "lat": 23.732381,
      "lon": 120.415777
    },
    {
      "city": "臺南市",
      "town": "後壁區",
      "name": "蘭花園區",
      "temp": 32.2,
      "at": 36.256408884231554,
      "lat": 23.342018,
      "lon": 120.371562
    },
    {
      "city": "苗栗縣",
      "town": "西湖鄉",
      "name": "畜試北區分所",
      "temp": 27.2,
      "at": 31.655335038351424,
      "lat": 24.529569,
      "lon": 120.762788
    },
    {
      "city": "臺南市",
      "town": "新化區",
      "name": "畜試所",
      "temp": 32.1,
      "at": 37.41050199654165,
      "lat": 23.060713,
      "lon": 120.328308
    },
    {
      "city": "屏東縣",
      "town": "恆春鎮",
      "name": "畜試南區分所",
      "temp": 28.1,
      "at": 31.735007684426044,
      "lat": 21.947348,
      "lon": 120.794139
    },
    {
      "city": "宜蘭縣",
      "town": "五結鄉",
      "name": "畜試東區分所",
      "temp": 28.9,
      "at": 34.634304406062036,
      "lat": 24.670842,
      "lon": 121.824362
    },
    {
      "city": "臺中市",
      "town": "梧棲區",
      "name": "梧棲",
      "temp": 28.0,
      "at": 32.8184575548294,
      "lat": 24.257753,
      "lon": 120.515211
    },
    {
      "city": "新北市",
      "town": "坪林區",
      "name": "四堵",
      "temp": 24.3,
      "at": 29.586390040360037,
      "lat": 24.894394,
      "lon": 121.737519
    },
    {
      "city": "新北市",
      "town": "烏來區",
      "name": "福山",
      "temp": 28.2,
      "at": 32.68253212258585,
      "lat": 24.778333,
      "lon": 121.494583
    },
    {
      "city": "新北市",
      "town": "平溪區",
      "name": "火燒寮",
      "temp": 24.8,
      "at": 29.715103587494397,
      "lat": 25.004411,
      "lon": 121.734572
    },
    {
      "city": "新北市",
      "town": "瑞芳區",
      "name": "瑞芳",
      "temp": 25.6,
      "at": 30.588179114160127,
      "lat": 25.114861,
      "lon": 121.792639
    },
    {
      "city": "新北市",
      "town": "貢寮區",
      "name": "福隆",
      "temp": 26.6,
      "at": 31.886248689980377,
      "lat": 25.019167,
      "lon": 121.934167
    },
    {
      "city": "新北市",
      "town": "石門區",
      "name": "富貴角",
      "temp": 24.4,
      "at": 28.212206408452012,
      "lat": 25.265556,
      "lon": 121.557278
    },
    {
      "city": "臺北市",
      "town": "北投區",
      "name": "中八仙",
      "temp": 26.9,
      "at": 31.73759365375949,
      "lat": 25.117538,
      "lon": 121.48376
    },
    {
      "city": "新北市",
      "town": "烏來區",
      "name": "信賢",
      "temp": 25.1,
      "at": 28.64577247693284,
      "lat": 24.842865,
      "lon": 121.526709
    },
    {
      "city": "新北市",
      "town": "坪林區",
      "name": "漁光",
      "temp": 22.1,
      "at": 25.66412961144209,
      "lat": 24.970542,
      "lon": 121.713099
    },
    {
      "city": "桃園市",
      "town": "中壢區",
      "name": "中央大學",
      "temp": 26.1,
      "at": 30.23797671366485,
      "lat": 24.969417,
      "lon": 121.176946
    },
    {
      "city": "桃園市",
      "town": "桃園區",
      "name": "桃園",
      "temp": 27.4,
      "at": 32.775037104183504,
      "lat": 24.994256,
      "lon": 121.315044
    },
    {
      "city": "桃園市",
      "town": "觀音區",
      "name": "觀音",
      "temp": 26.9,
      "at": 32.297593653759485,
      "lat": 25.028835,
      "lon": 121.145094
    },
    {
      "city": "桃園市",
      "town": "八德區",
      "name": "八德蔬果",
      "temp": 26.5,
      "at": 31.358696316781618,
      "lat": 24.98035,
      "lon": 121.27365
    },
    {
      "city": "桃園市",
      "town": "桃園區",
      "name": "中德",
      "temp": 26.7,
      "at": 31.280603012933966,
      "lat": 24.983633,
      "lon": 121.283124
    },
    {
      "city": "新竹縣",
      "town": "峨眉鄉",
      "name": "峨眉",
      "temp": 27.0,
      "at": 33.41568010469091,
      "lat": 24.692389,
      "lon": 121.009083
    },
    {
      "city": "新竹縣",
      "town": "新埔鎮",
      "name": "打鐵坑",
      "temp": 26.4,
      "at": 31.943796688259987,
      "lat": 24.85175,
      "lon": 121.142611
    },
    {
      "city": "新竹縣",
      "town": "關西鎮",
      "name": "關西工作站",
      "temp": 26.0,
      "at": 32.115139868998,
      "lat": 24.759045,
      "lon": 121.176589
    },
    {
      "city": "新竹縣",
      "town": "寶山鄉",
      "name": "寶山農場",
      "temp": 29.0,
      "at": 35.26002270205636,
      "lat": 24.734205,
      "lon": 120.967953
    },
    {
      "city": "新竹縣",
      "town": "新埔鎮",
      "name": "巨埔",
      "temp": 27.7,
      "at": 33.175489567463565,
      "lat": 24.846114,
      "lon": 121.10621
    },
    {
      "city": "新竹縣",
      "town": "五峰鄉",
      "name": "石鹿",
      "temp": 20.5,
      "at": 21.25883384493421,
      "lat": 24.567282,
      "lon": 121.150221
    },
    {
      "city": "苗栗縣",
      "town": "竹南鎮",
      "name": "竹南",
      "temp": 27.4,
      "at": 32.31516147712631,
      "lat": 24.710737,
      "lon": 120.880772
    },
    {
      "city": "苗栗縣",
      "town": "南庄鄉",
      "name": "南庄",
      "temp": 25.7,
      "at": 31.702454903833797,
      "lat": 24.603539,
      "lon": 120.992023
    },
    {
      "city": "苗栗縣",
      "town": "大湖鄉",
      "name": "大湖",
      "temp": 29.7,
      "at": 35.421887447752596,
      "lat": 24.4167,
      "lon": 120.862694
    },
    {
      "city": "苗栗縣",
      "town": "後龍鎮",
      "name": "龍溪",
      "temp": 27.8,
      "at": 33.45748165425184,
      "lat": 24.608056,
      "lon": 120.775556
    },