{
  "meta": {
    "updated_at": "2026-02-17 12:15:56",
    "source": "CWA Auto Stations",
    "count": 796
  },
  "data": [
    {
      "city": "花蓮縣",
      "town": "秀林鄉",
      "name": "崇德",
      "temp": 20.3,
      "at": 18.9714544853083,
      "lat": 24.167948,
      "lon": 121.649251
    },
    {
      "city": "臺東縣",
      "town": "卑南鄉",
      "name": "富山",
      "temp": 22.5,
      "at": 16.997643555802703,
      "lat": 22.82419,
      "lon": 121.182756
    },
    {
      "city": "臺東縣",
      "town": "蘭嶼鄉",
      "name": "東清國小",
      "temp": 23.8,
      "at": 25.955878471157895,
      "lat": 22.058965,
      "lon": 121.556901
    },
    {
      "city": "臺東縣",
      "town": "綠島鄉",
      "name": "牛頭山",
      "temp": 21.6,
      "at": 17.04314203128758,
      "lat": 22.678485,
      "lon": 121.498883
    },
    {
      "city": "新北市",
      "town": "八里區",
      "name": "硬漢嶺",
      "temp": 10.2,
      "at": 7.080178036534704,
      "lat": 25.137872,
      "lon": 121.41814
    },
    {
      "city": "花蓮縣",
      "town": "秀林鄉",
      "name": "秀林",
      "temp": 11.8,
      "at": 11.379545913300493,
      "lat": 24.304668,
      "lon": 121.722972
    },
    {
      "city": "花蓮縣",
      "town": "秀林鄉",
      "name": "和仁",
      "temp": 20.2,
      "at": 19.67074177649117,
      "lat": 24.243199,
      "lon": 121.704304
    },
    {
      "city": "花蓮縣",
      "town": "秀林鄉",
      "name": "立霧山",
      "temp": 11.7,
      "at": 11.179565034815656,
      "lat": 24.185061,
      "lon": 121.633735
    },
    {
      "city": "臺中市",
      "town": "和平區",
      "name": "鞍馬山工作站",
      "temp": 9.5,
      "at": 7.485140830491789,
      "lat": 24.2681,
      "lon": 120.9926
    },
    {
      "city": "臺中市",
      "town": "和平區",
      "name": "大雪山埡口",
      "temp": 8.3,
      "at": 3.484972920719663,
      "lat": 24.2744,
      "lon": 121.0224
    },
    {
      "city": "臺中市",
      "town": "和平區",
      "name": "小雪山天池",
      "temp": 7.8,
      "at": 5.889638320053809,
      "lat": 24.2825,
      "lon": 121.0182
    },
    {
      "city": "臺中市",
      "town": "和平區",
      "name": "小雪山林道",
      "temp": 6.1,
      "at": 3.897345895597934,
      "lat": 24.2968,
      "lon": 121.0283
    },
    {
      "city": "臺中市",
      "town": "和平區",
      "name": "大雪山",
      "temp": 9.5,
      "at": 7.944264355228164,
      "lat": 24.2562,
      "lon": 120.9991
    },
    {
      "city": "臺中市",
      "town": "和平區",
      "name": "出雲山苗圃",
      "temp": 15.8,
      "at": 15.892698249665347,
      "lat": 24.2328,
      "lon": 120.8965
    },
    {
      "city": "臺中市",
      "town": "和平區",
      "name": "八仙山苗圃",
      "temp": 21.5,
      "at": 21.20305253202144,
      "lat": 24.1944,
      "lon": 120.9932
    },
    {
      "city": "臺中市",
      "town": "和平區",
      "name": "中橫21.6k",
      "temp": 18.4,
      "at": 16.83532974592081,
      "lat": 24.2516,
      "lon": 121.1373
    },
    {
      "city": "苗栗縣",
      "town": "泰安鄉",
      "name": "雪見",
      "temp": 12.4,
      "at": 11.749632994084513,
      "lat": 24.4277,
      "lon": 121.0052
    },
    {
      "city": "苗栗縣",
      "town": "泰安鄉",
      "name": "松安",
      "temp": 18.0,
      "at": 17.924610235716397,
      "lat": 24.3996,
      "lon": 120.9778
    },
    {
      "city": "苗栗縣",
      "town": "泰安鄉",
      "name": "觀霧分站",
      "temp": 11.8,
      "at": 9.935254894108375,
      "lat": 24.5075,
      "lon": 121.1057
    },
    {
      "city": "新竹縣",
      "town": "五峰鄉",
      "name": "樂山林道6k",
      "temp": 7.9,
      "at": 2.8605167165170613,
      "lat": 24.5017,
      "lon": 121.0795
    },
    {
      "city": "新竹縣",
      "town": "五峰鄉",
      "name": "大坪苗圃",
      "temp": 9.6,
      "at": 8.462389752299645,
      "lat": 24.5379,
      "lon": 121.1026
    },
    {
      "city": "桃園市",
      "town": "復興區",
      "name": "東眼山",
      "temp": 10.0,
      "at": 9.043892454757028,
      "lat": 24.8301,
      "lon": 121.4006
    },
    {
      "city": "桃園市",
      "town": "復興區",
      "name": "四稜",
      "temp": 12.6,
      "at": 12.203219938675108,
      "lat": 24.6796,
      "lon": 121.4211
    },
    {
      "city": "宜蘭縣",
      "town": "大同鄉",
      "name": "明池",
      "temp": 9.7,
      "at": 8.986271752097936,
      "lat": 24.6506,
      "lon": 121.4673
    },
    {
      "city": "宜蘭縣",
      "town": "大同鄉",
      "name": "太平山中間站",
      "temp": 13.3,
      "at": 13.37911687051131,
      "lat": 24.5437,
      "lon": 121.5052
    },
    {
      "city": "宜蘭縣",
      "town": "大同鄉",
      "name": "翠峰林道6K",
      "temp": 8.6,
      "at": 6.694266802323453,
      "lat": 24.4995,
      "lon": 121.5604
    },
    {
      "city": "宜蘭縣",
      "town": "大同鄉",
      "name": "太平山莊",
      "temp": 8.9,
      "at": 7.801980656221923,
      "lat": 24.4959,
      "lon": 121.5281
    },
    {
      "city": "高雄市",
      "town": "大樹區",
      "name": "大樹",
      "temp": 25.4,
      "at": 25.250500662921038,
      "lat": 22.686423,
      "lon": 120.424748
    },
    {
      "city": "新北市",
      "town": "林口區",
      "name": "太平里",
      "temp": 14.6,
      "at": 11.892014329494067,
      "lat": 25.136709,
      "lon": 121.356668
    },
    {
      "city": "臺東縣",
      "town": "太麻里鄉",
      "name": "美和",
      "temp": 24.6,
      "at": 24.007938754346508,
      "lat": 22.683881,
      "lon": 121.052177
    },
    {
      "city": "臺東縣",
      "town": "臺東市",
      "name": "富岡",
      "temp": 23.0,
      "at": 20.081443764107156,
      "lat": 22.794274,
      "lon": 121.184602
    },
    {
      "city": "臺東縣",
      "town": "東河鄉",
      "name": "新蘭",
      "temp": 23.0,
      "at": 20.41164697758675,
      "lat": 22.871021,
      "lon": 121.215155
    },
    {
      "city": "臺東縣",
      "town": "東河鄉",
      "name": "興隆",
      "temp": 23.5,
      "at": 25.78836496997257,
      "lat": 22.915469,
      "lon": 121.249394
    },
    {
      "city": "臺東縣",
      "town": "成功鎮",
      "name": "叭嗡嗡",
      "temp": 21.7,
      "at": 17.037557396236874,
      "lat": 23.048871,
      "lon": 121.335138
    },
    {
      "city": "臺東縣",
      "town": "成功鎮",
      "name": "白守蓮",
      "temp": 21.6,
      "at": 19.178742103549915,
      "lat": 23.12858,
      "lon": 121.393824
    },
    {
      "city": "臺東縣",
      "town": "成功鎮",
      "name": "小港漁港",
      "temp": 21.6,
      "at": 20.268913552767728,
      "lat": 23.160368,
      "lon": 121.392338
    },
    {
      "city": "臺東縣",
      "town": "長濱鄉",
      "name": "長濱漁港",
      "temp": 20.4,
      "at": 16.305531543624586,
      "lat": 23.315454,
      "lon": 121.451891
    },
    {
      "city": "花蓮縣",
      "town": "花蓮市",
      "name": "花蓮漁港",
      "temp": 19.8,
      "at": 19.097310668495595,
      "lat": 23.997128,
      "lon": 121.63018
    },
    {
      "city": "花蓮縣",
      "town": "秀林鄉",
      "name": "加灣",
      "temp": 19.6,
      "at": 18.8410054829401,
      "lat": 24.083828,
      "lon": 121.600788
    },
    {
      "city": "花蓮縣",
      "town": "壽豐鄉",
      "name": "鹽寮",
      "temp": 20.2,
      "at": 17.36203544796013,
      "lat": 23.847418,
      "lon": 121.584524
    },
    {
      "city": "臺中市",
      "town": "大甲區",
      "name": "大甲溪埔",
      "temp": 16.3,
      "at": 12.85106473508614,
      "lat": 24.372375,
      "lon": 120.611895
    },
    {
      "city": "彰化縣",
      "town": "和美鎮",
      "name": "和美",
      "temp": 17.7,
      "at": 13.737587728157493,
      "lat": 24.106919,
      "lon": 120.483978
    },
    {
      "city": "屏東縣",
      "town": "滿州鄉",
      "name": "鼻頭",
      "temp": 22.9,
      "at": 18.29327388931417,
      "lat": 22.106107,
      "lon": 120.889862
    },
    {
      "city": "屏東縣",
      "town": "滿州鄉",
      "name": "興海",
      "temp": 23.6,
      "at": 22.3789785591084,
      "lat": 21.976985,
      "lon": 120.835907
    },
    {
      "city": "屏東縣",
      "town": "恆春鎮",
      "name": "後壁湖",
      "temp": 24.7,
      "at": 23.881723389347062,
      "lat": 21.94747,
      "lon": 120.737695
    },
    {
      "city": "屏東縣",
      "town": "恆春鎮",
      "name": "山海",
      "temp": 24.9,
      "at": 25.637957419876237,
      "lat": 21.989579,
      "lon": 120.701107
    },
    {
      "city": "屏東縣",
      "town": "車城鄉",
      "name": "竹坑",
      "temp": 23.5,
      "at": 24.90170405542213,
      "lat": 22.140248,
      "lon": 120.694128
    },
    {
      "city": "屏東縣",
      "town": "枋山鄉",
      "name": "加祿堂",
      "temp": 23.0,
      "at": 22.78368974725767,
      "lat": 22.338096,
      "lon": 120.613688
    },
    {
      "city": "臺南市",
      "town": "將軍區",
      "name": "鯤鯓國小",
      "temp": 20.0,
      "at": 15.843258008058708,
      "lat": 23.189624,
      "lon": 120.080813
    },
    {
      "city": "屏東縣",
      "town": "枋寮鄉",
      "name": "下寮",
      "temp": 22.9,
      "at": 23.639489348837277,
      "lat": 22.394648,
      "lon": 120.546743
    },
    {
      "city": "屏東縣",
      "town": "佳冬鄉",
      "name": "塭仔",
      "temp": 22.1,
      "at": 21.270844985268095,
      "lat": 22.418718,
      "lon": 120.511622
    },
    {
      "city": "高雄市",
      "town": "林園區",
      "name": "汕尾",
      "temp": 23.1,
      "at": 22.62267098589841,
      "lat": 22.479984,
      "lon": 120.407094
    },
    {
      "city": "高雄市",
      "town": "小港區",
      "name": "鳳鼻頭",
      "temp": 22.2,
      "at": 20.55140969351311,
      "lat": 22.510051,
      "lon": 120.351098
    },
    {
      "city": "高雄市",
      "town": "梓官區",
      "name": "蚵仔寮",
      "temp": 20.4,
      "at": 18.27442011656702,
      "lat": 22.727414,
      "lon": 120.244618
    },
    {
      "city": "高雄市",
      "town": "彌陀區",
      "name": "南寮",
      "temp": 21.0,
      "at": 20.048238076719173,
      "lat": 22.763381,
      "lon": 120.225866
    },
    {
      "city": "高雄市",
      "town": "彌陀區",
      "name": "文安",
      "temp": 21.7,
      "at": 19.542123297620382,
      "lat": 22.804288,
      "lon": 120.208308
    },
    {
      "city": "高雄市",
      "town": "茄萣區",
      "name": "興達",
      "temp": 23.6,
      "at": 23.826301132015388,
      "lat": 22.879517,
      "lon": 120.204681
    },
    {
      "city": "臺南市",
      "town": "安南區",
      "name": "城西",
      "temp": 20.9,
      "at": 17.740066570956362,
      "lat": 23.058558,
      "lon": 120.087492
    },
    {
      "city": "臺南市",
      "town": "安南區",
      "name": "四草",
      "temp": 21.2,
      "at": 18.52037587456532,
      "lat": 23.025295,
      "lon": 120.103558
    },
    {
      "city": "臺南市",
      "town": "北門區",
      "name": "蘆竹溝",
      "temp": 19.7,
      "at": 14.032829427455798,
      "lat": 23.236154,
      "lon": 120.088035
    },
    {
      "city": "臺南市",
      "town": "北門區",
      "name": "蚵寮",
      "temp": 20.0,
      "at": 15.570222854315872,
      "lat": 23.302745,
      "lon": 120.102281
    },
    {
      "city": "高雄市",
      "town": "前鎮區",
      "name": "前鎮",
      "temp": 23.0,
      "at": 23.74389296073726,
      "lat": 22.573925,
      "lon": 120.303144
    },
    {
      "city": "新北市",
      "town": "貢寮區",
      "name": "澳底",
      "temp": 15.3,
      "at": 13.614219321486111,
      "lat": 25.056993,
      "lon": 121.917036
    },
    {
      "city": "澎湖縣",
      "town": "七美鄉",
      "name": "七美",
      "temp": 18.0,
      "at": 10.741531674353434,
      "lat": 23.221053,
      "lon": 119.436809
    },
    {
      "city": "澎湖縣",
      "town": "望安鄉",
      "name": "望安",
      "temp": 17.4,
      "at": 8.531612794959766,
      "lat": 23.382282,
      "lon": 119.485981
    },
    {
      "city": "澎湖縣",
      "town": "湖西鄉",
      "name": "湖西",
      "temp": 18.1,
      "at": 9.830373308432868,
      "lat": 23.598035,
      "lon": 119.664639
    },
    {
      "city": "連江縣",
      "town": "北竿鄉",
      "name": "北竿",
      "temp": 10.2,
      "at": 4.696135307766376,
      "lat": 26.222038,
      "lon": 119.966574
    },
    {
      "city": "金門縣",
      "town": "烈嶼鄉",
      "name": "九宮",
      "temp": 16.5,
      "at": 15.335653383104464,
      "lat": 24.425386,
      "lon": 118.232031
    },
    {
      "city": "屏東縣",
      "town": "新埤鄉",
      "name": "萬隆國小",
      "temp": 25.3,
      "at": 26.658580085599553,
      "lat": 22.509453,
      "lon": 120.579772
    },
    {
      "city": "苗栗縣",
      "town": "通霄鎮",
      "name": "白沙屯",
      "temp": 16.0,
      "at": 11.099415883260628,
      "lat": 24.551198,
      "lon": 120.688617
    },
    {
      "city": "屏東縣",
      "town": "內埔鄉",
      "name": "內埔",
      "temp": 26.4,
      "at": 27.793497741995445,
      "lat": 22.610267,
      "lon": 120.562662
    },
    {
      "city": "臺北市",
      "town": "士林區",
      "name": "科教館",
      "temp": 17.5,
      "at": 15.593279204333395,
      "lat": 25.098133,
      "lon": 121.508275
    },
    {
      "city": "宜蘭縣",
      "town": "頭城鎮",
      "name": "大溪漁港",
      "temp": 15.9,
      "at": 13.624622247980135,
      "lat": 24.943603,
      "lon": 121.894736
    },
    {
      "city": "宜蘭縣",
      "town": "頭城鎮",
      "name": "石城",
      "temp": 15.2,
      "at": 14.683285892319496,
      "lat": 24.982247,
      "lon": 121.942992
    },
    {
      "city": "基隆市",
      "town": "安樂區",
      "name": "大武崙",
      "temp": 15.0,
      "at": 13.030327103384934,
      "lat": 25.168464,
      "lon": 121.698758
    },
    {
      "city": "新北市",
      "town": "萬里區",
      "name": "野柳",
      "temp": 14.6,
      "at": 13.419310132963957,
      "lat": 25.208817,
      "lon": 121.681783
    },
    {
      "city": "新北市",
      "town": "淡水區",
      "name": "淡水觀海",
      "temp": 14.0,
      "at": 10.62621663607474,
      "lat": 25.186364,
      "lon": 121.400381
    },
    {
      "city": "桃園市",
      "town": "大園區",
      "name": "竹圍",
      "temp": 14.5,
      "at": 9.918364349207138,
      "lat": 25.114458,
      "lon": 121.231594
    },
    {
      "city": "桃園市",
      "town": "新屋區",
      "name": "中大臨海站",
      "temp": 15.0,
      "at": 13.183382459205706,
      "lat": 24.967883,
      "lon": 121.000364
    },
    {
      "city": "新北市",
      "town": "石門區",
      "name": "石門",
      "temp": 13.1,
      "at": 10.156846103735644,
      "lat": 25.275453,
      "lon": 121.592956
    },
    {
      "city": "桃園市",
      "town": "觀音區",
      "name": "觀音工業區",
      "temp": 14.8,
      "at": 10.904113655093886,
      "lat": 25.066525,
      "lon": 121.106631
    },
    {
      "city": "新竹市",
      "town": "北區",
      "name": "海天一線",
      "temp": 15.2,
      "at": 12.018868180780395,
      "lat": 24.833742,
      "lon": 120.906231
    },
    {
      "city": "新竹市",
      "town": "香山區",
      "name": "香山濕地",
      "temp": 15.3,
      "at": 11.36797097086858,
      "lat": 24.785386,
      "lon": 120.906781
    },
    {
      "city": "新北市",
      "town": "瑞芳區",
      "name": "水湳洞",
      "temp": 15.6,
      "at": 13.574082705067699,
      "lat": 25.125492,
      "lon": 121.854006
    },
    {
      "city": "基隆市",
      "town": "中正區",
      "name": "八斗子",
      "temp": 15.3,
      "at": 14.314219321486114,
      "lat": 25.146547,
      "lon": 121.783436
    },
    {
      "city": "新竹縣",
      "town": "新豐鄉",
      "name": "外湖",
      "temp": 14.8,
      "at": 13.549553134364604,
      "lat": 24.919492,
      "lon": 120.960497
    },
    {
      "city": "苗栗縣",
      "town": "後龍鎮",
      "name": "海埔",
      "temp": 15.9,
      "at": 10.93666169750912,
      "lat": 24.650519,
      "lon": 120.764242
    },
    {
      "city": "苗栗縣",
      "town": "通霄鎮",
      "name": "通霄漁港",
      "temp": 16.3,
      "at": 14.854143142747638,
      "lat": 24.500339,
      "lon": 120.665694
    },
    {
      "city": "臺中市",
      "town": "大甲區",
      "name": "松柏",
      "temp": 16.1,
      "at": 10.250815503824352,
      "lat": 24.430864,
      "lon": 120.609306
    },
    {
      "city": "臺中市",
      "town": "大安區",
      "name": "溫寮",
      "temp": 16.4,
      "at": 11.170410745508804,
      "lat": 24.373925,
      "lon": 120.574953
    },
    {
      "city": "苗栗縣",
      "town": "竹南鎮",
      "name": "龍鳳",
      "temp": 16.0,
      "at": 13.638770510288715,
      "lat": 24.701789,
      "lon": 120.850928
    },
    {
      "city": "宜蘭縣",
      "town": "礁溪鄉",
      "name": "淡江大學蘭陽校園",
      "temp": 15.2,
      "at": 16.127052976935136,
      "lat": 24.825033,
      "lon": 121.722172
    },
    {
      "city": "屏東縣",
      "town": "林邊鄉",
      "name": "林邊",
      "temp": 24.2,
      "at": 25.843700499173163,
      "lat": 22.465232,
      "lon": 120.52585
    },
    {
      "city": "新北市",
      "town": "淡水區",
      "name": "六塊厝",
      "temp": 14.0,
      "at": 11.238864126785218,
      "lat": 25.241776,
      "lon": 121.439863
    },
    {
      "city": "新北市",
      "town": "三芝區",
      "name": "田寮",
      "temp": 14.6,
      "at": 12.439310132963957,
      "lat": 25.271575,
      "lon": 121.480355
    },
    {
      "city": "桃園市",
      "town": "觀音區",
      "name": "新興坑尾",
      "temp": 13.9,
      "at": 9.725351369990813,
      "lat": 25.007827,
      "lon": 121.088851
    },
    {
      "city": "宜蘭縣",
      "town": "蘇澳鎮",
      "name": "蘇澳",
      "temp": 16.3,
      "at": 14.64235222984497,
      "lat": 24.59875,
      "lon": 121.848895
    },
    {
      "city": "宜蘭縣",
      "town": "壯圍鄉",
      "name": "壯圍",
      "temp": 17.2,
      "at": 13.533393274687622,
      "lat": 24.737723,
      "lon": 121.808046
    },
    {
      "city": "宜蘭縣",
      "town": "頭城鎮",
      "name": "北關",
      "temp": 17.0,
      "at": 15.57142644057048,
      "lat": 24.90902,
      "lon": 121.865211
    },
    {
      "city": "彰化縣",
      "town": "伸港鄉",
      "name": "防潮門",
      "temp": 17.2,
      "at": 12.693393274687622,
      "lat": 24.185242,
      "lon": 120.478972
    },
    {
      "city": "臺中市",
      "town": "龍井區",
      "name": "臺中電廠",
      "temp": 17.3,
      "at": 14.101492252279431,
      "lat": 24.216388,
      "lon": 120.482584
    },
    {
      "city": "彰化縣",
      "town": "福興鄉",
      "name": "福寶",
      "temp": 17.9,
      "at": 11.10937846484372,
      "lat": 24.046048,
      "lon": 120.373213
    },
    {
      "city": "彰化縣",
      "town": "大城鄉",
      "name": "三豐",
      "temp": 18.3,
      "at": 12.62836710184218,
      "lat": 23.883719,
      "lon": 120.281409
    },
    {
      "city": "雲林縣",
      "town": "口湖鄉",
      "name": "箔子寮",
      "temp": 19.3,
      "at": 13.83835705739407,
      "lat": 23.621487,
      "lon": 120.13192
    },
    {
      "city": "嘉義縣",
      "town": "布袋鎮",
      "name": "好美里",
      "temp": 20.1,
      "at": 17.295583711154954,
      "lat": 23.338176,
      "lon": 120.129936
    },
    {
      "city": "新北市",
      "town": "板橋區",
      "name": "板橋",
      "temp": 16.3,
      "at": 14.741064735086141,
      "lat": 25.012431,
      "lon": 121.440638
    },
    {
      "city": "連江縣",
      "town": "莒光鄉",
      "name": "東莒",
      "temp": 10.6,
      "at": 4.228271195804922,
      "lat": 25.966883,
      "lon": 119.9724
    },
    {
      "city": "澎湖縣",
      "town": "西嶼鄉",
      "name": "西嶼",
      "temp": 17.1,
      "at": 8.891433435732687,
      "lat": 23.564311,
      "lon": 119.460328
    },
    {
      "city": "澎湖縣",
      "town": "望安鄉",
      "name": "花嶼",
      "temp": 17.7,
      "at": 19.301059851578486,
      "lat": 23.401778,
      "lon": 119.314667
    },
    {
      "city": "金門縣",
      "town": "金沙鎮",
      "name": "金沙",
      "temp": 14.8,
      "at": 11.309005631867377,
      "lat": 24.489931,
      "lon": 118.400617
    },
    {
      "city": "金門縣",
      "town": "金寧鄉",
      "name": "金寧",
      "temp": 15.0,
      "at": 11.066391085971489,
      "lat": 24.459339,
      "lon": 118.320831
    },
    {
      "city": "金門縣",
      "town": "烏坵鄉",
      "name": "烏坵",
      "temp": 11.7,
      "at": 1.358947678200682,
      "lat": 24.996081,
      "lon": 119.441347
    },
    {
      "city": "臺北市",
      "town": "松山區",
      "name": "松山",
      "temp": 15.9,
      "at": 14.996661697509118,
      "lat": 25.050492,
      "lon": 121.542203
    },
    {
      "city": "苗栗縣",
      "town": "後龍鎮",
      "name": "高鐵苗栗",
      "temp": 15.8,
      "at": 15.300032672067601,
      "lat": 24.609,
      "lon": 120.817906
    },
    {
      "city": "雲林縣",
      "town": "虎尾鎮",
      "name": "高鐵雲林",
      "temp": 20.4,
      "at": 19.804422960085155,
      "lat": 23.739206,
      "lon": 120.409817
    },
    {
      "city": "桃園市",
      "town": "龜山區",
      "name": "國一五楊N44K",
      "temp": 13.0,
      "at": 12.023847088864716,
      "lat": 25.065633,
      "lon": 121.332769
    },
    {
      "city": "基隆市",
      "town": "中正區",
      "name": "基隆嶼",
      "temp": 14.0,
      "at": 11.378864126785217,
      "lat": 25.1932,
      "lon": 121.775678
    },
    {
      "city": "臺東縣",
      "town": "蘭嶼鄉",
      "name": "蘭嶼高中",
      "temp": 23.5,
      "at": 24.95809534102611,
      "lat": 22.050931,
      "lon": 121.504119
    },
    {
      "city": "臺東縣",
      "town": "蘭嶼鄉",
      "name": "蘭嶼燈塔",
      "temp": 20.8,
      "at": 19.080295290871803,
      "lat": 22.083031,
      "lon": 121.495094
    },
    {
      "city": "新北市",
      "town": "石門區",
      "name": "白沙灣",
      "temp": 14.6,
      "at": 9.700391811576,
      "lat": 25.284903,
      "lon": 121.510814
    },
    {
      "city": "高雄市",
      "town": "甲仙區",
      "name": "小林",
      "temp": 26.3,
      "at": 28.143616860804215,
      "lat": 23.150164,
      "lon": 120.625189
    },
    {
      "city": "桃園市",
      "town": "大溪區",
      "name": "大溪永福",
      "temp": 15.9,
      "at": 15.616151835126875,
      "lat": 24.894711,
      "lon": 121.316761
    },
    {
      "city": "宜蘭縣",
      "town": "大同鄉",
      "name": "玉蘭",
      "temp": 14.0,
      "at": 14.704159108206177,
      "lat": 24.677222,
      "lon": 121.578889
    },
    {
      "city": "宜蘭縣",
      "town": "五結鄉",
      "name": "五結",
      "temp": 17.2,
      "at": 17.862612861716944,
      "lat": 24.688722,
      "lon": 121.790222
    },
    {
      "city": "宜蘭縣",
      "town": "大同鄉",
      "name": "太平山",
      "temp": 8.6,
      "at": 7.814266802323452,
      "lat": 24.507222,
      "lon": 121.5175
    },
    {
      "city": "宜蘭縣",
      "town": "大同鄉",
      "name": "南山",
      "temp": 10.3,
      "at": 9.307647284223071,
      "lat": 24.439167,
      "lon": 121.373333
    },
    {
      "city": "宜蘭縣",
      "town": "員山鄉",
      "name": "雙連埤",
      "temp": 13.7,
      "at": 14.76001006195153,
      "lat": 24.754722,
      "lon": 121.633056
    },
    {
      "city": "宜蘭縣",
      "town": "頭城鎮",
      "name": "頭城",
      "temp": 17.3,
      "at": 15.946664435234752,
      "lat": 24.855031,
      "lon": 121.822586
    },
    {
      "city": "宜蘭縣",
      "town": "礁溪鄉",
      "name": "大礁溪",
      "temp": 13.7,
      "at": 14.391642817685728,
      "lat": 24.792836,
      "lon": 121.666839
    },
    {
      "city": "宜蘭縣",
      "town": "三星鄉",
      "name": "三星",
      "temp": 17.0,
      "at": 18.040032790305705,
      "lat": 24.669917,
      "lon": 121.644819
    },
    {
      "city": "宜蘭縣",
      "town": "員山鄉",
      "name": "內城",
      "temp": 17.5,
      "at": 18.960948596579787,
      "lat": 24.719928,
      "lon": 121.679461
    },
    {
      "city": "宜蘭縣",
      "town": "冬山鄉",
      "name": "冬山",
      "temp": 17.0,
      "at": 16.819022207413663,
      "lat": 24.635528,
      "lon": 121.7855
    },
    {
      "city": "宜蘭縣",
      "town": "礁溪鄉",
      "name": "礁溪",
      "temp": 17.5,
      "at": 19.030948596579787,
      "lat": 24.819336,
      "lon": 121.757397
    },
    {
      "city": "宜蘭縣",
      "town": "頭城鎮",
      "name": "龜山島",
      "temp": 12.5,
      "at": 10.614337568692527,
      "lat": 24.843392,
      "lon": 121.944947
    },
    {
      "city": "新北市",
      "town": "貢寮區",
      "name": "三貂角",
      "temp": 14.3,
      "at": 10.021171262299287,
      "lat": 25.009444,
      "lon": 121.993889
    },
    {
      "city": "宜蘭縣",
      "town": "羅東鎮",
      "name": "羅東",
      "temp": 17.2,
      "at": 19.144101003348904,
      "lat": 24.683636,
      "lon": 121.741144
    },
    {
      "city": "宜蘭縣",
      "town": "頭城鎮",
      "name": "鶯子嶺",
      "temp": 10.1,
      "at": 6.812869645607119,
      "lat": 24.899333,
      "lon": 121.784231
    },
    {
      "city": "宜蘭縣",
      "town": "壯圍鄉",
      "name": "大福",
      "temp": 17.1,
      "at": 15.862014435149796,
      "lat": 24.802436,
      "lon": 121.805683
    },
    {
      "city": "宜蘭縣",
      "town": "頭城鎮",
      "name": "坪林石牌",
      "temp": 13.5,
      "at": 13.552720501297287,
      "lat": 24.866578,
      "lon": 121.76575
    },
    {
      "city": "花蓮縣",
      "town": "秀林鄉",
      "name": "天祥",
      "temp": 17.6,
      "at": 18.072081930873015,
      "lat": 24.181389,
      "lon": 121.4875
    },
    {
      "city": "花蓮縣",
      "town": "壽豐鄉",
      "name": "東華",
      "temp": 20.6,
      "at": 23.55727979046917,
      "lat": 23.897056,
      "lon": 121.541694
    },
    {
      "city": "花蓮縣",
      "town": "壽豐鄉",
      "name": "鯉魚潭",
      "temp": 18.1,
      "at": 19.69712617607084,
      "lat": 23.937444,
      "lon": 121.500806
    },
    {
      "city": "花蓮縣",
      "town": "秀林鄉",
      "name": "水源",
      "temp": 14.8,
      "at": 16.06394792707178,
      "lat": 23.993718,
      "lon": 121.529043
    },
    {
      "city": "花蓮縣",
      "town": "鳳林鎮",
      "name": "鳳林山",
      "temp": 15.2,
      "at": 15.838354230782063,
      "lat": 23.737072,
      "lon": 121.411994
    },
    {
      "city": "花蓮縣",
      "town": "光復鄉",
      "name": "光復",
      "temp": 19.9,
      "at": 21.076777992376503,
      "lat": 23.662497,
      "lon": 121.416839
    },
    {
      "city": "花蓮縣",
      "town": "萬榮鄉",
      "name": "西林",
      "temp": 19.0,
      "at": 20.310716895432318,
      "lat": 23.813667,
      "lon": 121.433194
    },
    {
      "city": "花蓮縣",
      "town": "壽豐鄉",
      "name": "月眉山",
      "temp": 17.3,
      "at": 18.531683566674232,
      "lat": 23.811736,
      "lon": 121.531686
    },
    {
      "city": "花蓮縣",
      "town": "壽豐鄉",
      "name": "大坑",
      "temp": 16.7,
      "at": 17.751500033834073,
      "lat": 23.882433,
      "lon": 121.573839
    },
    {
      "city": "花蓮縣",
      "town": "豐濱鄉",
      "name": "加路蘭山",
      "temp": 15.2,
      "at": 15.1777036038586,
      "lat": 23.684706,
      "lon": 121.519219
    },
    {
      "city": "花蓮縣",
      "town": "壽豐鄉",
      "name": "水璉",
      "temp": 18.6,
      "at": 20.315729747272044,
      "lat": 23.798889,
      "lon": 121.534167
    },
    {
      "city": "花蓮縣",
      "town": "豐濱鄉",
      "name": "豐濱",
      "temp": 19.3,
      "at": 18.745750828096487,
      "lat": 23.585708,
      "lon": 121.506678
    },
    {
      "city": "花蓮縣",
      "town": "富里鄉",
      "name": "明里",
      "temp": 18.5,
      "at": 20.179569871899652,
      "lat": 23.210556,
      "lon": 121.254167
    },
    {
      "city": "花蓮縣",
      "town": "玉里鎮",
      "name": "玉里",
      "temp": 19.6,
      "at": 20.896416817388054,
      "lat": 23.323306,
      "lon": 121.331556
    },
    {
      "city": "花蓮縣",
      "town": "瑞穗鄉",
      "name": "舞鶴",
      "temp": 18.7,
      "at": 19.96242358113854,
      "lat": 23.469722,
      "lon": 121.365833
    },
    {
      "city": "花蓮縣",
      "town": "卓溪鄉",
      "name": "佳心",
      "temp": 14.7,
      "at": 15.66785152182159,
      "lat": 23.347464,
      "lon": 121.205061
    },
    {
      "city": "花蓮縣",
      "town": "光復鄉",
      "name": "富源",
      "temp": 19.6,
      "at": 21.582321753173545,
      "lat": 23.58975,
      "lon": 121.370389
    },
    {
      "city": "花蓮縣",
      "town": "吉安鄉",
      "name": "吉安光華",
      "temp": 19.5,
      "at": 18.00249337237511,
      "lat": 23.932733,
      "lon": 121.587003
    },
    {
      "city": "花蓮縣",
      "town": "鳳林鎮",
      "name": "鳳林",
      "temp": 19.5,
      "at": 20.24249337237511,
      "lat": 23.747917,
      "lon": 121.445278
    },
    {
      "city": "花蓮縣",
      "town": "卓溪鄉",
      "name": "卓溪",
      "temp": 18.8,
      "at": 18.97356818194024,
      "lat": 23.346133,
      "lon": 121.294748
    },
    {
      "city": "花蓮縣",
      "town": "新城鄉",
      "name": "新城",
      "temp": 19.3,
      "at": 18.156175745286834,
      "lat": 24.042289,
      "lon": 121.596724
    },
    {
      "city": "花蓮縣",
      "town": "秀林鄉",
      "name": "富世",
      "temp": 19.2,
      "at": 20.07920700561806,
      "lat": 24.149236,
      "lon": 121.621542
    },
    {
      "city": "花蓮縣",
      "town": "鳳林鎮",
      "name": "萬榮",
      "temp": 19.3,
      "at": 19.36096328669166,
      "lat": 23.711022,
      "lon": 121.411969
    },
    {
      "city": "花蓮縣",
      "town": "瑞穗鄉",
      "name": "瑞穗",
      "temp": 20.3,
      "at": 21.085491909618344,
      "lat": 23.525708,
      "lon": 121.382086
    },
    {
      "city": "花蓮縣",
      "town": "卓溪鄉",
      "name": "瑞穗林道",
      "temp": 14.2,
      "at": 15.213364252526901,
      "lat": 23.494642,
      "lon": 121.298764
    },
    {
      "city": "花蓮縣",
      "town": "壽豐鄉",
      "name": "蕃薯寮",
      "temp": 16.7,
      "at": 15.128516161047294,
      "lat": 23.740156,
      "lon": 121.531975
    },
    {
      "city": "花蓮縣",
      "town": "玉里鎮",
      "name": "德武",
      "temp": 20.0,
      "at": 21.37325800805871,
      "lat": 23.476069,
      "lon": 121.402597
    },
    {
      "city": "花蓮縣",
      "town": "玉里鎮",
      "name": "赤柯山",
      "temp": 13.8,
      "at": 14.576907687928685,
      "lat": 23.370733,
      "lon": 121.374825
    },
    {
      "city": "花蓮縣",
      "town": "富里鄉",
      "name": "東里",
      "temp": 19.3,
      "at": 20.433144598798897,
      "lat": 23.270336,
      "lon": 121.297364
    },
    {
      "city": "花蓮縣",
      "town": "秀林鄉",
      "name": "清水斷崖",
      "temp": 18.9,
      "at": 19.033223689472123,
      "lat": 24.2201,
      "lon": 121.680972
    },
    {
      "city": "花蓮縣",
      "town": "卓溪鄉",
      "name": "清水林道",
      "temp": 15.5,
      "at": 16.776919737770505,
      "lat": 23.273047,
      "lon": 121.180172
    },
    {
      "city": "花蓮縣",
      "town": "玉里鎮",
      "name": "安通山",
      "temp": 16.0,
      "at": 17.987092540561743,
      "lat": 23.292536,
      "lon": 121.340419
    },
    {
      "city": "花蓮縣",
      "town": "豐濱鄉",
      "name": "靜浦",
      "temp": 20.3,
      "at": 21.60910687934236,
      "lat": 23.456944,
      "lon": 121.486667
    },
    {
      "city": "臺東縣",
      "town": "長濱鄉",
      "name": "長濱",
      "temp": 19.4,
      "at": 21.27080622711179,
      "lat": 23.288611,
      "lon": 121.403889
    },
    {
      "city": "臺東縣",
      "town": "東河鄉",
      "name": "東河",
      "temp": 23.4,
      "at": 22.73533397471666,
      "lat": 22.973611,
      "lon": 121.298333
    },
    {
      "city": "臺東縣",
      "town": "綠島鄉",
      "name": "綠島",
      "temp": 21.5,
      "at": 16.623763494751373,
      "lat": 22.669025,
      "lon": 121.467267
    },
    {
      "city": "臺東縣",
      "town": "海端鄉",
      "name": "下馬",
      "temp": 17.4,
      "at": 18.06988983990284,
      "lat": 23.152222,
      "lon": 121.062222
    },
    {
      "city": "臺東縣",
      "town": "海端鄉",
      "name": "向陽",
      "temp": 11.4,
      "at": 11.186593021737101,
      "lat": 23.25,
      "lon": 120.978056
    },
    {
      "city": "臺東縣",
      "town": "海端鄉",
      "name": "紅石",
      "temp": 13.4,
      "at": 13.5803462855128,
      "lat": 23.070902,
      "lon": 121.11777
    },
    {
      "city": "臺東縣",
      "town": "池上鄉",
      "name": "池上",
      "temp": 18.6,
      "at": 18.42628070808255,
      "lat": 23.121389,
      "lon": 121.201667
    },
    {
      "city": "臺東縣",
      "town": "鹿野鄉",
      "name": "鹿野",
      "temp": 19.3,
      "at": 19.313144598798896,
      "lat": 22.919517,
      "lon": 121.114908
    },
    {
      "city": "臺東縣",
      "town": "達仁鄉",
      "name": "土坂",
      "temp": 24.3,
      "at": 27.187302030163817,
      "lat": 22.454908,
      "lon": 120.879528
    },
    {
      "city": "臺東縣",
      "town": "太麻里鄉",
      "name": "大溪山",
      "temp": 22.2,
      "at": 23.37178536667375,
      "lat": 22.48,
      "lon": 120.935278
    },
    {
      "city": "臺東縣",
      "town": "達仁鄉",
      "name": "南田",
      "temp": 25.7,
      "at": 25.993160785588966,
      "lat": 22.291944,
      "lon": 120.881944
    },
    {
      "city": "臺東縣",
      "town": "太麻里鄉",
      "name": "金崙",
      "temp": 25.2,
      "at": 27.67197085323723,
      "lat": 22.54,
      "lon": 120.958889
    },
    {
      "city": "臺東縣",
      "town": "太麻里鄉",
      "name": "太麻里",
      "temp": 22.3,
      "at": 23.05588606222841,
      "lat": 22.610825,
      "lon": 120.977275
    },
    {
      "city": "臺東縣",
      "town": "卑南鄉",
      "name": "知本",
      "temp": 21.3,
      "at": 23.659821926430528,
      "lat": 22.686667,
      "lon": 120.997583
    },
    {
      "city": "花蓮縣",
      "town": "富里鄉",
      "name": "富里",
      "temp": 19.4,
      "at": 19.99418153310634,
      "lat": 23.173442,
      "lon": 121.241286
    },
    {
      "city": "桃園市",
      "town": "中壢區",
      "name": "中壢",
      "temp": 14.2,
      "at": 12.35336129217858,
      "lat": 24.979428,
      "lon": 121.248156
    },
    {
      "city": "臺南市",
      "town": "柳營區",
      "name": "柳營",
      "temp": 23.1,
      "at": 21.15656217737434,
      "lat": 23.255089,
      "lon": 120.367158
    },
    {
      "city": "新竹縣",
      "town": "關西鎮",
      "name": "關西",
      "temp": 15.9,
      "at": 15.259211009420348,
      "lat": 24.799421,
      "lon": 121.165033
    },
    {
      "city": "嘉義縣",
      "town": "阿里山鄉",
      "name": "新美",
      "temp": 23.7,
      "at": 24.655144280512737,
      "lat": 23.339792,
      "lon": 120.675231
    },
    {
      "city": "彰化縣",
      "town": "永靖鄉",
      "name": "永靖",
      "temp": 21.8,
      "at": 21.595488585372475,
      "lat": 23.926458,
      "lon": 120.539392
    },
    {
      "city": "彰化縣",
      "town": "竹塘鄉",
      "name": "竹塘",
      "temp": 21.1,
      "at": 19.933165505840368,
      "lat": 23.85,
      "lon": 120.378628
    },
    {
      "city": "雲林縣",
      "town": "東勢鄉",
      "name": "雲林東勢",
      "temp": 20.2,
      "at": 19.282427852699595,
      "lat": 23.675939,
      "lon": 120.2476
    },
    {
      "city": "屏東縣",
      "town": "車城鄉",
      "name": "車城",
      "temp": 25.1,
      "at": 27.52917471070977,
      "lat": 22.075833,
      "lon": 120.708056
    },
    {
      "city": "屏東縣",
      "town": "春日鄉",
      "name": "大漢山",
      "temp": 13.5,
      "at": 13.406583855518004,
      "lat": 22.405861,
      "lon": 120.745083
    },
    {
      "city": "屏東縣",
      "town": "枋山鄉",
      "name": "枋山",
      "temp": 23.0,
      "at": 23.251240550627568,
      "lat": 22.248639,
      "lon": 120.653058
    },
    {
      "city": "屏東縣",
      "town": "枋寮鄉",
      "name": "枋寮",
      "temp": 22.5,
      "at": 22.8842747765401,
      "lat": 22.369511,
      "lon": 120.582611
    },
    {
      "city": "屏東縣",
      "town": "枋山鄉",
      "name": "楓港",
      "temp": 24.0,
      "at": 25.90732842420309,
      "lat": 22.191928,
      "lon": 120.684131
    },
    {
      "city": "屏東縣",
      "town": "滿州鄉",
      "name": "檳榔",
      "temp": 21.8,
      "at": 22.382492679571907,
      "lat": 22.077883,
      "lon": 120.828758
    },
    {
      "city": "屏東縣",
      "town": "牡丹鄉",
      "name": "牡丹",
      "temp": 24.5,
      "at": 25.621469529320354,
      "lat": 22.131817,
      "lon": 120.784589
    },
    {
      "city": "屏東縣",
      "town": "滿州鄉",
      "name": "佳樂水",
      "temp": 24.9,
      "at": 24.825984497139594,
      "lat": 21.995386,
      "lon": 120.853619
    },
    {
      "city": "屏東縣",
      "town": "恆春鎮",
      "name": "墾丁",
      "temp": 23.8,
      "at": 25.69185504526035,
      "lat": 21.968561,
      "lon": 120.802258
    },
    {
      "city": "屏東縣",
      "town": "牡丹鄉",
      "name": "旭海",
      "temp": 22.3,
      "at": 21.24033331888059,
      "lat": 22.207208,
      "lon": 120.879586
    },
    {
      "city": "屏東縣",
      "town": "恆春鎮",
      "name": "貓鼻頭",
      "temp": 25.3,
      "at": 25.116383665133895,
      "lat": 21.923578,
      "lon": 120.727792
    },
    {
      "city": "屏東縣",
      "town": "恆春鎮",
      "name": "墾雷",
      "temp": 24.3,
      "at": 25.127074032712873,
      "lat": 21.90265,
      "lon": 120.847244
    },
    {
      "city": "屏東縣",
      "town": "牡丹鄉",
      "name": "四林格山",
      "temp": 21.5,
      "at": 19.129366277166056,
      "lat": 22.078792,
      "lon": 120.794419
    },
    {
      "city": "屏東縣",
      "town": "恆春鎮",
      "name": "大坪頂",
      "temp": 25.3,
      "at": 27.326874716298036,
      "lat": 22.026433,
      "lon": 120.685536
    },
    {
      "city": "屏東縣",
      "town": "恆春鎮",
      "name": "龍磐",
      "temp": 23.3,
      "at": 20.576877864248747,
      "lat": 21.933481,
      "lon": 120.830933
    },
    {
      "city": "屏東縣",
      "town": "獅子鄉",
      "name": "獅子",
      "temp": 25.2,
      "at": 24.483679735992222,
      "lat": 22.204106,
      "lon": 120.69721
    },
    {
      "city": "宜蘭縣",
      "town": "南澳鄉",
      "name": "東澳",
      "temp": 17.3,
      "at": 18.67666443523475,
      "lat": 24.523767,
      "lon": 121.824986
    },
    {
      "city": "宜蘭縣",
      "town": "南澳鄉",
      "name": "南澳",
      "temp": 18.6,
      "at": 17.579669178356475,
      "lat": 24.451153,
      "lon": 121.802036
    },
    {
      "city": "花蓮縣",
      "town": "秀林鄉",
      "name": "和中",
      "temp": 18.5,
      "at": 18.008457096097366,
      "lat": 24.268567,
      "lon": 121.732861
    },
    {
      "city": "宜蘭縣",
      "town": "大同鄉",
      "name": "翠峰湖",
      "temp": 9.1,
      "at": 7.776119199104439,
      "lat": 24.51265,
      "lon": 121.599858
    },
    {
      "city": "花蓮縣",
      "town": "秀林鄉",
      "name": "和平林道",
      "temp": 16.8,
      "at": 17.748578691773602,
      "lat": 24.345722,
      "lon": 121.648142
    },
    {
      "city": "花蓮縣",
      "town": "秀林鄉",
      "name": "和平",
      "temp": 18.6,
      "at": 12.0518730215985,
      "lat": 24.308961,
      "lon": 121.761903
    },
    {
      "city": "宜蘭縣",
      "town": "南澳鄉",
      "name": "樟樹山",
      "temp": 15.2,
      "at": 14.355101096164752,
      "lat": 24.415731,
      "lon": 121.775067
    },
    {
      "city": "宜蘭縣",
      "town": "頭城鎮",
      "name": "桃源谷",
      "temp": 11.8,
      "at": 8.859545913300494,
      "lat": 24.964408,
      "lon": 121.880658
    },
    {
      "city": "宜蘭縣",
      "town": "南澳鄉",
      "name": "西帽山",
      "temp": 11.8,
      "at": 10.749545913300494,
      "lat": 24.557164,
      "lon": 121.794436
    },
    {
      "city": "宜蘭縣",
      "town": "南澳鄉",
      "name": "西德山",
      "temp": 10.4,
      "at": 6.985278196350251,
      "lat": 24.562447,
      "lon": 121.744417
    },
    {
      "city": "新北市",
      "town": "烏來區",
      "name": "福山植物園",
      "temp": 13.2,
      "at": 13.508045186654588,
      "lat": 24.762506,
      "lon": 121.573147
    },
    {
      "city": "宜蘭縣",
      "town": "大同鄉",
      "name": "鴛鴦湖",
      "temp": 9.1,
      "at": 8.79420377409511,
      "lat": 24.592053,
      "lon": 121.404039
    },
    {
      "city": "宜蘭縣",
      "town": "大同鄉",
      "name": "白嶺",
      "temp": 10.3,
      "at": 10.42764728422307,
      "lat": 24.529611,
      "lon": 121.510844
    },
    {
      "city": "宜蘭縣",
      "town": "大同鄉",
      "name": "土場",
      "temp": 16.2,
      "at": 16.934307721649127,
      "lat": 24.578356,
      "lon": 121.487153
    },
    {
      "city": "宜蘭縣",
      "town": "員山鄉",
      "name": "員山",
      "temp": 17.1,
      "at": 18.539838864470653,
      "lat": 24.746147,
      "lon": 121.714269
    },
    {
      "city": "桃園市",
      "town": "蘆竹區",
      "name": "蘆竹",
      "temp": 14.8,
      "at": 13.103234696552452,
      "lat": 25.086111,
      "lon": 121.2575
    },
    {
      "city": "新竹縣",
      "town": "橫山鄉",
      "name": "橫山",
      "temp": 15.2,
      "at": 15.339518807703854,
      "lat": 24.712925,
      "lon": 121.108733
    },
    {
      "city": "新竹縣",
      "town": "新豐鄉",
      "name": "新豐",
      "temp": 13.8,
      "at": 13.334938611049402,
      "lat": 24.872436,
      "lon": 120.969
    },
    {
      "city": "新竹縣",
      "town": "五峰鄉",
      "name": "雪霸",
      "temp": 11.0,
      "at": 10.082848456733622,
      "lat": 24.528722,
      "lon": 121.107917
    },
    {
      "city": "新竹縣",
      "town": "竹東鎮",
      "name": "竹東",
      "temp": 15.4,
      "at": 15.342282578341873,
      "lat": 24.76925,
      "lon": 121.049861
    },
    {
      "city": "桃園市",
      "town": "平鎮區",
      "name": "平鎮",
      "temp": 13.8,
      "at": 12.144938611049401,
      "lat": 24.899444,
      "lon": 121.206389
    },
    {
      "city": "桃園市",
      "town": "大溪區",
      "name": "大溪",
      "temp": 15.0,
      "at": 14.064910137116094,
      "lat": 24.884722,
      "lon": 121.256944
    },
    {
      "city": "苗栗縣",
      "town": "頭份市",
      "name": "頭份",
      "temp": 15.8,
      "at": 14.76802940486084,
      "lat": 24.69,
      "lon": 120.904167
    },
    {
      "city": "新竹縣",
      "town": "寶山鄉",
      "name": "寶山",
      "temp": 15.0,
      "at": 15.773382459205706,
      "lat": 24.736722,
      "lon": 121.016769
    },
    {
      "city": "苗栗縣",
      "town": "獅潭鄉",
      "name": "獅潭",
      "temp": 15.6,
      "at": 14.063919826074372,
      "lat": 24.541028,
      "lon": 120.911972
    },
    {
      "city": "桃園市",
      "town": "楊梅區",
      "name": "楊梅",
      "temp": 13.6,
      "at": 11.612956105717235,
      "lat": 24.914139,
      "lon": 121.134833
    },
    {
      "city": "新竹縣",
      "town": "湖口鄉",
      "name": "湖口",
      "temp": 13.8,
      "at": 10.313278765377245,
      "lat": 24.906556,
      "lon": 121.035417
    },
    {
      "city": "桃園市",
      "town": "龍潭區",
      "name": "龍潭",
      "temp": 13.8,
      "at": 12.51721691913582,
      "lat": 24.871833,
      "lon": 121.213194
    },
    {
      "city": "新竹市",
      "town": "東區",
      "name": "新竹市東區",
      "temp": 14.5,
      "at": 13.628965677307534,
      "lat": 24.800436,
      "lon": 120.978742
    },
    {
      "city": "苗栗縣",
      "town": "三灣鄉",
      "name": "大河",
      "temp": 15.6,
      "at": 15.277198866409929,
      "lat": 24.619833,
      "lon": 120.94055
    },
    {
      "city": "桃園市",
      "town": "龜山區",
      "name": "龜山",
      "temp": 13.6,
      "at": 11.944254451759962,
      "lat": 25.030231,
      "lon": 121.378336
    },
    {
      "city": "臺中市",
      "town": "和平區",
      "name": "審馬陣",
      "temp": 3.4,
      "at": 0.9388057348237524,
      "lat": 24.383461,
      "lon": 121.412122
    },
    {
      "city": "臺中市",
      "town": "和平區",
      "name": "南湖圈谷",
      "temp": 0.5,
      "at": -5.610976916412369,
      "lat": 24.365503,
      "lon": 121.436489
    },
    {
      "city": "苗栗縣",
      "town": "苗栗市",
      "name": "苗栗",
      "temp": 15.8,
      "at": 14.57980645659267,
      "lat": 24.566667,
      "lon": 120.816444
    },
    {
      "city": "苗栗縣",
      "town": "銅鑼鄉",
      "name": "銅鑼",
      "temp": 17.5,
      "at": 17.766793222729547,
      "lat": 24.491528,
      "lon": 120.782639
    },
    {
      "city": "苗栗縣",
      "town": "西湖鄉",
      "name": "西湖",
      "temp": 15.6,
      "at": 13.072280305906592,
      "lat": 24.564417,
      "lon": 120.740278
    },
    {
      "city": "臺中市",
      "town": "大安區",
      "name": "大安",
      "temp": 16.5,
      "at": 13.524566728880583,
      "lat": 24.347444,
      "lon": 120.579972
    },
    {
      "city": "臺中市",
      "town": "后里區",
      "name": "后里",
      "temp": 16.4,
      "at": 15.747488357400393,
      "lat": 24.312111,
      "lon": 120.7215
    },
    {
      "city": "臺中市",
      "town": "豐原區",
      "name": "豐原",
      "temp": 18.6,
      "at": 18.9118730215985,
      "lat": 24.256306,
      "lon": 120.712333
    },
    {
      "city": "臺中市",
      "town": "清水區",
      "name": "清水",
      "temp": 16.7,
      "at": 12.667741964588451,
      "lat": 24.314028,
      "lon": 120.554083
    },
    {
      "city": "臺中市",
      "town": "外埔區",
      "name": "外埔",
      "temp": 17.8,
      "at": 17.143805918820355,
      "lat": 24.349556,
      "lon": 120.697472
    },
    {
      "city": "臺中市",
      "town": "龍井區",
      "name": "龍井",
      "temp": 17.3,
      "at": 15.156473120839951,
      "lat": 24.186278,
      "lon": 120.520833
    },
    {
      "city": "彰化縣",
      "town": "伸港鄉",
      "name": "伸港",
      "temp": 17.0,
      "at": 13.088639140040932,
      "lat": 24.150528,
      "lon": 120.476167
    },
    {
      "city": "苗栗縣",
      "town": "苑裡鎮",
      "name": "苑裡",
      "temp": 16.2,
      "at": 13.971113149787413,
      "lat": 24.441458,
      "lon": 120.644883
    },
    {
      "city": "臺中市",
      "town": "石岡區",
      "name": "石岡",
      "temp": 17.1,
      "at": 15.430419863887764,
      "lat": 24.277822,
      "lon": 120.769478
    },
    {
      "city": "臺中市",
      "town": "和平區",
      "name": "中坑",
      "temp": 17.0,
      "at": 17.970032790305705,
      "lat": 24.250283,
      "lon": 120.895153
    },
    {
      "city": "南投縣",
      "town": "魚池鄉",
      "name": "魚池",
      "temp": 23.7,
      "at": 23.961543079772014,
      "lat": 23.897478,
      "lon": 120.933219
    },
    {
      "city": "南投縣",
      "town": "國姓鄉",
      "name": "國姓",
      "temp": 21.8,
      "at": 20.53931538436368,
      "lat": 24.039567,
      "lon": 120.846925
    },
    {
      "city": "南投縣",
      "town": "仁愛鄉",
      "name": "仁愛",
      "temp": 19.0,
      "at": 18.13136370421489,
      "lat": 24.023903,
      "lon": 121.124056
    },
    {
      "city": "南投縣",
      "town": "水里鄉",
      "name": "水里",
      "temp": 20.5,
      "at": 17.98694555244464,
      "lat": 23.814322,
      "lon": 120.841658
    },
    {
      "city": "南投縣",
      "town": "集集鎮",
      "name": "集集",
      "temp": 21.7,
      "at": 22.078650508688447,
      "lat": 23.829972,
      "lon": 120.793328
    },
    {
      "city": "南投縣",
      "town": "名間鄉",
      "name": "名間",
      "temp": 20.3,
      "at": 20.808261970170307,
      "lat": 23.838817,
      "lon": 120.693306
    },
    {
      "city": "南投縣",
      "town": "仁愛鄉",
      "name": "萬大林道",
      "temp": 15.6,
      "at": 13.386873108423273,
      "lat": 23.930008,
      "lon": 121.083267
    },
    {
      "city": "南投縣",
      "town": "仁愛鄉",
      "name": "梅峰",
      "temp": 10.8,
      "at": 10.003947806419847,
      "lat": 24.087056,
      "lon": 121.165414
    },
    {
      "city": "南投縣",
      "town": "信義鄉",
      "name": "玉山風口",
      "temp": -1.9,
      "at": -5.477068694095134,
      "lat": 23.472294,
      "lon": 120.947853
    },
    {
      "city": "南投縣",
      "town": "仁愛鄉",
      "name": "小奇萊",
      "temp": 2.6,
      "at": -4.805713367062362,
      "lat": 24.13355,
      "lon": 121.287556
    },
    {
      "city": "南投縣",
      "town": "仁愛鄉",
      "name": "奇萊稜線",
      "temp": 0.7,
      "at": -7.200554759016882,
      "lat": 24.111019,
      "lon": 121.318297
    },
    {
      "city": "臺中市",
      "town": "大里區",
      "name": "大里",
      "temp": 20.4,
      "at": 20.294422960085157,
      "lat": 24.094389,
      "lon": 120.692194
    },
    {
      "city": "臺中市",
      "town": "烏日區",
      "name": "烏日",
      "temp": 19.8,
      "at": 17.74323682801697,
      "lat": 24.108833,
      "lon": 120.615917
    },
    {
      "city": "臺中市",
      "town": "西屯區",
      "name": "西屯",
      "temp": 17.6,
      "at": 16.11956032227891,
      "lat": 24.182028,
      "lon": 120.632861
    },
    {
      "city": "臺中市",
      "town": "南屯區",
      "name": "南屯",
      "temp": 20.4,
      "at": 19.978868668315442,
      "lat": 24.138861,
      "lon": 120.630111
    },
    {
      "city": "彰化縣",
      "town": "福興鄉",
      "name": "福興",
      "temp": 20.9,
      "at": 19.85519181040879,
      "lat": 24.042972,
      "lon": 120.429528
    },
    {
      "city": "彰化縣",
      "town": "秀水鄉",
      "name": "秀水",
      "temp": 19.6,
      "at": 17.08592321605051,
      "lat": 24.035917,
      "lon": 120.495722
    },
    {
      "city": "彰化縣",
      "town": "埔鹽鄉",
      "name": "埔鹽",
      "temp": 20.4,
      "at": 16.952200105970014,
      "lat": 24.002167,
      "lon": 120.423583
    },
    {
      "city": "彰化縣",
      "town": "埔心鄉",
      "name": "埔心",
      "temp": 21.0,
      "at": 21.667855341170284,
      "lat": 23.948694,
      "lon": 120.517611
    },
    {
      "city": "彰化縣",
      "town": "田尾鄉",
      "name": "田尾",
      "temp": 21.9,
      "at": 22.93671057476827,
      "lat": 23.903417,
      "lon": 120.501389
    },
    {
      "city": "彰化縣",
      "town": "埤頭鄉",
      "name": "埤頭",
      "temp": 20.1,
      "at": 18.525816147409955,
      "lat": 23.867806,
      "lon": 120.444722
    },
    {
      "city": "彰化縣",
      "town": "社頭鄉",
      "name": "社頭",
      "temp": 21.9,
      "at": 22.953192666084494,
      "lat": 23.899417,
      "lon": 120.578083
    },
    {
      "city": "彰化縣",
      "town": "二水鄉",
      "name": "二水",
      "temp": 20.9,
      "at": 21.682771072874104,
      "lat": 23.812778,
      "lon": 120.609028
    },
    {
      "city": "苗栗縣",
      "town": "造橋鄉",
      "name": "造橋",
      "temp": 15.9,
      "at": 15.388701147038105,
      "lat": 24.63875,
      "lon": 120.856583
    },
    {
      "city": "新竹縣",
      "town": "尖石鄉",
      "name": "梅花",
      "temp": 13.7,
      "at": 14.605111794748932,
      "lat": 24.680119,
      "lon": 121.200361
    },
    {
      "city": "新北市",
      "town": "坪林區",
      "name": "坪林",
      "temp": 13.3,
      "at": 12.648503883763702,
      "lat": 24.939975,
      "lon": 121.701531
    },
    {
      "city": "新北市",
      "town": "雙溪區",
      "name": "泰平",
      "temp": 13.0,
      "at": 13.863151296267517,
      "lat": 24.973056,
      "lon": 121.815278
    },
    {
      "city": "新北市",
      "town": "汐止區",
      "name": "五指山",
      "temp": 10.1,
      "at": 5.692869645607118,
      "lat": 25.133889,
      "lon": 121.600278
    },
    {
      "city": "新北市",
      "town": "汐止區",
      "name": "汐止",
      "temp": 15.3,
      "at": 15.224219321486114,
      "lat": 25.068667,
      "lon": 121.650556
    },
    {
      "city": "新北市",
      "town": "三峽區",
      "name": "三峽",
      "temp": 18.0,
      "at": 18.525891194807755,
      "lat": 24.940806,
      "lon": 121.3615
    },
    {
      "city": "臺北市",
      "town": "信義區",
      "name": "信義",
      "temp": 15.9,
      "at": 16.04666169750912,
      "lat": 25.039606,
      "lon": 121.556372
    },
    {
      "city": "臺北市",
      "town": "文山區",
      "name": "文山",
      "temp": 15.9,
      "at": 15.833092660833401,
      "lat": 25.004083,
      "lon": 121.567528
    },
    {
      "city": "新北市",
      "town": "新莊區",
      "name": "新莊",
      "temp": 15.6,
      "at": 15.428838386577706,
      "lat": 25.05325,
      "lon": 121.438528
    },
    {
      "city": "新北市",
      "town": "樹林區",
      "name": "山佳",
      "temp": 17.1,
      "at": 15.121433435732687,
      "lat": 24.976719,
      "lon": 121.393789
    },
    {
      "city": "新北市",
      "town": "烏來區",
      "name": "桶後",
      "temp": 15.9,
      "at": 17.362582798451154,
      "lat": 24.850056,
      "lon": 121.589639
    },
    {
      "city": "新北市",
      "town": "雙溪區",
      "name": "雙溪",
      "temp": 16.8,
      "at": 18.7215228557436,
      "lat": 25.037861,
      "lon": 121.856056
    },
    {
      "city": "新北市",
      "town": "瑞芳區",
      "name": "鼻頭角",
      "temp": 15.9,
      "at": 12.833602523215642,
      "lat": 25.130833,
      "lon": 121.915278
    },
    {
      "city": "新北市",
      "town": "萬里區",
      "name": "大坪",
      "temp": 12.5,
      "at": 10.798850817318677,
      "lat": 25.167694,
      "lon": 121.62475
    },
    {
      "city": "新北市",
      "town": "金山區",
      "name": "三和",
      "temp": 13.3,
      "at": 13.49942336388511,
      "lat": 25.234933,
      "lon": 121.586997
    },
    {
      "city": "新北市",
      "town": "石碇區",
      "name": "石碇",
      "temp": 14.3,
      "at": 15.614288388529214,
      "lat": 24.995758,
      "lon": 121.654639
    },
    {
      "city": "桃園市",
      "town": "復興區",
      "name": "復興",
      "temp": 14.3,
      "at": 14.582772858838212,
      "lat": 24.822,
      "lon": 121.344094
    },
    {
      "city": "桃園市",
      "town": "八德區",
      "name": "八德",
      "temp": 15.2,
      "at": 15.234450469241292,
      "lat": 24.930528,
      "lon": 121.275
    },
    {
      "city": "新北市",
      "town": "中和區",
      "name": "中和",
      "temp": 16.0,
      "at": 16.189157734071866,
      "lat": 24.993403,
      "lon": 121.483569
    },
    {
      "city": "基隆市",
      "town": "暖暖區",
      "name": "暖暖",
      "temp": 15.6,
      "at": 16.280803664732144,
      "lat": 25.097533,
      "lon": 121.732069
    },
    {
      "city": "臺北市",
      "town": "士林區",
      "name": "天母",
      "temp": 17.5,
      "at": 17.672502335082196,
      "lat": 25.119253,
      "lon": 121.528939
    },
    {
      "city": "臺北市",
      "town": "士林區",
      "name": "社子",
      "temp": 16.9,
      "at": 17.09199495130512,
      "lat": 25.111389,
      "lon": 121.461389
    },
    {
      "city": "臺北市",
      "town": "北投區",
      "name": "大屯山",
      "temp": 8.0,
      "at": 6.3451553525386775,
      "lat": 25.177333,
      "lon": 121.514167
    },
    {
      "city": "新北市",
      "town": "八里區",
      "name": "八里",
      "temp": 14.9,
      "at": 14.449744732971936,
      "lat": 25.15225,
      "lon": 121.395306
    },
    {
      "city": "新北市",
      "town": "土城區",
      "name": "土城",
      "temp": 15.2,
      "at": 13.26133401154911,
      "lat": 24.974944,
      "lon": 121.436917
    },
    {
      "city": "新北市",
      "town": "鶯歌區",
      "name": "鶯歌",
      "temp": 16.6,
      "at": 15.374677319225931,
      "lat": 24.953,
      "lon": 121.33725
    },
    {
      "city": "新北市",
      "town": "永和區",
      "name": "永和",
      "temp": 16.2,
      "at": 15.454946636021468,
      "lat": 25.013028,
      "lon": 121.499889
    },
    {
      "city": "新北市",
      "town": "瑞芳區",
      "name": "五分山",
      "temp": 13.6,
      "at": 11.318536258229958,
      "lat": 25.073047,
      "lon": 121.772586
    },
    {
      "city": "臺北市",
      "town": "士林區",
      "name": "平等",
      "temp": 13.5,
      "at": 12.457891308521386,
      "lat": 25.130925,
      "lon": 121.568856
    },
    {
      "city": "新北市",
      "town": "林口區",
      "name": "林口",
      "temp": 12.9,
      "at": 11.70102264730109,
      "lat": 25.073953,
      "lon": 121.372611
    },
    {
      "city": "新北市",
      "town": "深坑區",
      "name": "深坑",
      "temp": 15.8,
      "at": 15.8600326720676,
      "lat": 25.004489,
      "lon": 121.620106
    },
    {
      "city": "基隆市",
      "town": "七堵區",
      "name": "七堵",
      "temp": 16.4,
      "at": 15.023059103561891,
      "lat": 25.096608,
      "lon": 121.708897
    },
    {
      "city": "新北市",
      "town": "五股區",
      "name": "五股",
      "temp": 15.1,
      "at": 14.87023274992847,
      "lat": 25.076228,
      "lon": 121.419053
    },
    {
      "city": "新北市",
      "town": "新店區",
      "name": "屈尺",
      "temp": 16.8,
      "at": 18.077512703738147,
      "lat": 24.923619,
      "lon": 121.536533
    },
    {
      "city": "新北市",
      "town": "三重區",
      "name": "三重",
      "temp": 16.5,
      "at": 15.538901326989723,
      "lat": 25.059108,
      "lon": 121.4924
    },
    {
      "city": "臺北市",
      "town": "北投區",
      "name": "石牌",
      "temp": 18.4,
      "at": 18.296527593473293,
      "lat": 25.117336,
      "lon": 121.504825
    },
    {
      "city": "臺東縣",
      "town": "金峰鄉",
      "name": "金峰嘉蘭",
      "temp": 23.4,
      "at": 24.46062749748208,
      "lat": 22.596589,
      "lon": 120.952772
    },
    {
      "city": "臺東縣",
      "town": "延平鄉",
      "name": "延平",
      "temp": 22.1,
      "at": 23.650514616352723,
      "lat": 22.904381,
      "lon": 121.075983
    },
    {
      "city": "臺東縣",
      "town": "長濱鄉",
      "name": "石寧山",
      "temp": 20.1,
      "at": 20.91023505677245,
      "lat": 23.225581,
      "lon": 121.398542
    },
    {
      "city": "臺東縣",
      "town": "東河鄉",
      "name": "七塊厝",
      "temp": 21.1,
      "at": 22.049660252623173,
      "lat": 22.957525,
      "lon": 121.221089
    },
    {
      "city": "臺東縣",
      "town": "臺東市",
      "name": "知本(水試所)",
      "temp": 25.0,
      "at": 26.75876923698471,
      "lat": 22.704053,
      "lon": 121.074603
    },
    {
      "city": "臺東縣",
      "town": "太麻里鄉",
      "name": "香蘭",
      "temp": 24.5,
      "at": 24.617977978063767,
      "lat": 22.589372,
      "lon": 120.985322
    },
    {
      "city": "臺東縣",
      "town": "大武鄉",
      "name": "加津林",
      "temp": 23.9,
      "at": 22.09688427769261,
      "lat": 22.418014,
      "lon": 120.9189
    },
    {
      "city": "臺東縣",
      "town": "達仁鄉",
      "name": "勝林山",
      "temp": 19.4,
      "at": 21.1183377066077,
      "lat": 22.432239,
      "lon": 120.885742
    },
    {
      "city": "臺東縣",
      "town": "大武鄉",
      "name": "山豬窟",
      "temp": 21.2,
      "at": 21.016138487009435,
      "lat": 22.320422,
      "lon": 120.849339
    },
    {
      "city": "臺東縣",
      "town": "太麻里鄉",
      "name": "歷坵",
      "temp": 22.9,
      "at": 24.95624345716815,
      "lat": 22.522769,
      "lon": 120.883803
    },
    {
      "city": "臺東縣",
      "town": "卑南鄉",
      "name": "檳榔四格山",
      "temp": 24.4,
      "at": 26.967049709224007,
      "lat": 22.811789,
      "lon": 121.101247
    },
    {
      "city": "臺東縣",
      "town": "太麻里鄉",
      "name": "金崙山",
      "temp": 17.0,
      "at": 18.360798925051167,
      "lat": 22.569219,
      "lon": 120.951617
    },
    {
      "city": "臺東縣",
      "town": "成功鎮",
      "name": "都歷",
      "temp": 22.6,
      "at": 20.956253811333273,
      "lat": 23.022142,
      "lon": 121.315558
    },
    {
      "city": "臺東縣",
      "town": "達仁鄉",
      "name": "達仁林場",
      "temp": 22.1,
      "at": 24.01822109692483,
      "lat": 22.266147,
      "lon": 120.815942
    },
    {
      "city": "屏東縣",
      "town": "牡丹鄉",
      "name": "牡丹池山",
      "temp": 19.7,
      "at": 18.564909522379224,
      "lat": 22.170192,
      "lon": 120.8332
    },
    {
      "city": "屏東縣",
      "town": "牡丹鄉",
      "name": "高士",
      "temp": 19.7,
      "at": 19.117222189246135,
      "lat": 22.123631,
      "lon": 120.828758
    },
    {
      "city": "屏東縣",
      "town": "來義鄉",
      "name": "白鷺",
      "temp": 26.3,
      "at": 29.01385798485783,
      "lat": 22.456067,
      "lon": 120.658178
    },
    {
      "city": "屏東縣",
      "town": "獅子鄉",
      "name": "內獅",
      "temp": 23.8,
      "at": 25.708983887696846,
      "lat": 22.306856,
      "lon": 120.634956
    },
    {
      "city": "屏東縣",
      "town": "獅子鄉",
      "name": "丹路",
      "temp": 24.0,
      "at": 24.67368519382189,
      "lat": 22.206281,
      "lon": 120.742964
    },
    {
      "city": "屏東縣",
      "town": "滿州鄉",
      "name": "九棚",
      "temp": 22.0,
      "at": 16.28082287183869,
      "lat": 22.143756,
      "lon": 120.886331
    },
    {
      "city": "屏東縣",
      "town": "滿州鄉",
      "name": "滿州",
      "temp": 22.8,
      "at": 21.42304718448212,
      "lat": 22.026208,
      "lon": 120.831875
    },
    {
      "city": "屏東縣",
      "town": "車城鄉",
      "name": "保力",
      "temp": 24.7,
      "at": 26.574101674484513,
      "lat": 22.072925,
      "lon": 120.756094
    },
    {
      "city": "屏東縣",
      "town": "滿州鄉",
      "name": "南仁湖",
      "temp": 20.2,
      "at": 17.82293671468963,
      "lat": 22.086486,
      "lon": 120.855333
    },
    {
      "city": "南投縣",
      "town": "仁愛鄉",
      "name": "合歡山頂",
      "temp": 1.8,
      "at": -2.846128755321534,
      "lat": 24.144778,
      "lon": 121.264083
    },
    {
      "city": "臺中市",
      "town": "北屯區",
      "name": "大坑",
      "temp": 20.9,
      "at": 20.34330531616201,
      "lat": 24.174889,
      "lon": 120.714139
    },
    {
      "city": "彰化縣",
      "town": "溪湖鎮",
      "name": "溪湖",
      "temp": 22.1,
      "at": 22.355101655208514,
      "lat": 23.95175,
      "lon": 120.471056
    },
    {
      "city": "彰化縣",
      "town": "員林市",
      "name": "員林",
      "temp": 20.9,
      "at": 20.984657567120884,
      "lat": 23.948333,
      "lon": 120.577528
    },
    {
      "city": "南投縣",
      "town": "草屯鎮",
      "name": "草屯",
      "temp": 20.6,
      "at": 20.521430595684492,
      "lat": 23.975444,
      "lon": 120.672194
    },
    {
      "city": "彰化縣",
      "town": "芬園鄉",
      "name": "芬園",
      "temp": 21.7,
      "at": 22.00148001560599,
      "lat": 24.017222,
      "lon": 120.613056
    },
    {
      "city": "臺中市",
      "town": "東勢區",
      "name": "東勢",
      "temp": 18.2,
      "at": 18.100493763988055,
      "lat": 24.248194,
      "lon": 120.824917
    },
    {
      "city": "南投縣",
      "town": "竹山鎮",
      "name": "竹山",
      "temp": 20.1,
      "at": 21.433025602091202,
      "lat": 23.764722,
      "lon": 120.677778
    },
    {
      "city": "苗栗縣",
      "town": "泰安鄉",
      "name": "馬都安",
      "temp": 12.3,
      "at": 12.917838672023947,
      "lat": 24.453056,
      "lon": 120.921944
    },
    {
      "city": "苗栗縣",
      "town": "頭屋鄉",
      "name": "明德",
      "temp": 16.4,
      "at": 15.29182626788712,
      "lat": 24.58525,
      "lon": 120.877222
    },
    {
      "city": "苗栗縣",
      "town": "通霄鎮",
      "name": "通霄",
      "temp": 17.0,
      "at": 16.436234906884117,
      "lat": 24.473639,
      "lon": 120.696444
    },
    {
      "city": "臺中市",
      "town": "神岡區",
      "name": "神岡",
      "temp": 16.3,
      "at": 14.942090870973306,
      "lat": 24.274222,
      "lon": 120.650306
    },
    {
      "city": "苗栗縣",
      "town": "卓蘭鎮",
      "name": "卓蘭",
      "temp": 16.4,
      "at": 16.027488357400394,
      "lat": 24.314319,
      "lon": 120.816192
    },
    {
      "city": "臺中市",
      "town": "新社區",
      "name": "新社",
      "temp": 17.3,
      "at": 15.64149225227943,
      "lat": 24.201583,
      "lon": 120.8075
    },
    {
      "city": "南投縣",
      "town": "埔里鎮",
      "name": "埔里",
      "temp": 24.3,
      "at": 24.39817602039244,
      "lat": 23.973944,
      "lon": 120.944278
    },
    {
      "city": "南投縣",
      "town": "仁愛鄉",
      "name": "昆陽",
      "temp": 3.0,
      "at": -2.656479739030326,
      "lat": 24.123139,
      "lon": 121.265361
    },
    {
      "city": "南投縣",
      "town": "仁愛鄉",
      "name": "廬山",
      "temp": 17.3,
      "at": 16.576128754929314,
      "lat": 24.035,
      "lon": 121.173333
    },
    {
      "city": "臺中市",
      "town": "大雅區",
      "name": "大雅",
      "temp": 16.2,
      "at": 12.631752064159759,
      "lat": 24.217056,
      "lon": 120.616239
    },
    {
      "city": "南投縣",
      "town": "南投市",
      "name": "南投",
      "temp": 20.1,
      "at": 18.853490474601205,
      "lat": 23.913208,
      "lon": 120.679183
    },
    {
      "city": "彰化縣",
      "town": "花壇鄉",
      "name": "花壇",
      "temp": 20.2,
      "at": 18.956192409855916,
      "lat": 24.032075,
      "lon": 120.541314
    },
    {
      "city": "彰化縣",
      "town": "線西鄉",
      "name": "線西",
      "temp": 17.4,
      "at": 14.719028362374374,
      "lat": 24.141081,
      "lon": 120.435381
    },
    {
      "city": "臺中市",
      "town": "霧峰區",
      "name": "霧峰",
      "temp": 21.8,
      "at": 21.64335868461588,
      "lat": 24.043658,
      "lon": 120.691323
    },
    {
      "city": "雲林縣",
      "town": "虎尾鎮",
      "name": "虎尾",
      "temp": 20.4,
      "at": 20.723311533027584,
      "lat": 23.720939,
      "lon": 120.433911
    },
    {
      "city": "雲林縣",
      "town": "口湖鄉",
      "name": "宜梧",
      "temp": 20.1,
      "at": 18.105816147409953,
      "lat": 23.538014,
      "lon": 120.1612
    },
    {
      "city": "嘉義縣",
      "town": "義竹鄉",
      "name": "東後寮",
      "temp": 21.1,
      "at": 19.37316550584037,
      "lat": 23.371644,
      "lon": 120.239936
    },
    {
      "city": "臺南市",
      "town": "東山區",
      "name": "東河",
      "temp": 22.1,
      "at": 20.815101655208515,
      "lat": 23.298339,
      "lon": 120.377492
    },
    {
      "city": "臺南市",
      "town": "佳里區",
      "name": "佳里",
      "temp": 22.0,
      "at": 19.894637725674986,
      "lat": 23.175,
      "lon": 120.136667
    },
    {
      "city": "彰化縣",
      "town": "二林鎮",
      "name": "二林",
      "temp": 19.9,
      "at": 16.837835752986383,
      "lat": 23.905067,
      "lon": 120.367928
    },
    {
      "city": "臺南市",
      "town": "白河區",
      "name": "白河",
      "temp": 20.5,
      "at": 20.175697597443033,
      "lat": 23.349228,
      "lon": 120.406328
    },
    {
      "city": "嘉義縣",
      "town": "番路鄉",
      "name": "番路",
      "temp": 18.7,
      "at": 18.4864652499719,
      "lat": 23.466408,
      "lon": 120.546028
    },
    {
      "city": "臺南市",
      "town": "新營區",
      "name": "新營",
      "temp": 20.7,
      "at": 19.57440020998039,
      "lat": 23.312447,
      "lon": 120.308586
    },
    {
      "city": "臺南市",
      "town": "將軍區",
      "name": "將軍",
      "temp": 20.9,
      "at": 18.767362069038622,
      "lat": 23.216733,
      "lon": 120.127656
    },
    {
      "city": "雲林縣",
      "town": "褒忠鄉",
      "name": "褒忠",
      "temp": 20.2,
      "at": 18.122820257439063,
      "lat": 23.692672,
      "lon": 120.295503
    },
    {
      "city": "嘉義縣",
      "town": "溪口鄉",
      "name": "溪口",
      "temp": 19.7,
      "at": 17.902887570441663,
      "lat": 23.605872,
      "lon": 120.395439
    },
    {
      "city": "雲林縣",
      "town": "二崙鄉",
      "name": "二崙",
      "temp": 19.4,
      "at": 16.530932145095434,
      "lat": 23.77455,
      "lon": 120.400811
    },
    {
      "city": "嘉義縣",
      "town": "中埔鄉",
      "name": "中埔",
      "temp": 19.2,
      "at": 19.283286305056254,
      "lat": 23.427144,
      "lon": 120.514797
    },
    {
      "city": "臺南市",
      "town": "鹽水區",
      "name": "鹽水",
      "temp": 21.3,
      "at": 19.905766304717513,
      "lat": 23.274339,
      "lon": 120.239506
    },
    {
      "city": "臺南市",
      "town": "學甲區",
      "name": "學甲",
      "temp": 20.9,
      "at": 19.387896312326532,
      "lat": 23.2321,
      "lon": 120.174072
    },
    {
      "city": "臺南市",
      "town": "後壁區",
      "name": "後壁",
      "temp": 20.7,
      "at": 19.92440020998039,
      "lat": 23.368094,
      "lon": 120.354211
    },
    {
      "city": "雲林縣",
      "town": "西螺鎮",
      "name": "西螺",
      "temp": 20.1,
      "at": 19.601164801792457,
      "lat": 23.80215,
      "lon": 120.459253
    },
    {
      "city": "雲林縣",
      "town": "土庫鎮",
      "name": "土庫",
      "temp": 20.0,
      "at": 18.629679852972753,
      "lat": 23.680772,
      "lon": 120.387436
    },
    {
      "city": "嘉義縣",
      "town": "大林鎮",
      "name": "大林",
      "temp": 19.4,
      "at": 19.335088318596796,
      "lat": 23.602361,
      "lon": 120.450281
    },
    {
      "city": "嘉義縣",
      "town": "東石鄉",
      "name": "東石",
      "temp": 20.1,
      "at": 16.528606692728708,
      "lat": 23.460653,
      "lon": 120.145722
    },
    {
      "city": "嘉義縣",
      "town": "水上鄉",
      "name": "水上",
      "temp": 20.4,
      "at": 19.314422960085157,
      "lat": 23.421475,
      "lon": 120.380792
    },
    {
      "city": "嘉義市",
      "town": "東區",
      "name": "嘉義市東區",
      "temp": 21.6,
      "at": 21.819256451203348,
      "lat": 23.459414,
      "lon": 120.452408
    },
    {
      "city": "臺南市",
      "town": "白河區",
      "name": "關子嶺",
      "temp": 19.6,
      "at": 20.456087749829692,
      "lat": 23.332933,
      "lon": 120.499931
    },
    {
      "city": "臺南市",
      "town": "新化區",
      "name": "虎頭埤",
      "temp": 24.3,
      "at": 25.87745402846445,
      "lat": 23.023139,
      "lon": 120.339806
    },
    {
      "city": "臺南市",
      "town": "歸仁區",
      "name": "媽廟",
      "temp": 24.7,
      "at": 26.315075393384863,
      "lat": 22.993514,
      "lon": 120.285431
    },
    {
      "city": "臺南市",
      "town": "龍崎區",
      "name": "崎頂",
      "temp": 24.8,
      "at": 26.654366665077564,
      "lat": 22.961306,
      "lon": 120.361194
    },
    {
      "city": "臺南市",
      "town": "新市區",
      "name": "新市",
      "temp": 24.9,
      "at": 27.348773666234248,
      "lat": 23.063556,
      "lon": 120.290417
    },
    {
      "city": "臺南市",
      "town": "南化區",
      "name": "北寮",
      "temp": 27.4,
      "at": 29.553731188284075,
      "lat": 23.081611,
      "lon": 120.486944
    },
    {
      "city": "臺南市",
      "town": "善化區",
      "name": "善化",
      "temp": 24.0,
      "at": 23.974598099589222,
      "lat": 23.114444,
      "lon": 120.289444
    },
    {
      "city": "高雄市",
      "town": "桃源區",
      "name": "復興",
      "temp": 24.8,
      "at": 24.142405639534328,
      "lat": 23.224167,
      "lon": 120.797778
    },
    {
      "city": "臺南市",
      "town": "六甲區",
      "name": "王爺宮",
      "temp": 21.2,
      "at": 22.001825924540483,
      "lat": 23.223828,
      "lon": 120.392758
    },
    {
      "city": "臺南市",
      "town": "大內區",
      "name": "大內",
      "temp": 22.3,
      "at": 23.4431096905545,
      "lat": 23.120611,
      "lon": 120.35275
    },
    {
      "city": "高雄市",
      "town": "阿蓮區",
      "name": "阿蓮",
      "temp": 25.3,
      "at": 27.390285454901065,
      "lat": 22.884944,
      "lon": 120.319528
    },
    {
      "city": "臺南市",
      "town": "北區",
      "name": "臺南市北區",
      "temp": 22.4,
      "at": 22.80144297505683,
      "lat": 23.012167,
      "lon": 120.186333
    },
    {
      "city": "臺南市",
      "town": "南區",
      "name": "臺南市南區",
      "temp": 21.6,
      "at": 21.429085001985534,
      "lat": 22.963028,
      "lon": 120.180417
    },
    {
      "city": "臺南市",
      "town": "安平區",
      "name": "安平",
      "temp": 22.8,
      "at": 21.982266856649797,
      "lat": 22.994972,
      "lon": 120.144111
    },
    {
      "city": "臺南市",
      "town": "麻豆區",
      "name": "麻豆",
      "temp": 22.5,
      "at": 22.967337303142465,
      "lat": 23.185056,
      "lon": 120.2405
    },
    {
      "city": "臺南市",
      "town": "安定區",
      "name": "安定",
      "temp": 22.0,
      "at": 22.285771442348775,
      "lat": 23.104417,
      "lon": 120.219972
    },
    {
      "city": "臺南市",
      "town": "山上區",
      "name": "山上",
      "temp": 23.2,
      "at": 24.00003269231034,
      "lat": 23.077444,
      "lon": 120.355194
    },
    {
      "city": "臺南市",
      "town": "官田區",
      "name": "官田",
      "temp": 22.3,
      "at": 22.36560336308709,
      "lat": 23.195028,
      "lon": 120.307528
    },
    {
      "city": "臺南市",
      "town": "西港區",
      "name": "西港",
      "temp": 21.3,
      "at": 21.682509001739934,
      "lat": 23.127417,
      "lon": 120.195083
    },
    {
      "city": "臺南市",
      "town": "仁德區",
      "name": "仁德",
      "temp": 22.3,
      "at": 21.996991548924047,
      "lat": 22.970111,
      "lon": 120.249778
    },
    {
      "city": "嘉義縣",
      "town": "大埔鄉",
      "name": "表湖",
      "temp": 23.3,
      "at": 24.92895014147049,
      "lat": 23.243628,
      "lon": 120.633564
    },
    {
      "city": "屏東縣",
      "town": "泰武鄉",
      "name": "舊泰武",
      "temp": 21.2,
      "at": 21.856138487009435,
      "lat": 22.58995,
      "lon": 120.656922
    },
    {
      "city": "高雄市",
      "town": "茂林區",
      "name": "萬山",
      "temp": 25.2,
      "at": 25.64197085323723,
      "lat": 22.907694,
      "lon": 120.68
    },
    {
      "city": "高雄市",
      "town": "六龜區",
      "name": "六龜",
      "temp": 24.8,
      "at": 27.029317947006607,
      "lat": 22.99975,
      "lon": 120.625528
    },
    {
      "city": "屏東縣",
      "town": "里港鄉",
      "name": "里港",
      "temp": 25.7,
      "at": 27.82773333468828,
      "lat": 22.780972,
      "lon": 120.486528
    },
    {
      "city": "高雄市",
      "town": "左營區",
      "name": "左營",
      "temp": 21.4,
      "at": 20.68121845682205,
      "lat": 22.676689,
      "lon": 120.27685
    },
    {
      "city": "屏東縣",
      "town": "東港鎮",
      "name": "東港",
      "temp": 22.9,
      "at": 22.300566646452808,
      "lat": 22.464244,
      "lon": 120.432703
    },
    {
      "city": "屏東縣",
      "town": "竹田鄉",
      "name": "竹田",
      "temp": 25.7,
      "at": 28.433662746512766,
      "lat": 22.586642,
      "lon": 120.535392
    },
    {
      "city": "屏東縣",
      "town": "萬丹鄉",
      "name": "萬丹",
      "temp": 24.0,
      "at": 24.23822454459415,
      "lat": 22.590256,
      "lon": 120.477031
    },
    {
      "city": "屏東縣",
      "town": "霧臺鄉",
      "name": "阿禮",
      "temp": 19.3,
      "at": 19.162053942745278,
      "lat": 22.744444,
      "lon": 120.735556
    },
    {
      "city": "屏東縣",
      "town": "瑪家鄉",
      "name": "瑪家",
      "temp": 20.4,
      "at": 22.652191575415593,
      "lat": 22.684722,
      "lon": 120.678889
    },
    {
      "city": "高雄市",
      "town": "大樹區",
      "name": "溪埔",
      "temp": 27.2,
      "at": 27.249334384100298,
      "lat": 22.740278,
      "lon": 120.438611
    },
    {
      "city": "高雄市",
      "town": "燕巢區",
      "name": "阿公店",
      "temp": 23.6,
      "at": 23.78971332183451,
      "lat": 22.805944,
      "lon": 120.347444
    },
    {
      "city": "高雄市",
      "town": "內門區",
      "name": "內門",
      "temp": 27.9,
      "at": 29.47152260682129,
      "lat": 22.976944,
      "lon": 120.458333
    },
    {
      "city": "高雄市",
      "town": "田寮區",
      "name": "古亭坑",
      "temp": 25.3,
      "at": 27.356383665133894,
      "lat": 22.895,
      "lon": 120.393889
    },
    {
      "city": "屏東縣",
      "town": "琉球鄉",
      "name": "琉球嶼",
      "temp": 26.0,
      "at": 27.257542038466724,
      "lat": 22.334025,
      "lon": 120.354194
    },
    {
      "city": "高雄市",
      "town": "鳳山區",
      "name": "鳳山",
      "temp": 25.1,
      "at": 26.549793298669215,
      "lat": 22.648611,
      "lon": 120.348056
    },
    {
      "city": "屏東縣",
      "town": "鹽埔鄉",
      "name": "鹽埔",
      "temp": 25.1,
      "at": 27.17855612275033,
      "lat": 22.741342,
      "lon": 120.522697
    },
    {
      "city": "高雄市",
      "town": "小港區",
      "name": "鳳森",
      "temp": 26.0,
      "at": 26.774609066711513,
      "lat": 22.546944,
      "lon": 120.3845
    },
    {
      "city": "屏東縣",
      "town": "萬巒鄉",
      "name": "赤山",
      "temp": 26.2,
      "at": 32.54990023318953,
      "lat": 22.594139,
      "lon": 120.60625
    },
    {
      "city": "屏東縣",
      "town": "內埔鄉",
      "name": "三地門",
      "temp": 26.6,
      "at": 28.169310929312836,
      "lat": 22.711667,
      "lon": 120.631889
    },
    {
      "city": "屏東縣",
      "town": "潮州鎮",
      "name": "潮州",
      "temp": 25.0,
      "at": 26.861440565938558,
      "lat": 22.536139,
      "lon": 120.531972
    },
    {
      "city": "高雄市",
      "town": "新興區",
      "name": "新興",
      "temp": 22.2,
      "at": 21.95140969351311,
      "lat": 22.629111,
      "lon": 120.290583
    },
    {
      "city": "高雄市",
      "town": "湖內區",
      "name": "湖內",
      "temp": 23.5,
      "at": 22.957251941489385,
      "lat": 22.888889,
      "lon": 120.236444
    },
    {
      "city": "高雄市",
      "town": "永安區",
      "name": "永安",
      "temp": 22.2,
      "at": 21.793334558880986,
      "lat": 22.824944,
      "lon": 120.228806
    },
    {
      "city": "高雄市",
      "town": "大社區",
      "name": "大社",
      "temp": 24.7,
      "at": 25.99221024879723,
      "lat": 22.731944,
      "lon": 120.338583
    },
    {
      "city": "高雄市",
      "town": "梓官區",
      "name": "梓官",
      "temp": 22.9,
      "at": 22.908674376214364,
      "lat": 22.762444,
      "lon": 120.25925
    },
    {
      "city": "高雄市",
      "town": "茄萣區",
      "name": "茄萣",
      "temp": 22.4,
      "at": 22.381442975056828,
      "lat": 22.908444,
      "lon": 120.174583
    },
    {
      "city": "高雄市",
      "town": "岡山區",
      "name": "岡山",
      "temp": 25.4,
      "at": 26.113394029471085,
      "lat": 22.798844,
      "lon": 120.286889
    },
    {
      "city": "高雄市",
      "town": "彌陀區",
      "name": "彌陀",
      "temp": 22.3,
      "at": 21.959767920597955,
      "lat": 22.785583,
      "lon": 120.238278
    },
    {
      "city": "高雄市",
      "town": "橋頭區",
      "name": "橋頭",
      "temp": 23.7,
      "at": 23.79800600370362,
      "lat": 22.759583,
      "lon": 120.297694
    },
    {
      "city": "高雄市",
      "town": "仁武區",
      "name": "仁武",
      "temp": 24.9,
      "at": 25.777957419876238,
      "lat": 22.702861,
      "lon": 120.339667
    },
    {
      "city": "高雄市",
      "town": "三民區",
      "name": "三民",
      "temp": 22.9,
      "at": 25.043812538121934,
      "lat": 22.646917,
      "lon": 120.303278
    },
    {
      "city": "高雄市",
      "town": "鼓山區",
      "name": "鼓山",
      "temp": 22.0,
      "at": 20.97474058465482,
      "lat": 22.625139,
      "lon": 120.2675
    },
    {
      "city": "高雄市",
      "town": "苓雅區",
      "name": "苓雅",
      "temp": 23.5,
      "at": 24.730591026938942,
      "lat": 22.624528,
      "lon": 120.322583
    },
    {
      "city": "高雄市",
      "town": "旗山區",
      "name": "旗山",
      "temp": 25.9,
      "at": 27.0458678950669,
      "lat": 22.890389,
      "lon": 120.475528
    },
    {
      "city": "屏東縣",
      "town": "長治鄉",
      "name": "長治",
      "temp": 25.8,
      "at": 28.579421137766687,
      "lat": 22.694833,
      "lon": 120.534611
    },
    {
      "city": "屏東縣",
      "town": "麟洛鄉",
      "name": "麟洛",
      "temp": 26.2,
      "at": 28.92672816789647,
      "lat": 22.652556,
      "lon": 120.519139
    },
    {
      "city": "屏東縣",
      "town": "南州鄉",
      "name": "南州",
      "temp": 24.6,
      "at": 26.35563363210823,
      "lat": 22.487694,
      "lon": 120.494694
    },
    {
      "city": "屏東縣",
      "town": "佳冬鄉",
      "name": "佳冬",
      "temp": 23.1,
      "at": 23.531698188029427,
      "lat": 22.421194,
      "lon": 120.544222
    },
    {
      "city": "屏東縣",
      "town": "高樹鄉",
      "name": "高樹",
      "temp": 25.8,
      "at": 27.86227065113194,
      "lat": 22.828222,
      "lon": 120.592722
    },
    {
      "city": "高雄市",
      "town": "大寮區",
      "name": "大寮",
      "temp": 25.1,
      "at": 25.535566533618514,
      "lat": 22.607389,
      "lon": 120.387667
    },
    {
      "city": "屏東縣",
      "town": "新園鄉",
      "name": "新園",
      "temp": 26.7,
      "at": 29.26437419507021,
      "lat": 22.545194,
      "lon": 120.4535
    },
    {
      "city": "屏東縣",
      "town": "崁頂鄉",
      "name": "崁頂",
      "temp": 25.6,
      "at": 27.740147621560546,
      "lat": 22.516639,
      "lon": 120.498972
    },
    {
      "city": "高雄市",
      "town": "林園區",
      "name": "林園",
      "temp": 25.7,
      "at": 26.429945099214827,
      "lat": 22.509583,
      "lon": 120.386556
    },
    {
      "city": "彰化縣",
      "town": "溪州鄉",
      "name": "溪州",
      "temp": 20.0,
      "at": 19.60271500671559,
      "lat": 23.853347,
      "lon": 120.490944
    },
    {
      "city": "雲林縣",
      "town": "斗南鎮",
      "name": "斗南",
      "temp": 18.7,
      "at": 17.78547219477746,
      "lat": 23.680478,
      "lon": 120.470231
    },
    {
      "city": "雲林縣",
      "town": "斗六市",
      "name": "斗六",
      "temp": 18.9,
      "at": 19.167570122782433,
      "lat": 23.722303,
      "lon": 120.532972
    },
    {
      "city": "嘉義縣",
      "town": "朴子市",
      "name": "朴子",
      "temp": 20.4,
      "at": 19.034422960085156,
      "lat": 23.436364,
      "lon": 120.230928
    },
    {
      "city": "雲林縣",
      "town": "北港鎮",
      "name": "北港",
      "temp": 20.4,
      "at": 18.37775724125787,
      "lat": 23.575803,
      "lon": 120.283672
    },
    {
      "city": "嘉義縣",
      "town": "太保市",
      "name": "太保",
      "temp": 21.3,
      "at": 21.502394956206302,
      "lat": 23.456792,
      "lon": 120.323303
    },
    {
      "city": "雲林縣",
      "town": "林內鄉",
      "name": "林內",
      "temp": 19.6,
      "at": 20.580840949160915,
      "lat": 23.750436,
      "lon": 120.601508
    },
    {
      "city": "雲林縣",
      "town": "大埤鄉",
      "name": "大埤",
      "temp": 19.2,
      "at": 17.3868061299158,
      "lat": 23.647817,
      "lon": 120.4234
    },
    {
      "city": "雲林縣",
      "town": "莿桐鄉",
      "name": "莿桐",
      "temp": 19.6,
      "at": 20.08575868227133,
      "lat": 23.762947,
      "lon": 120.494247
    },
    {
      "city": "雲林縣",
      "town": "臺西鄉",
      "name": "臺西",
      "temp": 18.8,
      "at": 15.259255466170359,
      "lat": 23.703283,
      "lon": 120.189422
    },
    {
      "city": "雲林縣",
      "town": "水林鄉",
      "name": "水林",
      "temp": 20.8,
      "at": 21.355523339432633,
      "lat": 23.574658,
      "lon": 120.237839
    },
    {
      "city": "雲林縣",
      "town": "元長鄉",
      "name": "元長",
      "temp": 20.3,
      "at": 19.02464700044629,
      "lat": 23.651544,
      "lon": 120.306892
    },
    {
      "city": "嘉義縣",
      "town": "布袋鎮",
      "name": "布袋",
      "temp": 20.7,
      "at": 17.572964903510954,
      "lat": 23.382611,
      "lon": 120.159667
    },
    {
      "city": "嘉義縣",
      "town": "鹿草鄉",
      "name": "鹿草",
      "temp": 22.0,
      "at": 21.646596582083053,
      "lat": 23.413075,
      "lon": 120.300231
    },
    {
      "city": "嘉義縣",
      "town": "六腳鄉",
      "name": "六腳",
      "temp": 21.4,
      "at": 20.50074059097289,
      "lat": 23.494611,
      "lon": 120.2825
    },
    {
      "city": "嘉義縣",
      "town": "新港鄉",
      "name": "新港",
      "temp": 20.9,
      "at": 20.146544061367663,
      "lat": 23.555011,
      "lon": 120.3376
    },
    {
      "city": "嘉義縣",
      "town": "梅山鄉",
      "name": "梅山",
      "temp": 18.5,
      "at": 18.14823454093691,
      "lat": 23.587147,
      "lon": 120.547464
    },
    {
      "city": "嘉義縣",
      "town": "阿里山鄉",
      "name": "達邦",
      "temp": 22.3,
      "at": 21.451978893989224,
      "lat": 23.455769,
      "lon": 120.741403
    },
    {
      "city": "臺南市",
      "town": "白河區",
      "name": "鹿寮",
      "temp": 21.3,
      "at": 22.172509001739936,
      "lat": 23.387811,
      "lon": 120.469225
    },
    {
      "city": "嘉義縣",
      "town": "阿里山鄉",
      "name": "茶山",
      "temp": 24.0,
      "at": 24.67368519382189,
      "lat": 23.300847,
      "lon": 120.656664
    },
    {
      "city": "雲林縣",
      "town": "古坑鄉",
      "name": "棋山",
      "temp": 19.6,
      "at": 20.3810054829401,
      "lat": 23.688211,
      "lon": 120.595289
    },
    {
      "city": "雲林縣",
      "town": "水林鄉",
      "name": "蔦松",
      "temp": 20.9,
      "at": 19.947896312326534,
      "lat": 23.516064,
      "lon": 120.221625
    },
    {
      "city": "臺南市",
      "town": "北門區",
      "name": "北門",
      "temp": 20.0,
      "at": 17.859328315544385,
      "lat": 23.269517,
      "lon": 120.117367
    },
    {
      "city": "雲林縣",
      "town": "元長鄉",
      "name": "鹿南",
      "temp": 21.7,
      "at": 19.80778231145547,
      "lat": 23.640303,
      "lon": 120.355481
    },
    {
      "city": "桃園市",
      "town": "新屋區",
      "name": "桃園農改",
      "temp": 14.6,
      "at": 11.441473490188043,
      "lat": 24.952721,
      "lon": 121.022375
    },
    {
      "city": "臺東縣",
      "town": "成功鎮",
      "name": "成功",
      "temp": 22.7,
      "at": 20.995103877609946,
      "lat": 23.099296,
      "lon": 121.36534
    },
    {
      "city": "高雄市",
      "town": "旗津區",
      "name": "東沙島",
      "temp": 24.2,
      "at": 27.453700499173163,
      "lat": 20.70252,
      "lon": 116.722116
    },
    {
      "city": "花蓮縣",
      "town": "瑞穗鄉",
      "name": "加納納",
      "temp": 19.2,
      "at": 19.439486742907384,
      "lat": 23.468223,
      "lon": 121.351754
    },
    {
      "city": "臺南市",
      "town": "七股區",
      "name": "西濱N304K",
      "temp": 20.2,
      "at": 16.716192409855918,
      "lat": 23.10519,
      "lon": 120.078614
    },
    {
      "city": "臺東縣",
      "town": "鹿野鄉",
      "name": "二層坪",
      "temp": 21.0,
      "at": 21.00341426904725,
      "lat": 22.942853,
      "lon": 121.160303
    },
    {
      "city": "屏東縣",
      "town": "恆春鎮",
      "name": "恆春",
      "temp": 25.0,
      "at": 23.61032168434881,
      "lat": 22.0057,
      "lon": 120.738326
    },
    {
      "city": "雲林縣",
      "town": "古坑鄉",
      "name": "草嶺",
      "temp": 16.7,
      "at": 14.660725837375228,
      "lat": 23.597319,
      "lon": 120.685342
    },
    {
      "city": "南投縣",
      "town": "仁愛鄉",
      "name": "伊拿谷",
      "temp": 23.0,
      "at": 21.502663044984704,
      "lat": 23.964991,
      "lon": 121.080118
    },
    {
      "city": "新竹市",
      "town": "香山區",
      "name": "西濱S082K",
      "temp": 15.4,
      "at": 13.942282578341874,
      "lat": 24.753481,
      "lon": 120.896827
    },
    {
      "city": "臺東縣",
      "town": "臺東市",
      "name": "臺東",
      "temp": 23.7,
      "at": 23.7108677268945,
      "lat": 22.754017,
      "lon": 121.146522
    },
    {
      "city": "臺北市",
      "town": "北投區",
      "name": "鞍部",
      "temp": 9.5,
      "at": 8.292352473637553,
      "lat": 25.184365,
      "lon": 121.521495
    },
    {
      "city": "高雄市",
      "town": "路竹區",
      "name": "國一S336K",
      "temp": 24.2,
      "at": 25.026237458122576,
      "lat": 22.89593,
      "lon": 120.263097
    },
    {
      "city": "臺北市",
      "town": "大安區",
      "name": "大安森林",
      "temp": 16.2,
      "at": 17.1023909785321,
      "lat": 25.031331,
      "lon": 121.528056
    },
    {
      "city": "苗栗縣",
      "town": "通霄鎮",
      "name": "國三S140K",
      "temp": 15.8,
      "at": 11.838917930726756,
      "lat": 24.524106,
      "lon": 120.716822
    },
    {
      "city": "彰化縣",
      "town": "大村鄉",
      "name": "國一S207K",
      "temp": 19.8,
      "at": 17.347310668495595,
      "lat": 23.990053,
      "lon": 120.499939
    },
    {
      "city": "臺南市",
      "town": "官田區",
      "name": "西拉雅風管處",
      "temp": 22.3,
      "at": 21.716991548924046,
      "lat": 23.191241,
      "lon": 120.327209
    },
    {
      "city": "高雄市",
      "town": "岡山區",
      "name": "國一S346K",
      "temp": 24.5,
      "at": 26.24379723015808,
      "lat": 22.81399,
      "lon": 120.306103
    },
    {
      "city": "新北市",
      "town": "淡水區",
      "name": "淡水",
      "temp": 15.0,
      "at": 12.735697340598783,
      "lat": 25.166664,
      "lon": 121.440672
    },
    {
      "city": "高雄市",
      "town": "仁武區",
      "name": "國一N361K",
      "temp": 23.3,
      "at": 24.214464780796263,
      "lat": 22.682326,
      "lon": 120.320557
    },
    {
      "city": "新北市",
      "town": "泰山區",
      "name": "國一N039K",
      "temp": 13.6,
      "at": 13.498149489888146,
      "lat": 25.066207,
      "lon": 121.373771
    },
    {
      "city": "新竹縣",
      "town": "關西鎮",
      "name": "國三N085K",
      "temp": 14.8,
      "at": 13.254992613635324,
      "lat": 24.785096,
      "lon": 121.112895
    },
    {
      "city": "臺北市",
      "town": "中正區",
      "name": "臺北",
      "temp": 16.5,
      "at": 14.722759644769575,
      "lat": 25.039439,
      "lon": 121.506628
    },
    {
      "city": "南投縣",
      "town": "仁愛鄉",
      "name": "卓社",
      "temp": 19.6,
      "at": 19.430347347823375,
      "lat": 23.889672,
      "lon": 120.991946
    },
    {
      "city": "雲林縣",
      "town": "古坑鄉",
      "name": "荷苞",
      "temp": 19.6,
      "at": 20.38608774982969,
      "lat": 23.65948,
      "lon": 120.587023
    },
    {
      "city": "桃園市",
      "town": "大溪區",
      "name": "國三N063K",
      "temp": 14.9,
      "at": 12.855972812345023,
      "lat": 24.891285,
      "lon": 121.255387
    },
    {
      "city": "臺東縣",
      "town": "卑南鄉",
      "name": "利吉",
      "temp": 21.6,
      "at": 21.24891355276773,
      "lat": 22.864264,
      "lon": 121.146788
    },
    {
      "city": "南投縣",
      "town": "國姓鄉",
      "name": "國姓南港",
      "temp": 15.6,
      "at": 14.915722225235477,
      "lat": 23.912878,
      "lon": 120.838415
    },
    {
      "city": "花蓮縣",
      "town": "秀林鄉",
      "name": "合歡山",
      "temp": 2.5,
      "at": -1.3286384945528567,
      "lat": 24.144972,
      "lon": 121.276071
    },
    {
      "city": "新北市",
      "town": "汐止區",
      "name": "國三S010K",
      "temp": 14.6,
      "at": 13.471473490188043,
      "lat": 25.081787,
      "lon": 121.639272
    },
    {
      "city": "嘉義市",
      "town": "東區",
      "name": "國三N295K",
      "temp": 19.6,
      "at": 20.216745884946413,
      "lat": 23.470361,
      "lon": 120.491261
    },
    {
      "city": "嘉義縣",
      "town": "大林鎮",
      "name": "國三N279K",
      "temp": 19.0,
      "at": 18.831381225877323,
      "lat": 23.597872,
      "lon": 120.515216
    },
    {
      "city": "基隆市",
      "town": "中山區",
      "name": "國三N002K",
      "temp": 14.1,
      "at": 14.487001799458238,
      "lat": 25.147619,
      "lon": 121.713466
    },
    {
      "city": "南投縣",
      "town": "魚池鄉",
      "name": "日月潭",
      "temp": 21.4,
      "at": 22.236272242003402,
      "lat": 23.883099,
      "lon": 120.899911
    },
    {
      "city": "雲林縣",
      "town": "林內鄉",
      "name": "國三N252K",
      "temp": 19.5,
      "at": 20.01790893443763,
      "lat": 23.775877,
      "lon": 120.632472
    },
    {
      "city": "新竹市",
      "town": "東區",
      "name": "國一N094K",
      "temp": 15.0,
      "at": 11.881067577812631,
      "lat": 24.799541,
      "lon": 121.000695
    },
    {
      "city": "臺北市",
      "town": "文山區",
      "name": "國三甲005K",
      "temp": 14.8,
      "at": 14.176750530718195,
      "lat": 25.003726,
      "lon": 121.589277
    },
    {
      "city": "苗栗縣",
      "town": "公館鄉",
      "name": "國一S132K",
      "temp": 15.6,
      "at": 12.535559346242145,
      "lat": 24.526272,
      "lon": 120.812648
    },
    {
      "city": "屏東縣",
      "town": "泰武鄉",
      "name": "泰武",
      "temp": 19.0,
      "at": 20.23838297804357,
      "lat": 22.608649,
      "lon": 120.689598
    },
    {
      "city": "彰化縣",
      "town": "芳苑鄉",
      "name": "芳苑",
      "temp": 20.4,
      "at": 18.203311533027584,
      "lat": 23.924,
      "lon": 120.311861
    },
    {
      "city": "花蓮縣",
      "town": "鳳林鎮",
      "name": "庄子底",
      "temp": 19.6,
      "at": 19.83625228360887,
      "lat": 23.719744,
      "lon": 121.486249
    },
    {
      "city": "臺南市",
      "town": "玉井區",
      "name": "玉井",
      "temp": 28.2,
      "at": 29.830981785951565,
      "lat": 23.127833,
      "lon": 120.452472
    },
    {
      "city": "臺南市",
      "town": "七股區",
      "name": "水試所海水繁養殖中心",
      "temp": 20.2,
      "at": 16.514113928908024,
      "lat": 23.122553,
      "lon": 120.071594
    },
    {
      "city": "南投縣",
      "town": "名間鄉",
      "name": "名間竹圍",
      "temp": 20.0,
      "at": 20.1275392380014,
      "lat": 23.861675,
      "lon": 120.629436
    },
    {
      "city": "彰化縣",
      "town": "和美鎮",
      "name": "國三N191K",
      "temp": 16.8,
      "at": 12.778578691773603,
      "lat": 24.141006,
      "lon": 120.513338
    },
    {
      "city": "南投縣",
      "town": "草屯鎮",
      "name": "國三S217K",
      "temp": 20.8,
      "at": 21.544919596875076,
      "lat": 24.008587,
      "lon": 120.645062
    },
    {
      "city": "嘉義縣",
      "town": "竹崎鄉",
      "name": "紫雲",
      "temp": 20.9,
      "at": 21.39330531616201,
      "lat": 23.496678,
      "lon": 120.532142
    },
    {
      "city": "桃園市",
      "town": "中壢區",
      "name": "農工中心",
      "temp": 14.3,
      "at": 12.886452539530428,
      "lat": 24.987706,
      "lon": 121.231626
    },
    {
      "city": "臺東縣",
      "town": "東河鄉",
      "name": "順那",
      "temp": 23.3,
      "at": 23.203087835954648,
      "lat": 23.043467,
      "lon": 121.285235
    },
    {
      "city": "南投縣",
      "town": "埔里鎮",
      "name": "中台",
      "temp": 25.3,
      "at": 25.171008721874287,
      "lat": 24.001373,
      "lon": 120.930591
    },
    {
      "city": "臺南市",
      "town": "官田區",
      "name": "國三S329K",
      "temp": 20.6,
      "at": 19.8087526568359,
      "lat": 23.214538,
      "lon": 120.347743
    },
    {
      "city": "金門縣",
      "town": "金城鎮",
      "name": "金門",
      "temp": 17.8,
      "at": 15.10180440117411,
      "lat": 24.408942,
      "lon": 118.281127
    },
    {
      "city": "基隆市",
      "town": "七堵區",
      "name": "國一S006K",
      "temp": 14.5,
      "at": 14.024630130473547,
      "lat": 25.088729,
      "lon": 121.678671
    },
    {
      "city": "高雄市",
      "town": "旗津區",
      "name": "南沙島",
      "temp": 29.7,
      "at": 34.01905481720393,
      "lat": 10.372116,
      "lon": 114.356938
    },
    {
      "city": "澎湖縣",
      "town": "望安鄉",
      "name": "東吉島",
      "temp": 19.0,
      "at": 12.251381225877324,
      "lat": 23.258999,
      "lon": 119.659533
    },
    {
      "city": "嘉義縣",
      "town": "阿里山鄉",
      "name": "阿里山",
      "temp": 11.0,
      "at": 9.39311332870645,
      "lat": 23.509984,
      "lon": 120.805129
    },
    {
      "city": "新北市",
      "town": "新店區",
      "name": "新北",
      "temp": 15.7,
      "at": 14.8274083146066,
      "lat": 24.96099,
      "lon": 121.516977
    },
    {
      "city": "花蓮縣",
      "town": "富里鄉",
      "name": "六十石",
      "temp": 13.3,
      "at": 11.950649337380327,
      "lat": 23.226575,
      "lon": 121.310513
    },
    {
      "city": "彰化縣",
      "town": "二林鎮",
      "name": "移民庄",
      "temp": 20.7,
      "at": 17.572964903510954,
      "lat": 23.980148,
      "lon": 120.394687
    },
    {
      "city": "屏東縣",
      "town": "竹田鄉",
      "name": "國三S415K",
      "temp": 24.8,
      "at": 25.674366665077564,
      "lat": 22.569782,
      "lon": 120.519952
    },
    {
      "city": "屏東縣",
      "town": "牡丹鄉",
      "name": "高士國小",
      "temp": 23.0,
      "at": 24.091240550627568,
      "lat": 22.127335,
      "lon": 120.838508
    },
    {
      "city": "嘉義縣",
      "town": "大埔鄉",
      "name": "馬頭山",
      "temp": 25.7,
      "at": 25.06858823648966,
      "lat": 23.326389,
      "lon": 120.573611
    },
    {
      "city": "新北市",
      "town": "坪林區",
      "name": "四堵",
      "temp": 14.0,
      "at": 14.932101580337623,
      "lat": 24.894394,
      "lon": 121.737519
    },
    {
      "city": "臺南市",
      "town": "白河區",
      "name": "國三S311K",
      "temp": 20.2,
      "at": 18.87827089080381,
      "lat": 23.34815,
      "lon": 120.430789
    },
    {
      "city": "嘉義縣",
      "town": "梅山鄉",
      "name": "外寮",
      "temp": 18.0,
      "at": 16.985891194807756,
      "lat": 23.564411,
      "lon": 120.657572
    },
    {
      "city": "屏東縣",
      "town": "竹田鄉",
      "name": "竹田國中",
      "temp": 28.4,
      "at": 29.420065802499927,
      "lat": 22.617101,
      "lon": 120.516069
    },
    {
      "city": "臺東縣",
      "town": "卑南鄉",
      "name": "東改班鳩分場",
      "temp": 22.2,
      "at": 22.82525942424886,
      "lat": 22.831307,
      "lon": 121.069619
    },
    {
      "city": "臺中市",
      "town": "霧峰區",
      "name": "農業試驗所",
      "temp": 21.6,
      "at": 21.233999277376633,
      "lat": 24.033022,
      "lon": 120.679986
    },
    {
      "city": "嘉義縣",
      "town": "竹崎鄉",
      "name": "大華",
      "temp": 23.1,
      "at": 24.073553109997338,
      "lat": 23.484171,
      "lon": 120.6668
    },
    {
      "city": "新竹縣",
      "town": "湖口鄉",
      "name": "國一N077K",
      "temp": 13.6,
      "at": 11.468149489888145,
      "lat": 24.886763,
      "lon": 121.080688
    },
    {
      "city": "新北市",
      "town": "鶯歌區",
      "name": "國三S054K",
      "temp": 16.1,
      "at": 15.401577046647194,
      "lat": 24.940943,
      "lon": 121.315683
    },
    {
      "city": "嘉義縣",
      "town": "竹崎鄉",
      "name": "國三S290K",
      "temp": 19.7,
      "at": 19.380574903574757,
      "lat": 23.505867,
      "lon": 120.482631
    },
    {
      "city": "臺南市",
      "town": "下營區",
      "name": "茅港尾",
      "temp": 22.8,
      "at": 22.685649607881242,
      "lat": 23.207857,
      "lon": 120.254311
    },
    {
      "city": "臺中市",
      "town": "后里區",
      "name": "國一N158K",
      "temp": 16.1,
      "at": 15.862338589470035,
      "lat": 24.334121,
      "lon": 120.708967
    },
    {
      "city": "臺中市",
      "town": "和平區",
      "name": "烏石坑",
      "temp": 17.6,
      "at": 18.017038713684805,
      "lat": 24.275269,
      "lon": 120.939447
    },
    {
      "city": "苗栗縣",
      "town": "銅鑼鄉",
      "name": "國一S144K",
      "temp": 14.1,
      "at": 11.73607458491441,
      "lat": 24.438818,
      "lon": 120.770016
    },
    {
      "city": "彰化縣",
      "town": "芳苑鄉",
      "name": "西濱S189K",
      "temp": 18.3,
      "at": 12.284454301660237,
      "lat": 23.989603,
      "lon": 120.361463
    },
    {
      "city": "嘉義縣",
      "town": "阿里山鄉",
      "name": "里佳",
      "temp": 19.0,
      "at": 17.823374217212354,
      "lat": 23.390899,
      "lon": 120.708543
    },
    {
      "city": "南投縣",
      "town": "仁愛鄉",
      "name": "畢祿溪站",
      "temp": 14.0,
      "at": 12.720906970497417,
      "lat": 24.22873,
      "lon": 121.300362
    },
    {
      "city": "高雄市",
      "town": "美濃區",
      "name": "美濃",
      "temp": 26.5,
      "at": 28.169690605633512,
      "lat": 22.900567,
      "lon": 120.511
    },
    {
      "city": "南投縣",
      "town": "仁愛鄉",
      "name": "馬烈霸",
      "temp": 11.8,
      "at": 10.428468516709362,
      "lat": 24.152982,
      "lon": 121.193613
    },
    {
      "city": "臺南市",
      "town": "安南區",
      "name": "安南",
      "temp": 22.8,
      "at": 22.588326158127533,
      "lat": 23.078333,
      "lon": 120.136667
    },
    {
      "city": "新北市",
      "town": "土城區",
      "name": "國三S037K",
      "temp": 16.0,
      "at": 16.3088995848831,
      "lat": 24.984141,
      "lon": 121.462821
    },
    {
      "city": "宜蘭縣",
      "town": "礁溪鄉",
      "name": "國五S031K",
      "temp": 17.0,
      "at": 16.736617974256845,
      "lat": 24.820942,
      "lon": 121.774168
    },
    {
      "city": "高雄市",
      "town": "路竹區",
      "name": "國一S342K",
      "temp": 23.3,
      "at": 24.168602475280426,
      "lat": 22.847321,
      "lon": 120.286935
    },
    {
      "city": "彰化縣",
      "town": "彰化市",
      "name": "國三N196K",
      "temp": 17.8,
      "at": 13.22960576705573,
      "lat": 24.108907,
      "lon": 120.546322
    },
    {
      "city": "嘉義縣",
      "town": "新港鄉",
      "name": "安和",
      "temp": 21.2,
      "at": 19.22606331209637,
      "lat": 23.515523,
      "lon": 120.30782
    },
    {
      "city": "花蓮縣",
      "town": "吉安鄉",
      "name": "吉安",
      "temp": 19.8,
      "at": 20.80138450897422,
      "lat": 23.947182,
      "lon": 121.539883
    },
    {
      "city": "臺南市",
      "town": "新營區",
      "name": "國一N288K",
      "temp": 21.2,
      "at": 19.888963412046692,
      "lat": 23.307846,
      "lon": 120.281937
    },
    {
      "city": "南投縣",
      "town": "國姓鄉",
      "name": "柑林",
      "temp": 22.6,
      "at": 22.19434159823524,
      "lat": 24.020426,
      "lon": 120.838924
    },
    {
      "city": "新竹縣",
      "town": "湖口鄉",
      "name": "國一S082K",
      "temp": 13.1,
      "at": 10.267536809907817,
      "lat": 24.878431,
      "lon": 121.038489
    },
    {
      "city": "臺南市",
      "town": "北門區",
      "name": "西濱S280K",
      "temp": 20.0,
      "at": 16.578433776772894,
      "lat": 23.30695,
      "lon": 120.140816
    },
    {
      "city": "臺中市",
      "town": "神岡區",
      "name": "國四E5K",
      "temp": 16.3,
      "at": 14.319273822183469,
      "lat": 24.298221,
      "lon": 120.634964
    },
    {
      "city": "新竹縣",
      "town": "新豐鄉",
      "name": "西濱N066K",
      "temp": 14.7,
      "at": 11.937183307198474,
      "lat": 24.897357,
      "lon": 120.956688
    },
    {
      "city": "南投縣",
      "town": "草屯鎮",
      "name": "國三N223K",
      "temp": 20.0,
      "at": 18.79057439174424,
      "lat": 23.956874,
      "lon": 120.654227
    },
    {
      "city": "臺南市",
      "town": "官田區",
      "name": "國三N336K",
      "temp": 21.5,
      "at": 21.704969059580748,
      "lat": 23.156484,
      "lon": 120.336914
    },
    {
      "city": "彰化縣",
      "town": "大村鄉",
      "name": "臺中農改",
      "temp": 21.3,
      "at": 19.402394956206304,
      "lat": 24.004779,
      "lon": 120.526236
    },