{
  "meta": {
    "updated_at": "2026-07-24 04:09:36",
    "source": "CWA Auto Stations",
    "count": 849
  },
  "data": [
    {
      "city": "高雄市",
      "town": "內門區",
      "name": "內門",
      "temp": 25.5,
      "at": 31.484861330203962,
      "lat": 22.976944,
      "lon": 120.458333
    },
    {
      "city": "臺南市",
      "town": "南區",
      "name": "臺南市南區",
      "temp": 29.5,
      "at": 37.16161853904759,
      "lat": 22.963028,
      "lon": 120.180417
    },
    {
      "city": "宜蘭縣",
      "town": "南澳鄉",
      "name": "東澳",
      "temp": 25.0,
      "at": 30.692811197569362,
      "lat": 24.523767,
      "lon": 121.824986
    },
    {
      "city": "屏東縣",
      "town": "潮州鎮",
      "name": "潮州",
      "temp": 27.7,
      "at": 33.927671797669014,
      "lat": 22.536139,
      "lon": 120.531972
    },
    {
      "city": "新北市",
      "town": "汐止區",
      "name": "汐止",
      "temp": 28.8,
      "at": 35.85063217160267,
      "lat": 25.068667,
      "lon": 121.650556
    },
    {
      "city": "臺南市",
      "town": "後壁區",
      "name": "後壁",
      "temp": 27.0,
      "at": 32.94839477019434,
      "lat": 23.368094,
      "lon": 120.354211
    },
    {
      "city": "嘉義市",
      "town": "東區",
      "name": "嘉義市東區",
      "temp": 26.4,
      "at": 32.649921500092944,
      "lat": 23.459414,
      "lon": 120.452408
    },
    {
      "city": "臺東縣",
      "town": "成功鎮",
      "name": "小港漁港",
      "temp": 28.1,
      "at": 32.329590377390545,
      "lat": 23.160368,
      "lon": 121.392338
    },
    {
      "city": "臺東縣",
      "town": "鹿野鄉",
      "name": "鹿野",
      "temp": 24.6,
      "at": 28.041023387631675,
      "lat": 22.919517,
      "lon": 121.114908
    },
    {
      "city": "彰化縣",
      "town": "田尾鄉",
      "name": "田尾",
      "temp": 27.5,
      "at": 34.48964047387052,
      "lat": 23.903417,
      "lon": 120.501389
    },
    {
      "city": "屏東縣",
      "town": "內埔鄉",
      "name": "內埔",
      "temp": 26.5,
      "at": 31.98037550011891,
      "lat": 22.610267,
      "lon": 120.562662
    },
    {
      "city": "苗栗縣",
      "town": "頭屋鄉",
      "name": "明德",
      "temp": 25.5,
      "at": 31.484861330203962,
      "lat": 24.58525,
      "lon": 120.877222
    },
    {
      "city": "桃園市",
      "town": "大溪區",
      "name": "大溪",
      "temp": 25.3,
      "at": 29.29785681862633,
      "lat": 24.884722,
      "lon": 121.256944
    },
    {
      "city": "新北市",
      "town": "林口區",
      "name": "太平里",
      "temp": 29.2,
      "at": 33.002950841173444,
      "lat": 25.136709,
      "lon": 121.356668
    },
    {
      "city": "宜蘭縣",
      "town": "大同鄉",
      "name": "太平山莊",
      "temp": 15.7,
      "at": 13.908552788789141,
      "lat": 24.4959,
      "lon": 121.5281
    },
    {
      "city": "花蓮縣",
      "town": "秀林鄉",
      "name": "和中",
      "temp": 24.9,
      "at": 30.328092806193,
      "lat": 24.268567,
      "lon": 121.732861
    },
    {
      "city": "臺中市",
      "town": "大甲區",
      "name": "松柏",
      "temp": 27.7,
      "at": 33.35112510705265,
      "lat": 24.430864,
      "lon": 120.609306
    },
    {
      "city": "苗栗縣",
      "town": "卓蘭鎮",
      "name": "卓蘭",
      "temp": 25.2,
      "at": 31.219665162610838,
      "lat": 24.314319,
      "lon": 120.816192
    },
    {
      "city": "嘉義縣",
      "town": "太保市",
      "name": "太保",
      "temp": 27.0,
      "at": 32.66653876670465,
      "lat": 23.456792,
      "lon": 120.323303
    },
    {
      "city": "彰化縣",
      "town": "溪湖鎮",
      "name": "溪湖",
      "temp": 29.0,
      "at": 35.73352326960777,
      "lat": 23.95175,
      "lon": 120.471056
    },
    {
      "city": "桃園市",
      "town": "大溪區",
      "name": "大溪永福",
      "temp": 23.4,
      "at": 28.586528291753964,
      "lat": 24.894711,
      "lon": 121.316761
    },
    {
      "city": "宜蘭縣",
      "town": "大同鄉",
      "name": "鴛鴦湖",
      "temp": 16.0,
      "at": 17.047608838939276,
      "lat": 24.592053,
      "lon": 121.404039
    },
    {
      "city": "宜蘭縣",
      "town": "大同鄉",
      "name": "玉蘭",
      "temp": 23.6,
      "at": 28.26018646074919,
      "lat": 24.677222,
      "lon": 121.578889
    },
    {
      "city": "臺東縣",
      "town": "東河鄉",
      "name": "東河",
      "temp": 25.5,
      "at": 30.322769029229633,
      "lat": 22.973611,
      "lon": 121.298333
    },
    {
      "city": "屏東縣",
      "town": "獅子鄉",
      "name": "獅子",
      "temp": 28.7,
      "at": 32.73147042458,
      "lat": 22.204106,
      "lon": 120.69721
    },
    {
      "city": "高雄市",
      "town": "旗山區",
      "name": "旗山",
      "temp": 26.8,
      "at": 31.74078485109751,
      "lat": 22.890389,
      "lon": 120.475528
    },
    {
      "city": "高雄市",
      "town": "彌陀區",
      "name": "彌陀",
      "temp": 28.3,
      "at": 34.421623867254695,
      "lat": 22.785583,
      "lon": 120.238278
    },
    {
      "city": "彰化縣",
      "town": "埔鹽鄉",
      "name": "埔鹽",
      "temp": 29.0,
      "at": 35.85702383715918,
      "lat": 24.002167,
      "lon": 120.423583
    },
    {
      "city": "臺東縣",
      "town": "太麻里鄉",
      "name": "金崙山",
      "temp": 20.7,
      "at": 23.825882661735868,
      "lat": 22.569219,
      "lon": 120.951617
    },
    {
      "city": "宜蘭縣",
      "town": "壯圍鄉",
      "name": "大福",
      "temp": 26.7,
      "at": 33.30204043244099,
      "lat": 24.802436,
      "lon": 121.805683
    },
    {
      "city": "新北市",
      "town": "新莊區",
      "name": "新莊",
      "temp": 29.1,
      "at": 32.330904980089855,
      "lat": 25.05325,
      "lon": 121.438528
    },
    {
      "city": "臺南市",
      "town": "新化區",
      "name": "虎頭埤",
      "temp": 25.4,
      "at": 29.252197677656582,
      "lat": 23.023139,
      "lon": 120.339806
    },
    {
      "city": "新竹縣",
      "town": "竹東鎮",
      "name": "竹東",
      "temp": 25.8,
      "at": 30.840160219329597,
      "lat": 24.76925,
      "lon": 121.049861
    },
    {
      "city": "新北市",
      "town": "土城區",
      "name": "土城",
      "temp": 25.5,
      "at": 29.641220326956216,
      "lat": 24.974944,
      "lon": 121.436917
    },
    {
      "city": "嘉義縣",
      "town": "竹崎鄉",
      "name": "水社寮",
      "temp": 19.5,
      "at": 21.87485264247931,
      "lat": 23.50594,
      "lon": 120.65223
    },
    {
      "city": "臺南市",
      "town": "安南區",
      "name": "城西",
      "temp": 28.3,
      "at": 34.440306552320855,
      "lat": 23.058558,
      "lon": 120.087492
    },
    {
      "city": "屏東縣",
      "town": "林邊鄉",
      "name": "林邊",
      "temp": 25.5,
      "at": 31.671681831827826,
      "lat": 22.465232,
      "lon": 120.52585
    },
    {
      "city": "屏東縣",
      "town": "車城鄉",
      "name": "保力",
      "temp": 27.8,
      "at": 31.8832738897214,
      "lat": 22.072925,
      "lon": 120.756094
    },
    {
      "city": "桃園市",
      "town": "平鎮區",
      "name": "平鎮",
      "temp": 25.5,
      "at": 30.41122032695622,
      "lat": 24.899444,
      "lon": 121.206389
    },
    {
      "city": "花蓮縣",
      "town": "秀林鄉",
      "name": "新白楊",
      "temp": 16.1,
      "at": 17.141830894254806,
      "lat": 24.19999,
      "lon": 121.424797
    },
    {
      "city": "臺南市",
      "town": "北門區",
      "name": "蘆竹溝",
      "temp": 28.9,
      "at": 34.01331258952013,
      "lat": 23.236154,
      "lon": 120.088035
    },
    {
      "city": "新北市",
      "town": "瑞芳區",
      "name": "水湳洞",
      "temp": 28.9,
      "at": 31.127361690268692,
      "lat": 25.125492,
      "lon": 121.854006
    },
    {
      "city": "花蓮縣",
      "town": "新城鄉",
      "name": "新城",
      "temp": 26.4,
      "at": 32.15379668825999,
      "lat": 24.042289,
      "lon": 121.596724
    },
    {
      "city": "屏東縣",
      "town": "滿州鄉",
      "name": "佳樂水",
      "temp": 28.4,
      "at": 33.129520145293995,
      "lat": 21.995386,
      "lon": 120.853619
    },
    {
      "city": "宜蘭縣",
      "town": "大同鄉",
      "name": "太平山",
      "temp": 17.4,
      "at": 16.87385949720358,
      "lat": 24.507222,
      "lon": 121.5175
    },
    {
      "city": "宜蘭縣",
      "town": "員山鄉",
      "name": "員山",
      "temp": 26.3,
      "at": 33.10578697728674,
      "lat": 24.746147,
      "lon": 121.714269
    },
    {
      "city": "新竹縣",
      "town": "五峰鄉",
      "name": "雪霸",
      "temp": 16.7,
      "at": 18.39630648471936,
      "lat": 24.528722,
      "lon": 121.107917
    },
    {
      "city": "新北市",
      "town": "深坑區",
      "name": "深坑",
      "temp": 27.7,
      "at": 33.94421848828538,
      "lat": 25.004489,
      "lon": 121.620106
    },
    {
      "city": "嘉義縣",
      "town": "梅山鄉",
      "name": "梅山",
      "temp": 26.1,
      "at": 31.053012267059565,
      "lat": 23.587147,
      "lon": 120.547464
    },
    {
      "city": "花蓮縣",
      "town": "鳳林鎮",
      "name": "萬榮",
      "temp": 25.5,
      "at": 30.518584427281,
      "lat": 23.711022,
      "lon": 121.411969
    },
    {
      "city": "嘉義縣",
      "town": "六腳鄉",
      "name": "六腳",
      "temp": 27.9,
      "at": 34.44438616591418,
      "lat": 23.494611,
      "lon": 120.2825
    },
    {
      "city": "花蓮縣",
      "town": "玉里鎮",
      "name": "赤柯山",
      "temp": 20.8,
      "at": 24.303712111759964,
      "lat": 23.370733,
      "lon": 121.374825
    },
    {
      "city": "高雄市",
      "town": "鼓山區",
      "name": "鼓山",
      "temp": 28.4,
      "at": 34.052263953088115,
      "lat": 22.625139,
      "lon": 120.2675
    },
    {
      "city": "屏東縣",
      "town": "里港鄉",
      "name": "里港",
      "temp": 27.0,
      "at": 33.349392111670305,
      "lat": 22.780972,
      "lon": 120.486528
    },
    {
      "city": "花蓮縣",
      "town": "秀林鄉",
      "name": "水源",
      "temp": 23.3,
      "at": 27.610667892542843,
      "lat": 23.993718,
      "lon": 121.529043
    },
    {
      "city": "新竹縣",
      "town": "橫山鄉",
      "name": "橫山",
      "temp": 22.9,
      "at": 27.717334753606202,
      "lat": 24.712925,
      "lon": 121.108733
    },
    {
      "city": "雲林縣",
      "town": "虎尾鎮",
      "name": "高鐵雲林",
      "temp": 26.6,
      "at": 33.13994246604713,
      "lat": 23.739206,
      "lon": 120.409817
    },
    {
      "city": "高雄市",
      "town": "甲仙區",
      "name": "五指寮林道3.5K",
      "temp": 23.5,
      "at": 28.17032139799248,
      "lat": 23.13855,
      "lon": 120.63219
    },
    {
      "city": "新北市",
      "town": "石門區",
      "name": "白沙灣",
      "temp": 27.6,
      "at": 31.736588221704437,
      "lat": 25.284903,
      "lon": 121.510814
    },
    {
      "city": "臺東縣",
      "town": "東河鄉",
      "name": "七塊厝",
      "temp": 23.6,
      "at": 27.34262731838486,
      "lat": 22.957525,
      "lon": 121.221089
    },
    {
      "city": "高雄市",
      "town": "阿蓮區",
      "name": "阿蓮",
      "temp": 27.4,
      "at": 34.11565896889751,
      "lat": 22.884944,
      "lon": 120.319528
    },
    {
      "city": "臺東縣",
      "town": "蘭嶼鄉",
      "name": "蘭嶼高中",
      "temp": 29.0,
      "at": 34.86052440471059,
      "lat": 22.050931,
      "lon": 121.504119
    },
    {
      "city": "臺東縣",
      "town": "海端鄉",
      "name": "下馬",
      "temp": 21.2,
      "at": 22.466100899552902,
      "lat": 23.152222,
      "lon": 121.062222
    },
    {
      "city": "臺東縣",
      "town": "成功鎮",
      "name": "白守蓮",
      "temp": 28.6,
      "at": 32.12165474283522,
      "lat": 23.12858,
      "lon": 121.393824
    },
    {
      "city": "宜蘭縣",
      "town": "大同鄉",
      "name": "翠峰湖",
      "temp": 15.2,
      "at": 16.188354230782064,
      "lat": 24.51265,
      "lon": 121.599858
    },
    {
      "city": "臺東縣",
      "town": "達仁鄉",
      "name": "勝林山",
      "temp": 21.0,
      "at": 24.19344461993997,
      "lat": 22.432239,
      "lon": 120.885742
    },
    {
      "city": "臺中市",
      "town": "龍井區",
      "name": "臺中電廠",
      "temp": 28.7,
      "at": 34.155819420185075,
      "lat": 24.216388,
      "lon": 120.482584
    },
    {
      "city": "雲林縣",
      "town": "西螺鎮",
      "name": "西螺",
      "temp": 26.6,
      "at": 32.452554913913616,
      "lat": 23.80215,
      "lon": 120.459253
    },
    {
      "city": "臺東縣",
      "town": "大武鄉",
      "name": "山豬窟",
      "temp": 24.4,
      "at": 27.481645049221342,
      "lat": 22.320422,
      "lon": 120.849339
    },
    {
      "city": "宜蘭縣",
      "town": "大同鄉",
      "name": "明池",
      "temp": 18.7,
      "at": 20.955333298666265,
      "lat": 24.6506,
      "lon": 121.4673
    },
    {
      "city": "臺北市",
      "town": "士林區",
      "name": "社子",
      "temp": 29.6,
      "at": 35.07311026098733,
      "lat": 25.111389,
      "lon": 121.461389
    },
    {
      "city": "新北市",
      "town": "淡水區",
      "name": "淡水觀海",
      "temp": 29.3,
      "at": 30.471503445850793,
      "lat": 25.186364,
      "lon": 121.400381
    },
    {
      "city": "臺東縣",
      "town": "大武鄉",
      "name": "加津林",
      "temp": 27.3,
      "at": 32.55646347370682,
      "lat": 22.418014,
      "lon": 120.9189
    },
    {
      "city": "臺南市",
      "town": "東山區",
      "name": "東河",
      "temp": 25.9,
      "at": 31.794189227437826,
      "lat": 23.298339,
      "lon": 120.377492
    },
    {
      "city": "屏東縣",
      "town": "車城鄉",
      "name": "竹坑",
      "temp": 29.8,
      "at": 32.45719436499254,
      "lat": 22.140248,
      "lon": 120.694128
    },
    {
      "city": "高雄市",
      "town": "林園區",
      "name": "汕尾",
      "temp": 27.2,
      "at": 32.64733515730618,
      "lat": 22.479984,
      "lon": 120.407094
    },
    {
      "city": "桃園市",
      "town": "新屋區",
      "name": "中大臨海站",
      "temp": 26.2,
      "at": 32.480405221530056,
      "lat": 24.967883,
      "lon": 121.000364
    },
    {
      "city": "臺東縣",
      "town": "達仁鄉",
      "name": "南田",
      "temp": 25.8,
      "at": 30.625173570940397,
      "lat": 22.291944,
      "lon": 120.881944
    },
    {
      "city": "高雄市",
      "town": "岡山區",
      "name": "岡山",
      "temp": 28.7,
      "at": 35.394791964840536,
      "lat": 22.798844,
      "lon": 120.286889
    },
    {
      "city": "桃園市",
      "town": "觀音區",
      "name": "觀音工業區",
      "temp": 28.9,
      "at": 34.128353506810605,
      "lat": 25.066525,
      "lon": 121.106631
    },
    {
      "city": "屏東縣",
      "town": "獅子鄉",
      "name": "內獅",
      "temp": 26.7,
      "at": 31.43251957227666,
      "lat": 22.306856,
      "lon": 120.634956
    },
    {
      "city": "花蓮縣",
      "town": "卓溪鄉",
      "name": "瑞穗林道",
      "temp": 19.6,
      "at": 21.727404020063137,
      "lat": 23.494642,
      "lon": 121.298764
    },
    {
      "city": "臺東縣",
      "town": "海端鄉",
      "name": "向陽",
      "temp": 12.4,
      "at": 12.083944916403041,
      "lat": 23.25,
      "lon": 120.978056
    },
    {
      "city": "臺東縣",
      "town": "長濱鄉",
      "name": "石寧山",
      "temp": 25.5,
      "at": 30.145404928904867,
      "lat": 23.225581,
      "lon": 121.398542
    },
    {
      "city": "高雄市",
      "town": "橋頭區",
      "name": "橋頭",
      "temp": 28.4,
      "at": 34.65677633749988,
      "lat": 22.759583,
      "lon": 120.297694
    },
    {
      "city": "花蓮縣",
      "town": "壽豐鄉",
      "name": "蕃薯寮",
      "temp": 24.0,
      "at": 28.390075534193237,
      "lat": 23.740156,
      "lon": 121.531975
    },
    {
      "city": "屏東縣",
      "town": "枋寮鄉",
      "name": "枋寮",
      "temp": 26.9,
      "at": 33.39399335858551,
      "lat": 22.369511,
      "lon": 120.582611
    },
    {
      "city": "花蓮縣",
      "town": "壽豐鄉",
      "name": "月眉山",
      "temp": 22.9,
      "at": 27.94922702384465,
      "lat": 23.811736,
      "lon": 121.531686
    },
    {
      "city": "屏東縣",
      "town": "枋山鄉",
      "name": "枋山",
      "temp": 27.2,
      "at": 31.4973348599193,
      "lat": 22.249572,
      "lon": 120.652748
    },
    {
      "city": "屏東縣",
      "town": "崁頂鄉",
      "name": "崁頂",
      "temp": 27.0,
      "at": 32.855680104690904,
      "lat": 22.516639,
      "lon": 120.498972
    },
    {
      "city": "臺東縣",
      "town": "蘭嶼鄉",
      "name": "蘭嶼燈塔",
      "temp": 27.1,
      "at": 26.021605209692225,
      "lat": 22.083031,
      "lon": 121.495094
    },
    {
      "city": "花蓮縣",
      "town": "壽豐鄉",
      "name": "水璉",
      "temp": 25.0,
      "at": 30.901258750205265,
      "lat": 23.798889,
      "lon": 121.534167
    },
    {
      "city": "南投縣",
      "town": "仁愛鄉",
      "name": "奧萬大",
      "temp": 18.9,
      "at": 20.166415345081397,
      "lat": 23.95473,
      "lon": 121.170332
    },
    {
      "city": "新北市",
      "town": "八里區",
      "name": "八里",
      "temp": 29.4,
      "at": 31.187219696558984,
      "lat": 25.15225,
      "lon": 121.395306
    },
    {
      "city": "臺南市",
      "town": "學甲區",
      "name": "學甲",
      "temp": 28.6,
      "at": 35.285350559683636,
      "lat": 23.2321,
      "lon": 120.174072
    },
    {
      "city": "嘉義縣",
      "town": "阿里山鄉",
      "name": "新美",
      "temp": 22.9,
      "at": 27.629765672652418,
      "lat": 23.339792,
      "lon": 120.675231
    },
    {
      "city": "臺東縣",
      "town": "海端鄉",
      "name": "紅石",
      "temp": 16.0,
      "at": 16.867092540561742,
      "lat": 23.070902,
      "lon": 121.11777
    },
    {
      "city": "苗栗縣",
      "town": "泰安鄉",
      "name": "馬都安",
      "temp": 22.7,
      "at": 26.870847842641354,
      "lat": 24.453056,
      "lon": 120.921944
    },
    {
      "city": "臺東縣",
      "town": "長濱鄉",
      "name": "樟原南溪",
      "temp": 23.7,
      "at": 27.478070128375943,
      "lat": 23.40411,
      "lon": 121.41507
    },
    {
      "city": "臺東縣",
      "town": "東河鄉",
      "name": "新蘭",
      "temp": 27.8,
      "at": 32.65010494784317,
      "lat": 22.871021,
      "lon": 121.215155
    },
    {
      "city": "臺東縣",
      "town": "成功鎮",
      "name": "叭嗡嗡",
      "temp": 28.3,
      "at": 32.4025020772106,
      "lat": 23.048871,
      "lon": 121.335138
    },
    {
      "city": "新北市",
      "town": "金山區",
      "name": "三和",
      "temp": 25.8,
      "at": 32.05089930089251,
      "lat": 25.234933,
      "lon": 121.586997
    },
    {
      "city": "臺南市",
      "town": "六甲區",
      "name": "王爺宮",
      "temp": 27.2,
      "at": 33.70333521678355,
      "lat": 23.223828,
      "lon": 120.392758
    },
    {
      "city": "臺南市",
      "town": "龍崎區",
      "name": "崎頂",
      "temp": 26.6,
      "at": 32.63081328200262,
      "lat": 22.961306,
      "lon": 120.361194
    },
    {
      "city": "臺東縣",
      "town": "成功鎮",
      "name": "都歷",
      "temp": 27.7,
      "at": 32.303667265409025,
      "lat": 23.022142,
      "lon": 121.315558
    },
    {
      "city": "苗栗縣",
      "town": "獅潭鄉",
      "name": "獅潭",
      "temp": 24.1,
      "at": 29.145854129949285,
      "lat": 24.541028,
      "lon": 120.911972
    },
    {
      "city": "基隆市",
      "town": "中正區",
      "name": "八斗子",
      "temp": 29.1,
      "at": 31.125930118425686,
      "lat": 25.146547,
      "lon": 121.783436
    },
    {
      "city": "桃園市",
      "town": "龜山區",
      "name": "龜山",
      "temp": 26.8,
      "at": 31.18752276405344,
      "lat": 25.030231,
      "lon": 121.378336
    },
    {
      "city": "臺中市",
      "town": "和平區",
      "name": "南湖圈谷",
      "temp": 7.2,
      "at": 0.7587505470747518,
      "lat": 24.365503,
      "lon": 121.436489
    },
    {
      "city": "高雄市",
      "town": "梓官區",
      "name": "蚵仔寮",
      "temp": 27.8,
      "at": 32.723273889721405,
      "lat": 22.727414,
      "lon": 120.244618
    },
    {
      "city": "高雄市",
      "town": "永安區",
      "name": "永安",
      "temp": 27.6,
      "at": 33.9395321338371,
      "lat": 22.824944,
      "lon": 120.228806
    },
    {
      "city": "高雄市",
      "town": "路竹區",
      "name": "路竹",
      "temp": 28.8,
      "at": 34.60039502020494,
      "lat": 22.856639,
      "lon": 120.251361
    },
    {
      "city": "新北市",
      "town": "烏來區",
      "name": "福山植物園",
      "temp": 22.8,
      "at": 27.751150962068152,
      "lat": 24.762506,
      "lon": 121.573147
    },
    {
      "city": "臺南市",
      "town": "南化區",
      "name": "北寮",
      "temp": 25.3,
      "at": 31.065428182351596,
      "lat": 23.081611,
      "lon": 120.486944
    },
    {
      "city": "高雄市",
      "town": "大社區",
      "name": "大社",
      "temp": 28.3,
      "at": 34.81726595563948,
      "lat": 22.731944,
      "lon": 120.338583
    },
    {
      "city": "雲林縣",
      "town": "元長鄉",
      "name": "元長",
      "temp": 27.7,
      "at": 33.80421848828538,
      "lat": 23.644608,
      "lon": 120.311544
    },
    {
      "city": "苗栗縣",
      "town": "頭份市",
      "name": "頭份",
      "temp": 27.0,
      "at": 33.11110943569778,
      "lat": 24.69,
      "lon": 120.904167
    },
    {
      "city": "臺南市",
      "town": "白河區",
      "name": "鹿寮",
      "temp": 25.0,
      "at": 30.587034973887313,
      "lat": 23.387811,
      "lon": 120.469225
    },
    {
      "city": "臺南市",
      "town": "北門區",
      "name": "北門",
      "temp": 28.8,
      "at": 35.62110647439813,
      "lat": 23.269517,
      "lon": 120.117367
    },
    {
      "city": "嘉義縣",
      "town": "溪口鄉",
      "name": "溪口",
      "temp": 26.9,
      "at": 32.69399335858551,
      "lat": 23.605872,
      "lon": 120.395439
    },
    {
      "city": "花蓮縣",
      "town": "玉里鎮",
      "name": "德武",
      "temp": 24.6,
      "at": 30.268101338736365,
      "lat": 23.476069,
      "lon": 121.402597
    },
    {
      "city": "花蓮縣",
      "town": "玉里鎮",
      "name": "安通山",
      "temp": 22.6,
      "at": 26.912946557176383,
      "lat": 23.292536,
      "lon": 121.340419
    },
    {
      "city": "高雄市",
      "town": "湖內區",
      "name": "湖內",
      "temp": 26.4,
      "at": 31.696696537726353,
      "lat": 22.888889,
      "lon": 120.236444
    },
    {
      "city": "臺南市",
      "town": "將軍區",
      "name": "將軍",
      "temp": 28.3,
      "at": 34.98682685066153,
      "lat": 23.216733,
      "lon": 120.127656
    },
    {
      "city": "臺中市",
      "town": "和平區",
      "name": "大雪山埡口",
      "temp": 16.2,
      "at": 14.494501376106502,
      "lat": 24.2744,
      "lon": 121.0224
    },
    {
      "city": "臺南市",
      "town": "官田區",
      "name": "官田",
      "temp": 27.4,
      "at": 35.40621864714013,
      "lat": 23.195028,
      "lon": 120.307528
    },
    {
      "city": "雲林縣",
      "town": "斗南鎮",
      "name": "斗南",
      "temp": 27.5,
      "at": 33.72657935413995,
      "lat": 23.680478,
      "lon": 120.470231
    },
    {
      "city": "苗栗縣",
      "town": "通霄鎮",
      "name": "通霄",
      "temp": 25.8,
      "at": 31.233036435916446,
      "lat": 24.473639,
      "lon": 120.696444
    },
    {
      "city": "雲林縣",
      "town": "水林鄉",
      "name": "蔦松",
      "temp": 27.6,
      "at": 33.81806017777077,
      "lat": 23.516064,
      "lon": 120.221625
    },
    {
      "city": "臺北市",
      "town": "士林區",
      "name": "科教館",
      "temp": 28.9,
      "at": 34.058353506810604,
      "lat": 25.098133,
      "lon": 121.508275
    },
    {
      "city": "花蓮縣",
      "town": "卓溪鄉",
      "name": "清水林道",
      "temp": 20.6,
      "at": 23.128350966008608,
      "lat": 23.273047,
      "lon": 121.180172
    },
    {
      "city": "新竹縣",
      "town": "新豐鄉",
      "name": "新豐",
      "temp": 25.9,
      "at": 31.46438291985657,
      "lat": 24.872436,
      "lon": 120.969
    },
    {
      "city": "嘉義縣",
      "town": "阿里山鄉",
      "name": "二萬平",
      "temp": 13.4,
      "at": 13.23780538928068,
      "lat": 23.51016,
      "lon": 120.78199
    },
    {
      "city": "新北市",
      "town": "雙溪區",
      "name": "雙溪",
      "temp": 28.7,
      "at": 35.835819420185075,
      "lat": 25.037861,
      "lon": 121.856056
    },
    {
      "city": "雲林縣",
      "town": "林內鄉",
      "name": "林內",
      "temp": 24.5,
      "at": 29.169401939373046,
      "lat": 23.750436,
      "lon": 120.601508
    },
    {
      "city": "臺北市",
      "town": "士林區",
      "name": "平等",
      "temp": 25.9,
      "at": 30.78412466329825,
      "lat": 25.130925,
      "lon": 121.568856
    },
    {
      "city": "臺南市",
      "town": "關廟區",
      "name": "關廟",
      "temp": 27.1,
      "at": 32.50173396185931,
      "lat": 22.964861,
      "lon": 120.319722
    },
    {
      "city": "桃園市",
      "town": "中壢區",
      "name": "中壢",
      "temp": 27.1,
      "at": 31.859965715760055,
      "lat": 24.979428,
      "lon": 121.248156
    },
    {
      "city": "高雄市",
      "town": "茂林區",
      "name": "萬山",
      "temp": 24.1,
      "at": 27.815854129949287,
      "lat": 22.907694,
      "lon": 120.68
    },
    {
      "city": "臺南市",
      "town": "新營區",
      "name": "新營",
      "temp": 28.3,
      "at": 34.52118476227675,
      "lat": 23.312447,
      "lon": 120.308586
    },
    {
      "city": "新北市",
      "town": "貢寮區",
      "name": "澳底",
      "temp": 28.2,
      "at": 32.83356568034203,
      "lat": 25.056993,
      "lon": 121.917036
    },
    {
      "city": "臺東縣",
      "town": "金峰鄉",
      "name": "金峰嘉蘭",
      "temp": 24.5,
      "at": 28.974746537697598,
      "lat": 22.596589,
      "lon": 120.952772
    },
    {
      "city": "臺南市",
      "town": "安平區",
      "name": "安平",
      "temp": 28.5,
      "at": 33.25968564608366,
      "lat": 22.994972,
      "lon": 120.144111
    },
    {
      "city": "臺東縣",
      "town": "太麻里鄉",
      "name": "美和",
      "temp": 27.7,
      "at": 31.62021395602539,
      "lat": 22.683881,
      "lon": 121.052177
    },
    {
      "city": "彰化縣",
      "town": "線西鄉",
      "name": "線西",
      "temp": 28.8,
      "at": 34.61015786880721,
      "lat": 24.141081,
      "lon": 120.435381
    },
    {
      "city": "新竹縣",
      "town": "五峰鄉",
      "name": "大坪苗圃",
      "temp": 18.8,
      "at": 20.742256616943063,
      "lat": 24.5379,
      "lon": 121.1026
    },
    {
      "city": "臺中市",
      "town": "神岡區",
      "name": "神岡",
      "temp": 26.5,
      "at": 31.69091019455675,
      "lat": 24.274222,
      "lon": 120.650306
    },
    {
      "city": "高雄市",
      "town": "桃源區",
      "name": "美瓏山",
      "temp": 20.2,
      "at": 22.08372152416856,
      "lat": 23.12148,
      "lon": 120.73922
    },
    {
      "city": "新北市",
      "town": "汐止區",
      "name": "五指山",
      "temp": 22.3,
      "at": 22.373675088837135,
      "lat": 25.133889,
      "lon": 121.600278
    },
    {
      "city": "雲林縣",
      "town": "口湖鄉",
      "name": "箔子寮",
      "temp": 28.9,
      "at": 32.308353506810604,
      "lat": 23.621487,
      "lon": 120.13192
    },
    {
      "city": "屏東縣",
      "town": "三地門鄉",
      "name": "上德文",
      "temp": 22.0,
      "at": 23.736802300042722,
      "lat": 22.76515,
      "lon": 120.696523
    },
    {
      "city": "新竹市",
      "town": "北區",
      "name": "海天一線",
      "temp": 26.6,
      "at": 31.809942466047133,
      "lat": 24.833742,
      "lon": 120.906231
    },
    {
      "city": "花蓮縣",
      "town": "秀林鄉",
      "name": "立霧山",
      "temp": 19.5,
      "at": 22.17794246000536,
      "lat": 24.185061,
      "lon": 121.633735
    },
    {
      "city": "臺東縣",
      "town": "臺東市",
      "name": "知本(水試所)",
      "temp": 27.0,
      "at": 32.15196809771152,
      "lat": 22.704053,
      "lon": 121.074603
    },
    {
      "city": "屏東縣",
      "town": "佳冬鄉",
      "name": "塭仔",
      "temp": 26.2,
      "at": 30.647112205206795,
      "lat": 22.418718,
      "lon": 120.511622
    },
    {
      "city": "彰化縣",
      "town": "秀水鄉",
      "name": "秀水",
      "temp": 29.9,
      "at": 37.83252166866069,
      "lat": 24.035917,
      "lon": 120.495722
    },
    {
      "city": "花蓮縣",
      "town": "壽豐鄉",
      "name": "鯉魚潭",
      "temp": 23.1,
      "at": 28.400906737700552,
      "lat": 23.937444,
      "lon": 121.500806
    },
    {
      "city": "花蓮縣",
      "town": "瑞穗鄉",
      "name": "瑞穗",
      "temp": 24.6,
      "at": 30.198101338736365,
      "lat": 23.525708,
      "lon": 121.382086
    },
    {
      "city": "南投縣",
      "town": "仁愛鄉",
      "name": "廬山",
      "temp": 18.5,
      "at": 19.057678153035766,
      "lat": 24.035,
      "lon": 121.173333
    },
    {
      "city": "臺南市",
      "town": "左鎮區",
      "name": "左鎮",
      "temp": 26.9,
      "at": 33.510593284792016,
      "lat": 23.058528,
      "lon": 120.400444
    },
    {
      "city": "嘉義縣",
      "town": "竹崎鄉",
      "name": "交力坪",
      "temp": 21.8,
      "at": 25.13205967704992,
      "lat": 23.53344,
      "lon": 120.63544
    },
    {
      "city": "雲林縣",
      "town": "土庫鎮",
      "name": "土庫",
      "temp": 27.8,
      "at": 33.96617000745618,
      "lat": 23.680772,
      "lon": 120.387436
    },
    {
      "city": "高雄市",
      "town": "茄萣區",
      "name": "茄萣",
      "temp": 28.2,
      "at": 34.83514190287864,
      "lat": 22.908444,
      "lon": 120.174583
    },
    {
      "city": "宜蘭縣",
      "town": "員山鄉",
      "name": "雙連埤",
      "temp": 23.0,
      "at": 28.060021269750024,
      "lat": 24.754722,
      "lon": 121.633056
    },
    {
      "city": "屏東縣",
      "town": "車城鄉",
      "name": "車城",
      "temp": 27.2,
      "at": 32.41933497887405,
      "lat": 22.075833,
      "lon": 120.708056
    },
    {
      "city": "新北市",
      "town": "五股區",
      "name": "五股",
      "temp": 26.8,
      "at": 32.32262087044063,
      "lat": 25.076228,
      "lon": 121.419053
    },
    {
      "city": "澎湖縣",
      "town": "七美鄉",
      "name": "七美",
      "temp": 26.2,
      "at": 31.43040522153006,
      "lat": 23.221053,
      "lon": 119.436809
    },
    {
      "city": "臺中市",
      "town": "南屯區",
      "name": "南屯",
      "temp": 27.5,
      "at": 33.36428351434202,
      "lat": 24.138861,
      "lon": 120.630111
    },
    {
      "city": "臺北市",
      "town": "北投區",
      "name": "石牌",
      "temp": 29.8,
      "at": 34.47697854691505,
      "lat": 25.117336,
      "lon": 121.504825
    },
    {
      "city": "屏東縣",
      "town": "琉球鄉",
      "name": "琉球嶼",
      "temp": 27.7,
      "at": 33.540765178901744,
      "lat": 22.334025,
      "lon": 120.354194
    },
    {
      "city": "臺中市",
      "town": "和平區",
      "name": "雪山橋",
      "temp": 17.9,
      "at": 18.741855273919725,
      "lat": 24.2336,
      "lon": 120.9704
    },
    {
      "city": "高雄市",
      "town": "前鎮區",
      "name": "前鎮",
      "temp": 28.7,
      "at": 34.176846875529606,
      "lat": 22.573925,
      "lon": 120.303144
    },
    {
      "city": "花蓮縣",
      "town": "壽豐鄉",
      "name": "鹽寮",
      "temp": 27.8,
      "at": 32.197481654251845,
      "lat": 23.847418,
      "lon": 121.584524
    },
    {
      "city": "臺南市",
      "town": "麻豆區",
      "name": "麻豆",
      "temp": 29.4,
      "at": 37.12955713334211,
      "lat": 23.185056,
      "lon": 120.2405
    },
    {
      "city": "南投縣",
      "town": "信義鄉",
      "name": "信義",
      "temp": 22.0,
      "at": 26.527008018002398,
      "lat": 23.691389,
      "lon": 120.842778
    },
    {
      "city": "臺東縣",
      "town": "卑南鄉",
      "name": "檳榔四格山",
      "temp": 23.5,
      "at": 28.372547454958855,
      "lat": 22.811789,
      "lon": 121.101247
    },
    {
      "city": "金門縣",
      "town": "烈嶼鄉",
      "name": "九宮",
      "temp": 26.2,
      "at": 32.77420322619385,
      "lat": 24.425386,
      "lon": 118.232031
    },
    {
      "city": "宜蘭縣",
      "town": "頭城鎮",
      "name": "石城",
      "temp": 28.0,
      "at": 34.4044663234056,
      "lat": 24.982247,
      "lon": 121.942992
    },
    {
      "city": "苗栗縣",
      "town": "通霄鎮",
      "name": "白沙屯",
      "temp": 28.7,
      "at": 34.74016841579013,
      "lat": 24.551198,
      "lon": 120.688617
    },
    {
      "city": "桃園市",
      "town": "觀音區",
      "name": "新興坑尾",
      "temp": 27.2,
      "at": 31.55200160588914,
      "lat": 25.007827,
      "lon": 121.088851
    },
    {
      "city": "花蓮縣",
      "town": "卓溪鄉",
      "name": "卓溪",
      "temp": 24.6,
      "at": 28.365714924303163,
      "lat": 23.346133,
      "lon": 121.294748
    },
    {
      "city": "彰化縣",
      "town": "二水鄉",
      "name": "二水",
      "temp": 27.4,
      "at": 33.66553459595471,
      "lat": 23.812778,
      "lon": 120.609028
    },
    {
      "city": "臺東縣",
      "town": "達仁鄉",
      "name": "達仁林場",
      "temp": 23.6,
      "at": 28.363598650568306,
      "lat": 22.266147,
      "lon": 120.815942
    },
    {
      "city": "新北市",
      "town": "樹林區",
      "name": "山佳",
      "temp": 27.4,
      "at": 33.51534803654051,
      "lat": 24.976719,
      "lon": 121.393789
    },
    {
      "city": "新北市",
      "town": "貢寮區",
      "name": "三貂角",
      "temp": 26.5,
      "at": 28.92762692790594,
      "lat": 25.009444,
      "lon": 121.993889
    },
    {
      "city": "高雄市",
      "town": "桃源區",
      "name": "天池",
      "temp": 17.0,
      "at": 15.656479355030697,
      "lat": 23.27956,
      "lon": 120.90759
    },
    {
      "city": "嘉義縣",
      "town": "鹿草鄉",
      "name": "鹿草",
      "temp": 27.8,
      "at": 33.75458553651707,
      "lat": 23.413075,
      "lon": 120.300231
    },
    {
      "city": "澎湖縣",
      "town": "湖西鄉",
      "name": "湖西",
      "temp": 26.8,
      "at": 31.716702860769068,
      "lat": 23.598035,
      "lon": 119.664639
    },
    {
      "city": "嘉義縣",
      "town": "義竹鄉",
      "name": "東後寮",
      "temp": 26.8,
      "at": 34.04404693814156,
      "lat": 23.371644,
      "lon": 120.239936
    },
    {
      "city": "嘉義縣",
      "town": "水上鄉",
      "name": "水上",
      "temp": 26.3,
      "at": 31.575304729179514,
      "lat": 23.421475,
      "lon": 120.380792
    },
    {
      "city": "宜蘭縣",
      "town": "南澳鄉",
      "name": "西帽山",
      "temp": 21.9,
      "at": 24.715798675041473,
      "lat": 24.557164,
      "lon": 121.794436
    },
    {
      "city": "臺東縣",
      "town": "海端鄉",
      "name": "龍泉苗圃",
      "temp": 23.3,
      "at": 27.444117114606197,
      "lat": 23.1684,
      "lon": 121.17201
    },
    {
      "city": "臺中市",
      "town": "龍井區",
      "name": "龍井",
      "temp": 28.4,
      "at": 34.54226395308811,
      "lat": 24.186278,
      "lon": 120.520833
    },
    {
      "city": "高雄市",
      "town": "燕巢區",
      "name": "阿公店",
      "temp": 27.1,
      "at": 34.543502207958554,
      "lat": 22.805944,
      "lon": 120.347444
    },
    {
      "city": "臺南市",
      "town": "柳營區",
      "name": "柳營",
      "temp": 25.6,
      "at": 31.402185019022554,
      "lat": 23.255089,
      "lon": 120.367158
    },
    {
      "city": "花蓮縣",
      "town": "萬榮鄉",
      "name": "虎頭山",
      "temp": 19.9,
      "at": 21.39062396408349,
      "lat": 23.53029,
      "lon": 121.331805
    },
    {
      "city": "高雄市",
      "town": "新興區",
      "name": "新興",
      "temp": 29.0,
      "at": 34.90177298583207,
      "lat": 22.629111,
      "lon": 120.290583
    },
    {
      "city": "臺中市",
      "town": "大里區",
      "name": "大里",
      "temp": 27.8,
      "at": 34.369066125190955,
      "lat": 24.094389,
      "lon": 120.692194
    },
    {
      "city": "桃園市",
      "town": "大園區",
      "name": "竹圍",
      "temp": 28.8,
      "at": 33.447786354829894,
      "lat": 25.114458,
      "lon": 121.231594
    },
    {
      "city": "屏東縣",
      "town": "萬巒鄉",
      "name": "赤山",
      "temp": 26.3,
      "at": 32.89578697728674,
      "lat": 22.594139,
      "lon": 120.60625
    },
    {
      "city": "南投縣",
      "town": "埔里鎮",
      "name": "埔里",
      "temp": 23.7,
      "at": 28.291639266780507,
      "lat": 23.973944,
      "lon": 120.944278
    },
    {
      "city": "新竹縣",
      "town": "新豐鄉",
      "name": "外湖",
      "temp": 27.1,
      "at": 32.75970821142589,
      "lat": 24.919492,
      "lon": 120.960497
    },
    {
      "city": "苗栗縣",
      "town": "通霄鎮",
      "name": "通霄漁港",
      "temp": 28.3,
      "at": 34.66378625398016,
      "lat": 24.500339,
      "lon": 120.665694
    },
    {
      "city": "宜蘭縣",
      "town": "冬山鄉",
      "name": "冬山",
      "temp": 26.4,
      "at": 31.84702165062658,
      "lat": 24.635528,
      "lon": 121.7855
    },
    {
      "city": "嘉義縣",
      "town": "阿里山鄉",
      "name": "達邦",
      "temp": 20.4,
      "at": 23.36886013776102,
      "lat": 23.455769,
      "lon": 120.741403
    },
    {
      "city": "基隆市",
      "town": "七堵區",
      "name": "七堵",
      "temp": 30.1,
      "at": 36.558966611293826,
      "lat": 25.096608,
      "lon": 121.708897
    },
    {
      "city": "新竹縣",
      "town": "關西鎮",
      "name": "關西",
      "temp": 24.2,
      "at": 29.24911298521402,
      "lat": 24.799421,
      "lon": 121.165033
    },
    {
      "city": "臺東縣",
      "town": "長濱鄉",
      "name": "長濱漁港",
      "temp": 28.0,
      "at": 33.02111837577861,
      "lat": 23.315454,
      "lon": 121.451891
    },
    {
      "city": "屏東縣",
      "town": "枋山鄉",
      "name": "加祿堂",
      "temp": 27.4,
      "at": 32.3749749177121,
      "lat": 22.338096,
      "lon": 120.613688
    },
    {
      "city": "桃園市",
      "town": "龍潭區",
      "name": "龍潭",
      "temp": 25.4,
      "at": 30.472009120463746,
      "lat": 24.871833,
      "lon": 121.213194
    },
    {
      "city": "臺南市",
      "town": "鹽水區",
      "name": "鹽水",
      "temp": 27.8,
      "at": 34.159066125190954,
      "lat": 23.274339,
      "lon": 120.239506
    },
    {
      "city": "南投縣",
      "town": "集集鎮",
      "name": "集集",
      "temp": 25.5,
      "at": 29.683312627930547,
      "lat": 23.829972,
      "lon": 120.793328
    },
    {
      "city": "彰化縣",
      "town": "和美鎮",
      "name": "和美",
      "temp": 28.1,
      "at": 33.42994806913526,
      "lat": 24.106919,
      "lon": 120.483978
    },
    {
      "city": "宜蘭縣",
      "town": "五結鄉",
      "name": "五結",
      "temp": 26.8,
      "at": 32.39486684142594,
      "lat": 24.688722,
      "lon": 121.790222
    },
    {
      "city": "嘉義縣",
      "town": "大埔鄉",
      "name": "表湖",
      "temp": 22.5,
      "at": 26.18090599727749,
      "lat": 23.243628,
      "lon": 120.633564
    },
    {
      "city": "嘉義縣",
      "town": "阿里山鄉",
      "name": "茶山",
      "temp": 23.0,
      "at": 27.87512287648982,
      "lat": 23.300847,
      "lon": 120.656664
    },
    {
      "city": "花蓮縣",
      "town": "富里鄉",
      "name": "東里",
      "temp": 25.6,
      "at": 31.14817911416013,
      "lat": 23.270336,
      "lon": 121.297364
    },
    {
      "city": "嘉義縣",
      "town": "中埔鄉",
      "name": "中埔",
      "temp": 26.6,
      "at": 31.020602769757858,
      "lat": 23.427144,
      "lon": 120.514797
    },
    {
      "city": "花蓮縣",
      "town": "秀林鄉",
      "name": "天祥",
      "temp": 22.0,
      "at": 25.65690515902256,
      "lat": 24.181389,
      "lon": 121.4875
    },
    {
      "city": "臺南市",
      "town": "白河區",
      "name": "關子嶺",
      "temp": 23.3,
      "at": 28.175494059447807,
      "lat": 23.332933,
      "lon": 120.499931
    },
    {
      "city": "宜蘭縣",
      "town": "礁溪鄉",
      "name": "大礁溪",
      "temp": 23.3,
      "at": 28.47963175393197,
      "lat": 24.792836,
      "lon": 121.666839
    },
    {
      "city": "屏東縣",
      "town": "牡丹鄉",
      "name": "牡丹",
      "temp": 25.7,
      "at": 31.12567059020794,
      "lat": 22.131817,
      "lon": 120.784589
    },
    {
      "city": "南投縣",
      "town": "仁愛鄉",
      "name": "昆陽",
      "temp": 10.4,
      "at": 9.350247519408677,
      "lat": 24.123139,
      "lon": 121.265361
    },
    {
      "city": "屏東縣",
      "town": "瑪家鄉",
      "name": "瑪家",
      "temp": 22.7,
      "at": 27.052422239144498,
      "lat": 22.684722,
      "lon": 120.678889
    },
    {
      "city": "南投縣",
      "town": "國姓鄉",
      "name": "國姓",
      "temp": 24.3,
      "at": 29.796390040360038,
      "lat": 24.039567,
      "lon": 120.846925
    },
    {
      "city": "臺南市",
      "town": "安南區",
      "name": "四草",
      "temp": 28.6,
      "at": 33.63913306957459,
      "lat": 23.025295,
      "lon": 120.103558
    },
    {
      "city": "臺東縣",
      "town": "長濱鄉",
      "name": "長濱",
      "temp": 26.2,
      "at": 30.466223179555946,
      "lat": 23.288611,
      "lon": 121.403889
    },
    {
      "city": "高雄市",
      "town": "大樹區",
      "name": "溪埔",
      "temp": 25.9,
      "at": 32.503608150181606,
      "lat": 22.740278,
      "lon": 120.438611
    },
    {
      "city": "雲林縣",
      "town": "二崙鄉",
      "name": "二崙",
      "temp": 26.9,
      "at": 33.62719321099852,
      "lat": 23.77455,
      "lon": 120.400811
    },
    {
      "city": "桃園市",
      "town": "蘆竹區",
      "name": "蘆竹",
      "temp": 28.4,
      "at": 33.594214415441066,
      "lat": 25.086111,
      "lon": 121.2575
    },
    {
      "city": "宜蘭縣",
      "town": "大同鄉",
      "name": "翠峰林道6K",
      "temp": 14.9,
      "at": 14.857567707004463,
      "lat": 24.4995,
      "lon": 121.5604
    },
    {
      "city": "基隆市",
      "town": "安樂區",
      "name": "大武崙",
      "temp": 26.9,
      "at": 31.87759365375949,
      "lat": 25.168464,
      "lon": 121.698758
    },
    {
      "city": "新竹市",
      "town": "香山區",
      "name": "香山濕地",
      "temp": 26.9,
      "at": 32.623793137205034,
      "lat": 24.785386,
      "lon": 120.906781
    },
    {
      "city": "宜蘭縣",
      "town": "大同鄉",
      "name": "土場",
      "temp": 23.2,
      "at": 27.22504250000345,
      "lat": 24.578356,
      "lon": 121.487153
    },
    {
      "city": "桃園市",
      "town": "復興區",
      "name": "復興",
      "temp": 24.1,
      "at": 27.367946878991358,
      "lat": 24.822,
      "lon": 121.344094
    },
    {
      "city": "臺東縣",
      "town": "池上鄉",
      "name": "池上",
      "temp": 25.0,
      "at": 29.750139868615513,
      "lat": 23.121389,
      "lon": 121.201667
    },
    {
      "city": "屏東縣",
      "town": "萬丹鄉",
      "name": "萬丹",
      "temp": 27.6,
      "at": 33.06658822170444,
      "lat": 22.590256,
      "lon": 120.477031
    },
    {
      "city": "桃園市",
      "town": "復興區",
      "name": "四稜",
      "temp": 19.8,
      "at": 21.907772171486997,
      "lat": 24.6796,
      "lon": 121.4211
    },
    {
      "city": "屏東縣",
      "town": "牡丹鄉",
      "name": "牡丹池山",
      "temp": 23.2,
      "at": 23.562901978025614,
      "lat": 22.170192,
      "lon": 120.8332
    },
    {
      "city": "屏東縣",
      "town": "滿州鄉",
      "name": "滿州",
      "temp": 27.8,
      "at": 29.41617000745618,
      "lat": 22.026208,
      "lon": 120.831875
    },
    {
      "city": "臺中市",
      "town": "和平區",
      "name": "小雪山林道",
      "temp": 12.8,
      "at": 9.426683592987601,
      "lat": 24.2968,
      "lon": 121.0283
    },
    {
      "city": "宜蘭縣",
      "town": "大同鄉",
      "name": "太平山中間站",
      "temp": 21.1,
      "at": 24.302075315778968,
      "lat": 24.5437,
      "lon": 121.5052
    },
    {
      "city": "嘉義縣",
      "town": "朴子市",
      "name": "朴子",
      "temp": 27.1,
      "at": 32.733759712292716,
      "lat": 23.436364,
      "lon": 120.230928
    },
    {
      "city": "屏東縣",
      "town": "竹田鄉",
      "name": "竹田",
      "temp": 28.0,
      "at": 35.2444663234056,
      "lat": 22.586642,
      "lon": 120.535392
    },
    {
      "city": "嘉義縣",
      "town": "民雄鄉",
      "name": "民雄",
      "temp": 26.8,
      "at": 32.60486684142594,
      "lat": 23.553497,
      "lon": 120.420331
    },
    {
      "city": "彰化縣",
      "town": "大城鄉",
      "name": "大城",
      "temp": 28.1,
      "at": 34.144888453844466,
      "lat": 23.854225,
      "lon": 120.312789
    },
    {
      "city": "宜蘭縣",
      "town": "南澳鄉",
      "name": "西德山",
      "temp": 21.5,
      "at": 22.55738018923951,
      "lat": 24.562447,
      "lon": 121.744417
    },
    {
      "city": "桃園市",
      "town": "八德區",
      "name": "八德",
      "temp": 26.1,
      "at": 31.275494490362206,
      "lat": 24.930528,
      "lon": 121.275
    },
    {
      "city": "花蓮縣",
      "town": "光復鄉",
      "name": "光復",
      "temp": 23.8,
      "at": 29.307147868979648,
      "lat": 23.662497,
      "lon": 121.416839
    },
    {
      "city": "苗栗縣",
      "town": "後龍鎮",
      "name": "高鐵苗栗",
      "temp": 25.9,
      "at": 32.433608150181605,
      "lat": 24.609,
      "lon": 120.817906
    },
    {
      "city": "新北市",
      "town": "坪林區",
      "name": "坪林",
      "temp": 25.1,
      "at": 29.801236417902423,
      "lat": 24.939975,
      "lon": 121.701531
    },
    {
      "city": "彰化縣",
      "town": "社頭鄉",
      "name": "社頭",
      "temp": 28.1,
      "at": 34.95030576087997,
      "lat": 23.899417,
      "lon": 120.578083
    },
    {
      "city": "屏東縣",
      "town": "麟洛鄉",
      "name": "麟洛",
      "temp": 27.8,
      "at": 34.30065059613007,
      "lat": 22.652556,
      "lon": 120.519139
    },
    {
      "city": "南投縣",
      "town": "仁愛鄉",
      "name": "梅峰",
      "temp": 13.5,
      "at": 13.704993792855845,
      "lat": 24.087056,
      "lon": 121.165414
    },
    {
      "city": "臺東縣",
      "town": "太麻里鄉",
      "name": "大溪山",
      "temp": 24.8,
      "at": 29.653142561951164,
      "lat": 22.48,
      "lon": 120.935278
    },
    {
      "city": "臺北市",
      "town": "松山區",
      "name": "松山",
      "temp": 28.7,
      "at": 32.920442969235474,
      "lat": 25.050492,
      "lon": 121.542203
    },
    {
      "city": "雲林縣",
      "town": "斗六市",
      "name": "斗六",
      "temp": 26.5,
      "at": 31.717017133444322,
      "lat": 23.722303,
      "lon": 120.532972
    },
    {
      "city": "雲林縣",
      "town": "北港鎮",
      "name": "北港",
      "temp": 28.1,
      "at": 34.435126915007615,
      "lat": 23.575803,
      "lon": 120.283672
    },
    {
      "city": "雲林縣",
      "town": "莿桐鄉",
      "name": "莿桐",
      "temp": 26.9,
      "at": 32.647593653759486,
      "lat": 23.762947,
      "lon": 120.494247
    },
    {
      "city": "臺東縣",
      "town": "綠島鄉",
      "name": "牛頭山",
      "temp": 28.6,
      "at": 32.787872232944274,
      "lat": 22.678485,
      "lon": 121.498883
    },
    {
      "city": "苗栗縣",
      "town": "後龍鎮",
      "name": "海埔",
      "temp": 28.4,
      "at": 33.670313490735154,
      "lat": 24.650519,
      "lon": 120.764242
    },
    {
      "city": "臺南市",
      "town": "安定區",
      "name": "安定",
      "temp": 28.2,
      "at": 35.52093001414694,
      "lat": 23.104417,
      "lon": 120.219972
    },
    {
      "city": "臺南市",
      "town": "仁德區",
      "name": "仁德",
      "temp": 28.7,
      "at": 35.506846875529604,
      "lat": 22.970111,
      "lon": 120.249778
    },
    {
      "city": "澎湖縣",
      "town": "西嶼鄉",
      "name": "西嶼",
      "temp": 26.4,
      "at": 30.829921500092944,
      "lat": 23.564311,
      "lon": 119.460328
    },
    {
      "city": "新北市",
      "town": "萬里區",
      "name": "大坪",
      "temp": 24.0,
      "at": 27.758249722658565,
      "lat": 25.167694,
      "lon": 121.62475
    },
    {
      "city": "臺中市",
      "town": "和平區",
      "name": "桃山",
      "temp": 9.3,
      "at": 4.823260460479414,
      "lat": 24.434519,
      "lon": 121.295628
    },
    {
      "city": "花蓮縣",
      "town": "玉里鎮",
      "name": "玉里",
      "temp": 24.6,
      "at": 28.887484412079324,
      "lat": 23.323306,
      "lon": 121.331556
    },
    {
      "city": "連江縣",
      "town": "莒光鄉",
      "name": "東莒",
      "temp": 26.6,
      "at": 31.612765426158383,
      "lat": 25.966883,
      "lon": 119.9724
    },
    {
      "city": "臺中市",
      "town": "和平區",
      "name": "大雪山",
      "temp": 17.1,
      "at": 16.141581862721974,
      "lat": 24.2562,
      "lon": 120.9991
    },
    {
      "city": "苗栗縣",
      "town": "泰安鄉",
      "name": "雪見",
      "temp": 17.0,
      "at": 17.035224323992068,
      "lat": 24.4277,
      "lon": 121.0052
    },
    {
      "city": "新竹縣",
      "town": "五峰鄉",
      "name": "樂山林道6k",
      "temp": 16.1,
      "at": 16.943353979900493,
      "lat": 24.5017,
      "lon": 121.0795
    },
    {
      "city": "屏東縣",
      "town": "春日鄉",
      "name": "大漢山",
      "temp": 16.5,
      "at": 15.135287158767706,
      "lat": 22.405861,
      "lon": 120.745083
    },
    {
      "city": "花蓮縣",
      "town": "瑞穗鄉",
      "name": "舞鶴",
      "temp": 24.0,
      "at": 28.19279746611896,
      "lat": 23.469722,
      "lon": 121.365833
    },
    {
      "city": "臺中市",
      "town": "和平區",
      "name": "小雪山天池",
      "temp": 13.4,
      "at": 11.65620777130768,
      "lat": 24.2825,
      "lon": 121.0182
    },
    {
      "city": "屏東縣",
      "town": "滿州鄉",
      "name": "興海",
      "temp": 28.7,
      "at": 28.70992924156321,
      "lat": 21.976985,
      "lon": 120.835907
    },
    {
      "city": "花蓮縣",
      "town": "卓溪鄉",
      "name": "佳心",
      "temp": 21.5,
      "at": 23.704188536483578,
      "lat": 23.347464,
      "lon": 121.205061
    },
    {
      "city": "屏東縣",
      "town": "牡丹鄉",
      "name": "旭海",
      "temp": 26.3,
      "at": 27.33274444816611,
      "lat": 22.207208,
      "lon": 120.879586
    },
    {
      "city": "宜蘭縣",
      "town": "頭城鎮",
      "name": "桃源谷",
      "temp": 24.3,
      "at": 26.166200042484252,
      "lat": 24.964408,
      "lon": 121.880658
    },
    {
      "city": "臺東縣",
      "town": "東河鄉",
      "name": "興隆",
      "temp": 28.3,
      "at": 33.05946148052922,
      "lat": 22.915469,
      "lon": 121.249394
    },
    {
      "city": "基隆市",
      "town": "中正區",
      "name": "基隆嶼",
      "temp": 27.8,
      "at": 31.917481654251844,
      "lat": 25.1932,
      "lon": 121.775678
    },
    {
      "city": "苗栗縣",
      "town": "造橋鄉",
      "name": "造橋",
      "temp": 25.1,
      "at": 30.9551538889734,
      "lat": 24.63875,
      "lon": 120.856583
    },
    {
      "city": "高雄市",
      "town": "仁武區",
      "name": "仁武",
      "temp": 29.0,
      "at": 36.594024972262005,
      "lat": 22.702861,
      "lon": 120.339667
    },
    {
      "city": "花蓮縣",
      "town": "花蓮市",
      "name": "花蓮漁港",
      "temp": 27.3,
      "at": 32.09965017170047,
      "lat": 23.997128,
      "lon": 121.63018
    },
    {
      "city": "屏東縣",
      "town": "新園鄉",
      "name": "新園",
      "temp": 29.1,
      "at": 35.523568379272746,
      "lat": 22.545194,
      "lon": 120.4535
    },
    {
      "city": "屏東縣",
      "town": "南州鄉",
      "name": "南州",
      "temp": 27.8,
      "at": 33.86354671386486,
      "lat": 22.487694,
      "lon": 120.494694
    },
    {
      "city": "花蓮縣",
      "town": "豐濱鄉",
      "name": "加路蘭山",
      "temp": 22.4,
      "at": 25.215134746459178,
      "lat": 23.684706,
      "lon": 121.519219
    },
    {
      "city": "屏東縣",
      "town": "牡丹鄉",
      "name": "四林格山",
      "temp": 23.7,
      "at": 23.11308615954403,
      "lat": 22.078792,
      "lon": 120.794419
    },
    {
      "city": "新北市",
      "town": "板橋區",
      "name": "板橋",
      "temp": 28.8,
      "at": 31.4470749006367,
      "lat": 25.012431,
      "lon": 121.440638
    },
    {
      "city": "嘉義縣",
      "town": "東石鄉",
      "name": "東石",
      "temp": 28.7,
      "at": 34.316846875529606,
      "lat": 23.460653,
      "lon": 120.145722
    },
    {
      "city": "新竹縣",
      "town": "湖口鄉",
      "name": "湖口",
      "temp": 27.5,
      "at": 32.791987674544096,
      "lat": 24.906556,
      "lon": 121.035417
    },
    {
      "city": "南投縣",
      "town": "仁愛鄉",
      "name": "奇萊稜線",
      "temp": 7.9,
      "at": 3.628726637109903,
      "lat": 24.111019,
      "lon": 121.318297
    },
    {
      "city": "新北市",
      "town": "三芝區",
      "name": "田寮",
      "temp": 27.6,
      "at": 31.600700397439113,
      "lat": 25.271575,
      "lon": 121.480355
    },
    {
      "city": "宜蘭縣",
      "town": "頭城鎮",
      "name": "龜山島",
      "temp": 24.5,
      "at": 28.376385041886216,
      "lat": 24.843392,
      "lon": 121.944947
    },
    {
      "city": "宜蘭縣",
      "town": "頭城鎮",
      "name": "鶯子嶺",
      "temp": 21.3,
      "at": 17.51713485112112,
      "lat": 24.899333,
      "lon": 121.784231
    },
    {
      "city": "花蓮縣",
      "town": "富里鄉",
      "name": "明里",
      "temp": 24.8,
      "at": 28.381084100266015,
      "lat": 23.210556,
      "lon": 121.254167
    },
    {
      "city": "花蓮縣",
      "town": "鳳林鎮",
      "name": "鳳林",
      "temp": 25.2,
      "at": 30.237784524185116,
      "lat": 23.747917,
      "lon": 121.445278
    },
    {
      "city": "南投縣",
      "town": "信義鄉",
      "name": "神木村",
      "temp": 16.8,
      "at": 18.7215228557436,
      "lat": 23.534519,
      "lon": 120.835553
    },
    {
      "city": "花蓮縣",
      "town": "萬榮鄉",
      "name": "光復林道16K",
      "temp": 20.2,
      "at": 22.73085823374174,
      "lat": 23.66881,
      "lon": 121.36136
    },
    {
      "city": "臺中市",
      "town": "和平區",
      "name": "八仙山苗圃",
      "temp": 20.1,
      "at": 22.255118838644947,
      "lat": 24.1944,
      "lon": 120.9932
    },
    {
      "city": "苗栗縣",
      "town": "泰安鄉",
      "name": "松安",
      "temp": 19.5,
      "at": 22.23870653299494,
      "lat": 24.3996,
      "lon": 120.9778
    },
    {
      "city": "苗栗縣",
      "town": "竹南鎮",
      "name": "龍鳳",
      "temp": 27.6,
      "at": 33.62247604596976,
      "lat": 24.701789,
      "lon": 120.850928
    },
    {
      "city": "臺東縣",
      "town": "太麻里鄉",
      "name": "太麻里",
      "temp": 24.0,
      "at": 27.88370197919816,
      "lat": 22.610825,
      "lon": 120.977275
    },
    {
      "city": "新竹市",
      "town": "東區",
      "name": "新竹市東區",
      "temp": 26.9,
      "at": 31.900993727552986,
      "lat": 24.800436,
      "lon": 120.978742
    },
    {
      "city": "臺中市",
      "town": "和平區",
      "name": "中坑",
      "temp": 23.3,
      "at": 27.960667892542844,
      "lat": 24.250283,
      "lon": 120.895153
    },
    {
      "city": "屏東縣",
      "town": "內埔鄉",
      "name": "三地門",
      "temp": 26.0,
      "at": 29.95927392548758,
      "lat": 22.711667,
      "lon": 120.631889
    },
    {
      "city": "花蓮縣",
      "town": "秀林鄉",
      "name": "崇德",
      "temp": 27.1,
      "at": 31.671991466193475,
      "lat": 24.167948,
      "lon": 121.649251
    },
    {
      "city": "臺中市",
      "town": "潭子區",
      "name": "潭子",
      "temp": 28.5,
      "at": 34.98365211499925,
      "lat": 24.21475,
      "lon": 120.695833
    },
    {
      "city": "屏東縣",
      "town": "鹽埔鄉",
      "name": "鹽埔",
      "temp": 26.9,
      "at": 33.48679276823755,
      "lat": 22.741342,
      "lon": 120.522697
    },
    {
      "city": "新北市",
      "town": "林口區",
      "name": "林口",
      "temp": 26.8,
      "at": 30.784866841425938,
      "lat": 25.073953,
      "lon": 121.372611
    },
    {
      "city": "新北市",
      "town": "八里區",
      "name": "硬漢嶺",
      "temp": 23.0,
      "at": 27.10512287648982,
      "lat": 25.137872,
      "lon": 121.41814
    },
    {
      "city": "新北市",
      "town": "萬里區",
      "name": "野柳",
      "temp": 27.8,
      "at": 29.92010494784317,
      "lat": 25.208817,
      "lon": 121.681783
    },
    {
      "city": "苗栗縣",
      "town": "泰安鄉",
      "name": "觀霧分站",
      "temp": 15.7,
      "at": 16.8710829390227,
      "lat": 24.5075,
      "lon": 121.1057
    },
    {
      "city": "彰化縣",
      "town": "二林鎮",
      "name": "二林",
      "temp": 27.3,
      "at": 34.40881539852209,
      "lat": 23.905067,
      "lon": 120.367928
    },
    {
      "city": "新北市",
      "town": "烏來區",
      "name": "桶後",
      "temp": 24.0,
      "at": 29.019162628425896,
      "lat": 24.850056,
      "lon": 121.589639
    },
    {
      "city": "高雄市",
      "town": "甲仙區",
      "name": "小林",
      "temp": 23.1,
      "at": 27.934888602946543,
      "lat": 23.150164,
      "lon": 120.625189
    },
    {
      "city": "臺中市",
      "town": "新社區",
      "name": "新社",
      "temp": 23.8,
      "at": 26.67300731359439,
      "lat": 24.201583,
      "lon": 120.8075
    },
    {
      "city": "嘉義縣",
      "town": "番路鄉",
      "name": "番路",
      "temp": 25.7,
      "at": 30.196023531085523,
      "lat": 23.466408,
      "lon": 120.546028
    },
    {
      "city": "屏東縣",
      "town": "恆春鎮",
      "name": "貓鼻頭",
      "temp": 27.6,
      "at": 32.29658822170444,
      "lat": 21.923578,
      "lon": 120.727792
    },
    {
      "city": "彰化縣",
      "town": "永靖鄉",
      "name": "永靖",
      "temp": 27.7,
      "at": 34.207671797669015,
      "lat": 23.926458,
      "lon": 120.539392
    },
    {
      "city": "彰化縣",
      "town": "大城鄉",
      "name": "三豐",
      "temp": 28.0,
      "at": 33.0514619391175,
      "lat": 23.883719,
      "lon": 120.281409
    },
    {
      "city": "彰化縣",
      "town": "員林市",
      "name": "員林",
      "temp": 27.5,
      "at": 34.1273446340726,
      "lat": 23.948333,
      "lon": 120.577528
    },
    {
      "city": "臺南市",
      "town": "北區",
      "name": "臺南市北區",
      "temp": 29.2,
      "at": 35.358852484944435,
      "lat": 23.012167,
      "lon": 120.186333
    },
    {
      "city": "雲林縣",
      "town": "東勢鄉",
      "name": "雲林東勢",
      "temp": 28.4,
      "at": 35.013057298529276,
      "lat": 23.675939,
      "lon": 120.2476
    },
    {
      "city": "花蓮縣",
      "town": "秀林鄉",
      "name": "加灣",
      "temp": 26.9,
      "at": 31.41139417031394,
      "lat": 24.083828,
      "lon": 121.600788
    },
    {
      "city": "臺中市",
      "town": "大甲區",
      "name": "大甲溪埔",
      "temp": 26.6,
      "at": 31.822554913913613,
      "lat": 24.372375,
      "lon": 120.611895
    },
    {
      "city": "臺東縣",
      "town": "太麻里鄉",
      "name": "香蘭",
      "temp": 27.9,
      "at": 31.981022556822573,
      "lat": 22.589372,
      "lon": 120.985322
    },
    {
      "city": "新北市",
      "town": "三峽區",
      "name": "三峽",
      "temp": 27.0,
      "at": 32.64382410120121,
      "lat": 24.940806,
      "lon": 121.3615
    },
    {
      "city": "新北市",
      "town": "中和區",
      "name": "中和",
      "temp": 29.0,
      "at": 34.84827241828066,
      "lat": 24.993403,
      "lon": 121.483569
    },
    {
      "city": "南投縣",
      "town": "草屯鎮",
      "name": "草屯",
      "temp": 27.1,
      "at": 32.26578546272614,
      "lat": 23.975444,
      "lon": 120.672194
    },
    {
      "city": "屏東縣",
      "town": "長治鄉",
      "name": "長治",
      "temp": 27.3,
      "at": 32.893914115311915,
      "lat": 22.694833,
      "lon": 120.534611
    },
    {
      "city": "彰化縣",
      "town": "溪州鄉",
      "name": "溪州",
      "temp": 26.8,
      "at": 32.65303082208282,
      "lat": 23.853347,
      "lon": 120.490944
    },
    {
      "city": "臺北市",
      "town": "文山區",
      "name": "文山",
      "temp": 28.4,
      "at": 33.60049537647048,
      "lat": 25.004083,
      "lon": 121.567528
    },
    {
      "city": "花蓮縣",
      "town": "秀林鄉",
      "name": "綠水",
      "temp": 22.8,
      "at": 26.557768210836706,
      "lat": 24.180212,
      "lon": 121.499787
    },
    {
      "city": "桃園市",
      "town": "復興區",
      "name": "東眼山",
      "temp": 19.9,
      "at": 22.186585457010235,
      "lat": 24.8301,
      "lon": 121.4006
    },
    {
      "city": "彰化縣",
      "town": "伸港鄉",
      "name": "伸港",
      "temp": 28.2,
      "at": 34.06620134653714,
      "lat": 24.150528,
      "lon": 120.476167
    },
    {
      "city": "彰化縣",
      "town": "花壇鄉",
      "name": "花壇",
      "temp": 29.3,
      "at": 37.42842796628363,
      "lat": 24.032075,
      "lon": 120.541314
    },
    {
      "city": "花蓮縣",
      "town": "鳳林鎮",
      "name": "鳳林山",
      "temp": 23.3,
      "at": 28.71376944841613,
      "lat": 23.737072,
      "lon": 121.411994
    },
    {
      "city": "高雄市",
      "town": "左營區",
      "name": "左營",
      "temp": 28.4,
      "at": 34.65677633749988,
      "lat": 22.676689,
      "lon": 120.27685
    },
    {
      "city": "新竹縣",
      "town": "尖石鄉",
      "name": "梅花",
      "temp": 20.9,
      "at": 24.791168343010366,
      "lat": 24.680119,
      "lon": 121.200361
    },
    {
      "city": "新北市",
      "town": "瑞芳區",
      "name": "五分山",
      "temp": 22.8,
      "at": 21.855797861575574,
      "lat": 25.073047,
      "lon": 121.772586
    },
    {
      "city": "高雄市",
      "town": "苓雅區",
      "name": "苓雅",
      "temp": 29.3,
      "at": 35.84818467143288,
      "lat": 22.624528,
      "lon": 120.322583
    },
    {
      "city": "雲林縣",
      "town": "臺西鄉",
      "name": "臺西",
      "temp": 28.1,
      "at": 33.33006729971683,
      "lat": 23.703283,
      "lon": 120.189422
    },
    {
      "city": "花蓮縣",
      "town": "秀林鄉",
      "name": "和仁",
      "temp": 28.3,
      "at": 33.032502077210594,
      "lat": 24.243199,
      "lon": 121.704304
    },
    {
      "city": "雲林縣",
      "town": "古坑鄉",
      "name": "棋山",
      "temp": 24.9,
      "at": 30.742514468003677,
      "lat": 23.688211,
      "lon": 120.595289
    },
    {
      "city": "金門縣",
      "town": "金沙鎮",
      "name": "金沙",
      "temp": 26.7,
      "at": 33.78347785194801,
      "lat": 24.489931,
      "lon": 118.400617
    },
    {
      "city": "臺中市",
      "town": "和平區",
      "name": "鞍馬山工作站",
      "temp": 13.9,
      "at": 13.209200138643222,
      "lat": 24.2681,
      "lon": 120.9926
    },
    {
      "city": "花蓮縣",
      "town": "秀林鄉",
      "name": "清水斷崖",
      "temp": 26.5,
      "at": 31.717017133444322,
      "lat": 24.2201,
      "lon": 121.680972
    },
    {
      "city": "新北市",
      "town": "雙溪區",
      "name": "泰平",
      "temp": 24.7,
      "at": 30.42593708805839,
      "lat": 24.973056,
      "lon": 121.815278
    },
    {
      "city": "雲林縣",
      "town": "虎尾鎮",
      "name": "虎尾",
      "temp": 27.6,
      "at": 33.56070039743911,
      "lat": 23.720939,
      "lon": 120.433911
    },
    {
      "city": "彰化縣",
      "town": "伸港鄉",
      "name": "防潮門",
      "temp": 28.8,
      "at": 35.64063217160267,
      "lat": 24.185242,
      "lon": 120.478972
    },
    {
      "city": "屏東縣",
      "town": "恆春鎮",
      "name": "墾雷",
      "temp": 27.6,
      "at": 32.708363870235075,
      "lat": 21.90265,
      "lon": 120.847244
    },
    {
      "city": "屏東縣",
      "town": "恆春鎮",
      "name": "龍磐",
      "temp": 27.1,
      "at": 28.095656710559055,
      "lat": 21.933481,
      "lon": 120.830933
    },
    {
      "city": "彰化縣",
      "town": "竹塘鄉",
      "name": "竹塘",
      "temp": 27.2,
      "at": 33.481335097828804,
      "lat": 23.85,
      "lon": 120.378628
    },
    {
      "city": "南投縣",
      "town": "仁愛鄉",
      "name": "仁愛",
      "temp": 18.9,
      "at": 19.608299867311295,
      "lat": 24.023903,
      "lon": 121.124056
    },
    {
      "city": "南投縣",
      "town": "信義鄉",
      "name": "鹿林山",
      "temp": 14.9,
      "at": 11.702480024496811,
      "lat": 23.47046,
      "lon": 120.86517
    },
    {
      "city": "宜蘭縣",
      "town": "三星鄉",
      "name": "三星",
      "temp": 25.7,
      "at": 30.140596080184835,
      "lat": 24.669917,
      "lon": 121.644819
    },
    {
      "city": "臺東縣",
      "town": "綠島鄉",
      "name": "綠島",
      "temp": 27.9,
      "at": 29.614386165914183,
      "lat": 22.669025,
      "lon": 121.467267
    },
    {
      "city": "金門縣",
      "town": "金寧鄉",
      "name": "金寧",
      "temp": 26.6,
      "at": 32.69450705806938,
      "lat": 24.459339,
      "lon": 118.320831
    },
    {
      "city": "臺中市",
      "town": "大安區",
      "name": "大安",
      "temp": 27.6,
      "at": 33.76658822170444,
      "lat": 24.347444,
      "lon": 120.579972
    },
    {
      "city": "南投縣",
      "town": "竹山鎮",
      "name": "杉林溪大飯店",
      "temp": 16.7,
      "at": 17.758903259276718,
      "lat": 23.63604,
      "lon": 120.783158
    },
    {
      "city": "新北市",
      "town": "淡水區",
      "name": "六塊厝",
      "temp": 28.0,
      "at": 31.893779196727813,
      "lat": 25.241776,
      "lon": 121.439863
    },
    {
      "city": "臺東縣",
      "town": "達仁鄉",
      "name": "土坂",
      "temp": 25.0,
      "at": 30.797034973887314,
      "lat": 22.454908,
      "lon": 120.879528
    },
    {
      "city": "臺北市",
      "town": "士林區",
      "name": "天母",
      "temp": 29.8,
      "at": 34.47697854691505,
      "lat": 25.119253,
      "lon": 121.528939
    },
    {
      "city": "臺中市",
      "town": "霧峰區",
      "name": "霧峰",
      "temp": 24.8,
      "at": 29.744074356651822,
      "lat": 24.043658,
      "lon": 120.691323
    },
    {
      "city": "高雄市",
      "town": "田寮區",
      "name": "古亭坑",
      "temp": 25.8,
      "at": 31.96374881425777,
      "lat": 22.895,
      "lon": 120.393889
    },
    {
      "city": "花蓮縣",
      "town": "光復鄉",
      "name": "富源",
      "temp": 24.1,
      "at": 29.1746267550025,
      "lat": 23.58975,
      "lon": 121.370389
    },
    {
      "city": "苗栗縣",
      "town": "銅鑼鄉",
      "name": "銅鑼",
      "temp": 26.7,
      "at": 32.606321722687476,
      "lat": 24.491528,
      "lon": 120.782639
    },
    {
      "city": "高雄市",
      "town": "桃源區",
      "name": "復興",
      "temp": 21.0,
      "at": 24.472326764186036,
      "lat": 23.224167,
      "lon": 120.797778
    },
    {
      "city": "臺中市",
      "town": "外埔區",
      "name": "外埔",
      "temp": 28.3,
      "at": 35.56030655232085,
      "lat": 24.349556,
      "lon": 120.697472
    },
    {
      "city": "臺中市",
      "town": "石岡區",
      "name": "石岡",
      "temp": 25.2,
      "at": 30.377784524185117,
      "lat": 24.277822,
      "lon": 120.769478
    },
    {
      "city": "澎湖縣",
      "town": "望安鄉",
      "name": "望安",
      "temp": 26.0,
      "at": 30.796313057700083,
      "lat": 23.382282,
      "lon": 119.485981
    },
    {
      "city": "宜蘭縣",
      "town": "頭城鎮",
      "name": "頭城",
      "temp": 26.5,
      "at": 33.889306111243236,
      "lat": 24.855031,
      "lon": 121.822586
    },
    {
      "city": "臺南市",
      "town": "白河區",
      "name": "白河",
      "temp": 25.9,
      "at": 31.993866406739926,
      "lat": 23.349228,
      "lon": 120.406328
    },
    {
      "city": "雲林縣",
      "town": "水林鄉",
      "name": "水林",
      "temp": 28.1,
      "at": 34.67030576087997,
      "lat": 23.574658,
      "lon": 120.237839
    },
    {
      "city": "高雄市",
      "town": "彌陀區",
      "name": "文安",
      "temp": 29.0,
      "at": 34.93877412093489,
      "lat": 22.804288,
      "lon": 120.208308
    },
    {
      "city": "臺中市",
      "town": "西屯區",
      "name": "西屯",
      "temp": 27.7,
      "at": 33.24676064664175,
      "lat": 24.182028,
      "lon": 120.632861
    },
    {
      "city": "嘉義縣",
      "town": "布袋鎮",
      "name": "布袋",
      "temp": 28.7,
      "at": 34.14890178621867,
      "lat": 23.382611,
      "lon": 120.159667
    },
    {
      "city": "臺南市",
      "town": "西港區",
      "name": "西港",
      "temp": 28.3,
      "at": 35.07030655232085,
      "lat": 23.127417,
      "lon": 120.195083
    },
    {
      "city": "南投縣",
      "town": "南投市",
      "name": "南投",
      "temp": 26.1,
      "at": 31.782870053480693,
      "lat": 23.913208,
      "lon": 120.679183
    },
    {
      "city": "南投縣",
      "town": "魚池鄉",
      "name": "魚池",
      "temp": 21.9,
      "at": 26.461727040306375,
      "lat": 23.897478,
      "lon": 120.933219
    },
    {
      "city": "高雄市",
      "town": "甲仙區",
      "name": "西阿里關山",
      "temp": 21.2,
      "at": 24.33335114942871,
      "lat": 23.18479,
      "lon": 120.63334
    },
    {
      "city": "苗栗縣",
      "town": "苗栗市",
      "name": "苗栗",
      "temp": 26.9,
      "at": 31.62119394893346,
      "lat": 24.566667,
      "lon": 120.816444
    },
    {
      "city": "南投縣",
      "town": "竹山鎮",
      "name": "竹山",
      "temp": 25.2,
      "at": 29.639493406940105,
      "lat": 23.764722,
      "lon": 120.677778
    },
    {
      "city": "新北市",
      "town": "三重區",
      "name": "三重",
      "temp": 29.6,
      "at": 33.85416493828166,
      "lat": 25.059108,
      "lon": 121.4924
    },
    {
      "city": "臺東縣",
      "town": "卑南鄉",
      "name": "富山",
      "temp": 26.2,
      "at": 30.493314200543004,
      "lat": 22.82419,
      "lon": 121.182756
    },
    {
      "city": "苗栗縣",
      "town": "苑裡鎮",
      "name": "苑裡",
      "temp": 27.5,
      "at": 32.96351823440938,
      "lat": 24.441458,
      "lon": 120.644883
    },
    {
      "city": "臺中市",
      "town": "和平區",
      "name": "審馬陣",
      "temp": 11.3,
      "at": 8.402070006585587,
      "lat": 24.383461,
      "lon": 121.412122
    },
    {
      "city": "花蓮縣",
      "town": "秀林鄉",
      "name": "秀林",
      "temp": 21.6,
      "at": 23.66788485746086,
      "lat": 24.304668,
      "lon": 121.722972
    },
    {
      "city": "臺北市",
      "town": "北投區",
      "name": "大屯山",
      "temp": 24.1,
      "at": 23.81726250532181,
      "lat": 25.177333,
      "lon": 121.514167
    },
    {
      "city": "屏東縣",
      "town": "東港鎮",
      "name": "東港",
      "temp": 27.6,
      "at": 32.039228441372785,
      "lat": 22.464244,
      "lon": 120.432703
    },
    {
      "city": "臺南市",
      "town": "山上區",
      "name": "山上",
      "temp": 26.4,
      "at": 31.33024661299317,
      "lat": 23.077444,
      "lon": 120.355194
    },
    {
      "city": "高雄市",
      "town": "林園區",
      "name": "林園",
      "temp": 28.2,
      "at": 34.62514190287864,
      "lat": 22.509583,
      "lon": 120.386556
    },
    {
      "city": "花蓮縣",
      "town": "豐濱鄉",
      "name": "豐濱",
      "temp": 25.1,
      "at": 30.045153888973402,
      "lat": 23.585708,
      "lon": 121.506678
    },
    {
      "city": "屏東縣",
      "town": "滿州鄉",
      "name": "鼻頭",
      "temp": 27.7,
      "at": 28.76421848828538,
      "lat": 22.106107,
      "lon": 120.889862
    },
    {
      "city": "宜蘭縣",
      "town": "壯圍鄉",
      "name": "壯圍",
      "temp": 26.8,
      "at": 32.34445688978376,
      "lat": 24.737723,
      "lon": 121.808046
    },
    {
      "city": "臺南市",
      "town": "歸仁區",
      "name": "媽廟",
      "temp": 27.3,
      "at": 33.861364756917,
      "lat": 22.993514,
      "lon": 120.285431
    },
    {
      "city": "澎湖縣",
      "town": "望安鄉",
      "name": "花嶼",
      "temp": 26.5,
      "at": 33.20594774456865,
      "lat": 23.401778,
      "lon": 119.314667
    },
    {
      "city": "臺東縣",
      "town": "太麻里鄉",
      "name": "金崙",
      "temp": 25.9,
      "at": 30.64457661227531,
      "lat": 22.54,
      "lon": 120.958889
    },
    {
      "city": "南投縣",
      "town": "名間鄉",
      "name": "名間",
      "temp": 24.6,
      "at": 29.778101338736363,
      "lat": 23.838817,
      "lon": 120.693306
    },
    {
      "city": "臺南市",
      "town": "大內區",
      "name": "大內",
      "temp": 26.6,
      "at": 32.675377874024875,
      "lat": 23.120611,
      "lon": 120.35275
    },
    {
      "city": "新北市",
      "town": "瑞芳區",
      "name": "鼻頭角",
      "temp": 28.1,
      "at": 33.8956038373339,
      "lat": 25.130833,
      "lon": 121.915278
    },
    {
      "city": "宜蘭縣",
      "town": "頭城鎮",
      "name": "坪林石牌",
      "temp": 23.6,
      "at": 26.875304745477866,
      "lat": 24.866578,
      "lon": 121.76575
    },
    {
      "city": "臺東縣",
      "town": "臺東市",
      "name": "富岡",
      "temp": 28.4,
      "at": 33.104214415441064,
      "lat": 22.794274,
      "lon": 121.184602
    },
    {
      "city": "宜蘭縣",
      "town": "礁溪鄉",
      "name": "淡江大學蘭陽校園",
      "temp": 24.3,
      "at": 29.956276041634567,
      "lat": 24.825033,
      "lon": 121.722172
    },
    {
      "city": "臺北市",
      "town": "內湖區",
      "name": "內湖",
      "temp": 29.1,
      "at": 33.458392410921945,
      "lat": 25.081206,
      "lon": 121.567222
    },
    {
      "city": "臺南市",
      "town": "將軍區",
      "name": "鯤鯓國小",
      "temp": 28.7,
      "at": 34.106846875529605,
      "lat": 23.189624,
      "lon": 120.080813
    },
    {
      "city": "臺中市",
      "town": "大安區",
      "name": "溫寮",
      "temp": 27.7,
      "at": 33.97985402787447,
      "lat": 24.373925,
      "lon": 120.574953
    },
    {
      "city": "臺東縣",
      "town": "太麻里鄉",
      "name": "歷坵",
      "temp": 22.9,
      "at": 27.59922702384465,
      "lat": 22.522769,
      "lon": 120.883803
    },
    {
      "city": "南投縣",
      "town": "仁愛鄉",
      "name": "合歡山頂",
      "temp": 10.5,
      "at": 4.021949414620677,
      "lat": 24.144778,
      "lon": 121.264083
    },
    {
      "city": "屏東縣",
      "town": "枋寮鄉",
      "name": "下寮",
      "temp": 27.1,
      "at": 32.6417339618593,
      "lat": 22.394648,
      "lon": 120.546743
    },
    {
      "city": "高雄市",
      "town": "小港區",
      "name": "鳳鼻頭",
      "temp": 27.7,
      "at": 33.262036258079924,
      "lat": 22.510051,
      "lon": 120.351098
    },
    {
      "city": "屏東縣",
      "town": "來義鄉",
      "name": "白鷺",
      "temp": 23.9,
      "at": 28.22322288724395,
      "lat": 22.456067,
      "lon": 120.658178
    },
    {
      "city": "嘉義縣",
      "town": "竹崎鄉",
      "name": "竹崎",
      "temp": 24.9,
      "at": 28.928092806193,
      "lat": 23.527931,
      "lon": 120.547378
    },
    {
      "city": "臺中市",
      "town": "大雅區",
      "name": "大雅",
      "temp": 27.3,
      "at": 33.12455145491064,
      "lat": 24.217056,
      "lon": 120.616239
    },
    {
      "city": "臺中市",
      "town": "北屯區",
      "name": "大坑",
      "temp": 27.3,
      "at": 33.08327677571318,
      "lat": 24.174889,
      "lon": 120.714139
    },
    {
      "city": "雲林縣",
      "town": "口湖鄉",
      "name": "宜梧",
      "temp": 28.8,
      "at": 34.82992071740948,
      "lat": 23.538014,
      "lon": 120.1612
    },
    {
      "city": "屏東縣",
      "town": "恆春鎮",
      "name": "山海",
      "temp": 28.2,
      "at": 32.77883701273225,
      "lat": 21.989579,
      "lon": 120.701107
    },
    {
      "city": "臺中市",
      "town": "和平區",
      "name": "出雲山苗圃",
      "temp": 19.4,
      "at": 22.444836482629515,
      "lat": 24.2328,
      "lon": 120.8965
    },
    {
      "city": "屏東縣",
      "town": "枋山鄉",
      "name": "楓港",
      "temp": 28.7,
      "at": 31.783011607596798,
      "lat": 22.191928,
      "lon": 120.684131
    },
    {
      "city": "苗栗縣",
      "town": "三灣鄉",
      "name": "大河",
      "temp": 24.4,
      "at": 29.47220640845201,
      "lat": 24.619833,
      "lon": 120.94055
    },
    {
      "city": "宜蘭縣",
      "town": "南澳鄉",
      "name": "南澳",
      "temp": 25.2,
      "at": 28.909665162610835,
      "lat": 24.451153,
      "lon": 121.802036
    },
    {
      "city": "屏東縣",
      "town": "獅子鄉",
      "name": "丹路",
      "temp": 27.6,
      "at": 30.90892474890847,
      "lat": 22.206281,
      "lon": 120.742964
    },
    {
      "city": "新竹縣",
      "town": "寶山鄉",
      "name": "寶山",
      "temp": 23.9,
      "at": 29.366774651891433,
      "lat": 24.736722,
      "lon": 121.016769
    },
    {
      "city": "高雄市",
      "town": "鳳山區",
      "name": "鳳山",
      "temp": 27.8,
      "at": 35.47513118480397,
      "lat": 22.648611,
      "lon": 120.348056
    },
    {
      "city": "屏東縣",
      "town": "恆春鎮",
      "name": "大坪頂",
      "temp": 26.5,
      "at": 31.701519989018372,
      "lat": 22.026433,
      "lon": 120.685536
    },
    {
      "city": "臺中市",
      "town": "和平區",
      "name": "中橫21.6k",
      "temp": 18.8,
      "at": 16.09925546617036,
      "lat": 24.2516,
      "lon": 121.1373
    },
    {
      "city": "花蓮縣",
      "town": "秀林鄉",
      "name": "和平",
      "temp": 27.1,
      "at": 29.851991466193475,
      "lat": 24.308961,
      "lon": 121.761903
    },
    {
      "city": "宜蘭縣",
      "town": "蘇澳鎮",
      "name": "蘇澳",
      "temp": 26.3,
      "at": 31.31042529120632,
      "lat": 24.59875,
      "lon": 121.848895
    },
    {
      "city": "臺中市",
      "town": "烏日區",
      "name": "烏日",
      "temp": 27.3,
      "at": 32.69646347370682,
      "lat": 24.108833,
      "lon": 120.615917
    },
    {
      "city": "南投縣",
      "town": "仁愛鄉",
      "name": "小奇萊",
      "temp": 10.7,
      "at": 6.473055389116434,
      "lat": 24.13355,
      "lon": 121.287556
    },
    {
      "city": "宜蘭縣",
      "town": "羅東鎮",
      "name": "羅東",
      "temp": 25.7,
      "at": 31.531098041108628,
      "lat": 24.683636,
      "lon": 121.741144
    },
    {
      "city": "屏東縣",
      "town": "牡丹鄉",
      "name": "高士",
      "temp": 24.4,
      "at": 26.803329126913347,
      "lat": 22.123631,
      "lon": 120.828758
    },
    {
      "city": "高雄市",
      "town": "茄萣區",
      "name": "興達",
      "temp": 27.8,
      "at": 34.23065059613007,
      "lat": 22.879517,
      "lon": 120.204681
    },
    {
      "city": "臺東縣",
      "town": "延平鄉",
      "name": "延平",
      "temp": 25.1,
      "at": 29.66154571188214,
      "lat": 22.904381,
      "lon": 121.075983
    },
    {
      "city": "花蓮縣",
      "town": "萬榮鄉",
      "name": "西林林道12.5K",
      "temp": 20.8,
      "at": 21.567732675205683,
      "lat": 23.83143,
      "lon": 121.40419
    },
    {
      "city": "屏東縣",
      "town": "滿州鄉",
      "name": "九棚",
      "temp": 26.9,
      "at": 25.787593653759487,
      "lat": 22.143756,
      "lon": 120.886331
    },
    {
      "city": "彰化縣",
      "town": "芬園鄉",
      "name": "芬園",
      "temp": 25.1,
      "at": 31.479689948003816,
      "lat": 24.017222,
      "lon": 120.613056
    },
    {
      "city": "彰化縣",
      "town": "埔心鄉",
      "name": "埔心",
      "temp": 29.7,
      "at": 37.90789588116859,
      "lat": 23.948694,
      "lon": 120.517611
    },
    {
      "city": "桃園市",
      "town": "楊梅區",
      "name": "楊梅",
      "temp": 26.8,
      "at": 31.793440773725003,
      "lat": 24.914139,
      "lon": 121.134833
    },
    {
      "city": "宜蘭縣",
      "town": "礁溪鄉",
      "name": "礁溪",
      "temp": 26.6,
      "at": 32.85994246604713,
      "lat": 24.819336,
      "lon": 121.757397
    },
    {
      "city": "苗栗縣",
      "town": "西湖鄉",
      "name": "西湖",
      "temp": 25.1,
      "at": 30.70999924198354,
      "lat": 24.564417,
      "lon": 120.740278
    },
    {
      "city": "基隆市",
      "town": "暖暖區",
      "name": "暖暖",
      "temp": 28.7,
      "at": 35.555819420185074,
      "lat": 25.097533,
      "lon": 121.732069
    },
    {
      "city": "高雄市",
      "town": "彌陀區",
      "name": "南寮",
      "temp": 28.1,
      "at": 34.3501865302984,
      "lat": 22.763381,
      "lon": 120.225866
    },
    {
      "city": "宜蘭縣",
      "town": "大同鄉",
      "name": "白嶺",
      "temp": 17.7,
      "at": 20.227928394736292,
      "lat": 24.529611,
      "lon": 121.510844
    },
    {
      "city": "高雄市",
      "town": "梓官區",
      "name": "梓官",
      "temp": 27.8,
      "at": 33.52906612519095,
      "lat": 22.762444,
      "lon": 120.25925
    },
    {
      "city": "南投縣",
      "town": "仁愛鄉",
      "name": "萬大林道",
      "temp": 19.2,
      "at": 20.206246655337157,
      "lat": 23.930008,
      "lon": 121.083267
    },
    {
      "city": "屏東縣",
      "town": "恆春鎮",
      "name": "後壁湖",
      "temp": 28.4,
      "at": 32.88756968294104,
      "lat": 21.94747,
      "lon": 120.737695
    },
    {
      "city": "宜蘭縣",
      "town": "頭城鎮",
      "name": "大溪漁港",
      "temp": 28.2,
      "at": 34.02250623668354,
      "lat": 24.943603,
      "lon": 121.894736
    },
    {
      "city": "臺中市",
      "town": "后里區",
      "name": "后里",
      "temp": 25.9,
      "at": 31.904124663298248,
      "lat": 24.312111,
      "lon": 120.7215
    },
    {
      "city": "連江縣",
      "town": "北竿鄉",
      "name": "北竿",
      "temp": 26.5,
      "at": 32.00762692790594,
      "lat": 26.222038,
      "lon": 119.966574
    },
    {
      "city": "嘉義縣",
      "town": "新港鄉",
      "name": "新港",
      "temp": 28.0,
      "at": 34.98013152864289,
      "lat": 23.555011,
      "lon": 120.3376
    },
    {
      "city": "新北市",
      "town": "石碇區",
      "name": "石碇",
      "temp": 25.2,
      "at": 29.95402324733368,
      "lat": 24.995758,
      "lon": 121.654639
    },
    {
      "city": "嘉義縣",
      "town": "大林鎮",
      "name": "大林",
      "temp": 27.2,
      "at": 33.02800166536651,
      "lat": 23.602361,
      "lon": 120.450281
    },
    {
      "city": "宜蘭縣",
      "town": "頭城鎮",
      "name": "北關",
      "temp": 27.7,
      "at": 33.890765178901745,
      "lat": 24.90902,
      "lon": 121.865211
    },
    {
      "city": "新北市",
      "town": "金山區",
      "name": "金山",
      "temp": 26.7,
      "at": 32.14964473326262,
      "lat": 25.225278,
      "lon": 121.635556
    },
    {
      "city": "花蓮縣",
      "town": "秀林鄉",
      "name": "富世",
      "temp": 28.0,
      "at": 31.497770428151618,
      "lat": 24.149236,
      "lon": 121.621542
    },
    {
      "city": "新北市",
      "town": "永和區",
      "name": "永和",
      "temp": 29.0,
      "at": 32.859520999402136,
      "lat": 25.013028,
      "lon": 121.499889
    },
    {
      "city": "屏東縣",
      "town": "滿州鄉",
      "name": "檳榔",
      "temp": 25.0,
      "at": 29.463930079159113,
      "lat": 22.077883,
      "lon": 120.828758
    },
    {
      "city": "花蓮縣",
      "town": "豐濱鄉",
      "name": "靜浦",
      "temp": 26.5,
      "at": 32.34930611124324,
      "lat": 23.456944,
      "lon": 121.486667
    },
    {
      "city": "臺南市",
      "town": "新市區",
      "name": "新市",
      "temp": 26.5,
      "at": 32.304268561231346,
      "lat": 23.063556,
      "lon": 120.290417
    },
    {
      "city": "雲林縣",
      "town": "褒忠鄉",
      "name": "褒忠",
      "temp": 27.5,
      "at": 33.6373446340726,
      "lat": 23.692672,
      "lon": 120.295503
    },
    {
      "city": "花蓮縣",
      "town": "富里鄉",
      "name": "富里",
      "temp": 24.9,
      "at": 29.558092806192995,
      "lat": 23.173442,
      "lon": 121.241286
    },
    {
      "city": "屏東縣",
      "town": "泰武鄉",
      "name": "舊泰武",
      "temp": 23.6,
      "at": 27.51921512856574,
      "lat": 22.58995,
      "lon": 120.656922
    },
    {
      "city": "臺南市",
      "town": "北門區",
      "name": "蚵寮",
      "temp": 29.1,
      "at": 35.50859351760858,
      "lat": 23.302745,
      "lon": 120.102281
    },
    {
      "city": "宜蘭縣",
      "town": "員山鄉",
      "name": "內城",
      "temp": 26.2,
      "at": 32.38280921220248,
      "lat": 24.719928,
      "lon": 121.679461
    },
    {
      "city": "屏東縣",
      "town": "滿州鄉",
      "name": "南仁湖",
      "temp": 25.3,
      "at": 28.161526392584427,
      "lat": 22.086486,
      "lon": 120.855333
    },
    {
      "city": "新北市",
      "town": "鶯歌區",
      "name": "鶯歌",
      "temp": 26.5,
      "at": 33.319840805681075,
      "lat": 24.953,
      "lon": 121.33725
    },
    {
      "city": "宜蘭縣",
      "town": "大同鄉",
      "name": "南山",
      "temp": 18.7,
      "at": 19.2564652499719,
      "lat": 24.439167,
      "lon": 121.373333
    },
    {
      "city": "臺東縣",
      "town": "蘭嶼鄉",
      "name": "東清國小",
      "temp": 29.1,
      "at": 34.85351810260109,
      "lat": 22.058965,
      "lon": 121.556901
    },
    {
      "city": "高雄市",
      "town": "大樹區",
      "name": "大樹",
      "temp": 27.1,
      "at": 33.23160520969222,
      "lat": 22.686423,
      "lon": 120.424748
    },
    {
      "city": "彰化縣",
      "town": "福興鄉",
      "name": "福興",
      "temp": 29.0,
      "at": 34.97177298583207,
      "lat": 24.042972,
      "lon": 120.429528
    },
    {
      "city": "高雄市",
      "town": "小港區",
      "name": "鳳森",
      "temp": 26.3,
      "at": 32.36322669627334,
      "lat": 22.546944,
      "lon": 120.3845
    },
    {
      "city": "彰化縣",
      "town": "福興鄉",
      "name": "福寶",
      "temp": 28.6,
      "at": 33.11778553990173,
      "lat": 24.046048,
      "lon": 120.373213
    },
    {
      "city": "南投縣",
      "town": "水里鄉",
      "name": "水里",
      "temp": 25.1,
      "at": 27.91247359382131,
      "lat": 23.814322,
      "lon": 120.841658
    },
    {
      "city": "嘉義縣",
      "town": "布袋鎮",
      "name": "好美里",
      "temp": 28.7,
      "at": 34.9853056925128,
      "lat": 23.338176,
      "lon": 120.129936
    },
    {
      "city": "花蓮縣",
      "town": "萬榮鄉",
      "name": "西林",
      "temp": 25.4,
      "at": 29.352009120463748,
      "lat": 23.813667,
      "lon": 121.433194
    },
    {
      "city": "屏東縣",
      "town": "新埤鄉",
      "name": "萬隆國小",
      "temp": 26.5,
      "at": 31.270910194556755,
      "lat": 22.509453,
      "lon": 120.579772
    },
    {
      "city": "花蓮縣",
      "town": "秀林鄉",
      "name": "和平林道",
      "temp": 22.6,
      "at": 24.931034344078352,
      "lat": 24.345722,
      "lon": 121.648142
    },
    {
      "city": "臺中市",
      "town": "和平區",
      "name": "雪山圈谷",
      "temp": 9.1,
      "at": 5.875920249346986,
      "lat": 24.390375,
      "lon": 121.228197
    },
    {
      "city": "金門縣",
      "town": "烏坵鄉",
      "name": "烏坵",
      "temp": 26.3,
      "at": 31.370907539313542,
      "lat": 24.996081,
      "lon": 119.441347
    },
    {
      "city": "臺南市",
      "town": "佳里區",
      "name": "佳里",
      "temp": 26.8,
      "at": 32.788538880112185,
      "lat": 23.175,
      "lon": 120.136667
    },
    {
      "city": "花蓮縣",
      "town": "壽豐鄉",
      "name": "東華",
      "temp": 24.1,
      "at": 29.68094463016216,
      "lat": 23.897056,
      "lon": 121.541694
    },
    {
      "city": "屏東縣",
      "town": "佳冬鄉",
      "name": "佳冬",
      "temp": 26.3,
      "at": 31.858106134246533,
      "lat": 22.421194,
      "lon": 120.544222
    },
    {
      "city": "宜蘭縣",
      "town": "南澳鄉",
      "name": "樟樹山",
      "temp": 23.6,
      "at": 28.08677427093008,
      "lat": 24.415731,
      "lon": 121.775067
    },
    {
      "city": "新北市",
      "town": "蘆洲區",
      "name": "蘆洲",
      "temp": 29.9,
      "at": 34.628768393165466,
      "lat": 25.088528,
      "lon": 121.464056
    },
    {
      "city": "桃園市",
      "town": "龜山區",
      "name": "國一五楊N44K",
      "temp": 26.2,
      "at": 30.885718191215418,
      "lat": 25.065633,
      "lon": 121.332769
    },
    {
      "city": "臺東縣",
      "town": "卑南鄉",
      "name": "知本",
      "temp": 23.1,
      "at": 27.584888602946545,
      "lat": 22.686667,
      "lon": 120.997583
    },
    {
      "city": "臺中市",
      "town": "清水區",
      "name": "清水",
      "temp": 27.1,
      "at": 32.733759712292716,
      "lat": 24.314028,
      "lon": 120.554083
    },
    {
      "city": "高雄市",
      "town": "大寮區",
      "name": "大寮",
      "temp": 28.2,
      "at": 35.03093001414694,
      "lat": 22.607389,
      "lon": 120.387667
    },
    {
      "city": "雲林縣",
      "town": "大埤鄉",
      "name": "大埤",
      "temp": 27.3,
      "at": 32.78710081330555,
      "lat": 23.647817,
      "lon": 120.4234
    },
    {
      "city": "新北市",
      "town": "石門區",
      "name": "石門",
      "temp": 25.9,
      "at": 29.624189227437824,
      "lat": 25.275453,
      "lon": 121.592956
    },
    {
      "city": "花蓮縣",
      "town": "吉安鄉",
      "name": "吉安光華",
      "temp": 26.4,
      "at": 31.573146462459533,
      "lat": 23.932733,
      "lon": 121.587003
    },
    {
      "city": "花蓮縣",
      "town": "壽豐鄉",
      "name": "大坑",
      "temp": 23.5,
      "at": 28.957825712079654,
      "lat": 23.882433,
      "lon": 121.573839
    },
    {
      "city": "臺北市",
      "town": "信義區",
      "name": "信義",
      "temp": 28.6,
      "at": 32.446698089356495,
      "lat": 25.039606,
      "lon": 121.556372
    },
    {
      "city": "高雄市",
      "town": "六龜區",
      "name": "六龜",
      "temp": 24.9,
      "at": 30.258092806192998,
      "lat": 22.99975,
      "lon": 120.625528
    },
    {
      "city": "屏東縣",
      "town": "恆春鎮",
      "name": "墾丁",
      "temp": 26.0,
      "at": 30.70396668029592,
      "lat": 21.968561,
      "lon": 120.802258
    },
    {
      "city": "屏東縣",
      "town": "屏東市",
      "name": "屏東",
      "temp": 27.2,
      "at": 33.67000178432126,
      "lat": 22.662048,
      "lon": 120.485974
    },
    {
      "city": "南投縣",
      "town": "鹿谷鄉",
      "name": "鳳凰",
      "temp": 21.8,
      "at": 25.186102977302117,
      "lat": 23.729722,
      "lon": 120.779167
    },
    {
      "city": "苗栗縣",
      "town": "南庄鄉",
      "name": "拉庫斯",
      "temp": 20.6,
      "at": 22.458886553778328,
      "lat": 24.538136,
      "lon": 121.013183
    },
    {
      "city": "雲林縣",
      "town": "古坑鄉",
      "name": "草嶺石壁",
      "temp": 19.5,
      "at": 22.16870653299494,
      "lat": 23.604239,
      "lon": 120.699612
    },
    {
      "city": "雲林縣",
      "town": "元長鄉",
      "name": "鹿南",
      "temp": 26.9,
      "at": 33.160393063411526,
      "lat": 23.645083,
      "lon": 120.360167
    },
    {
      "city": "嘉義市",
      "town": "西區",
      "name": "嘉義",
      "temp": 26.3,
      "at": 31.53554585323313,
      "lat": 23.497684,
      "lon": 120.424796
    },
    {
      "city": "花蓮縣",
      "town": "富里鄉",
      "name": "六十石",
      "temp": 21.6,
      "at": 22.66142753910947,
      "lat": 23.226575,
      "lon": 121.310513
    },
    {
      "city": "花蓮縣",
      "town": "鳳林鎮",
      "name": "庄子底",
      "temp": 24.7,
      "at": 30.24307194347076,
      "lat": 23.719744,
      "lon": 121.486249
    },
    {
      "city": "澎湖縣",
      "town": "西嶼鄉",
      "name": "畜試所澎湖",
      "temp": 25.0,
      "at": 31.038153855477063,
      "lat": 23.630055,
      "lon": 119.505094
    },
    {
      "city": "臺北市",
      "town": "文山區",
      "name": "國三甲005K",
      "temp": 27.3,
      "at": 32.8158261341081,
      "lat": 25.003726,
      "lon": 121.589277
    },
    {
      "city": "臺東縣",
      "town": "鹿野鄉",
      "name": "二層坪",
      "temp": 25.3,
      "at": 30.218838920954617,
      "lat": 22.942853,
      "lon": 121.160303
    },
    {
      "city": "臺中市",
      "town": "大甲區",
      "name": "大甲",
      "temp": 25.9,
      "at": 32.01406009915867,
      "lat": 24.349917,
      "lon": 120.632361
    },
    {
      "city": "高雄市",
      "town": "美濃區",
      "name": "吉東",
      "temp": 26.4,
      "at": 32.579921500092944,
      "lat": 22.855957,
      "lon": 120.537323
    },
    {
      "city": "南投縣",
      "town": "仁愛鄉",
      "name": "馬烈霸",
      "temp": 16.0,
      "at": 15.441222927581986,
      "lat": 24.152982,
      "lon": 121.193613
    },
    {
      "city": "新北市",
      "town": "石碇區",
      "name": "國五S006K",
      "temp": 25.6,
      "at": 31.11618108244761,
      "lat": 24.991753,
      "lon": 121.64875
    },
    {
      "city": "新北市",
      "town": "石碇區",
      "name": "國五S005K",
      "temp": 25.6,
      "at": 30.462165336147812,
      "lat": 24.998202,
      "lon": 121.643708
    },
    {
      "city": "屏東縣",
      "town": "萬巒鄉",
      "name": "萬巒",
      "temp": 26.2,
      "at": 31.445213202874896,
      "lat": 22.529093,
      "lon": 120.617065
    },
    {
      "city": "臺中市",
      "town": "龍井區",
      "name": "國三N183K",
      "temp": 26.5,
      "at": 32.084803255669186,
      "lat": 24.19538,
      "lon": 120.562148
    },
    {
      "city": "金門縣",
      "town": "金城鎮",
      "name": "金門",
      "temp": 26.2,
      "at": 32.98420322619385,
      "lat": 24.408942,
      "lon": 118.281127
    },
    {
      "city": "臺南市",
      "town": "善化區",
      "name": "國三S342K",
      "temp": 26.1,
      "at": 31.312941160270128,
      "lat": 23.108456,
      "lon": 120.319446
    },
    {
      "city": "嘉義縣",
      "town": "梅山鄉",
      "name": "大巃頂",
      "temp": 21.1,
      "at": 24.15385727776669,
      "lat": 23.556466,
      "lon": 120.606275
    },
    {
      "city": "彰化縣",
      "town": "鹿港鎮",
      "name": "鹿港",
      "temp": 27.3,
      "at": 33.322002096515725,
      "lat": 24.076944,
      "lon": 120.422222
    },
    {
      "city": "臺南市",
      "town": "下營區",
      "name": "下營",
      "temp": 26.8,
      "at": 33.27629290912688,
      "lat": 23.228563,
      "lon": 120.248201
    },
    {
      "city": "南投縣",
      "town": "名間鄉",
      "name": "苗改南投蜂場",
      "temp": 23.9,
      "at": 29.226774651891432,
      "lat": 23.854353,
      "lon": 120.685345
    },
    {
      "city": "臺北市",
      "town": "大安區",
      "name": "大安森林",
      "temp": 27.6,
      "at": 32.6403967049748,
      "lat": 25.031331,
      "lon": 121.528056
    },
    {
      "city": "南投縣",
      "town": "竹山鎮",
      "name": "臺大竹山",
      "temp": 25.0,
      "at": 31.318153855477064,
      "lat": 23.758731,
      "lon": 120.67342
    },
    {
      "city": "屏東縣",
      "town": "恆春鎮",
      "name": "畜試南區分所",
      "temp": 27.6,
      "at": 30.554812573173784,
      "lat": 21.947348,
      "lon": 120.794139
    },
    {
      "city": "花蓮縣",
      "town": "吉安鄉",
      "name": "花蓮農改",
      "temp": 25.6,
      "at": 31.86018698731003,
      "lat": 23.977028,
      "lon": 121.555752
    },
    {
      "city": "新北市",
      "town": "平溪區",
      "name": "火燒寮",
      "temp": 25.3,
      "at": 29.89834786979047,
      "lat": 25.004411,
      "lon": 121.734572
    },
    {
      "city": "嘉義縣",
      "town": "東石鄉",
      "name": "西濱S257K",
      "temp": 27.6,
      "at": 33.67806017777077,
      "lat": 23.504025,
      "lon": 120.163753
    },
    {
      "city": "桃園市",
      "town": "觀音區",
      "name": "觀音",
      "temp": 26.6,
      "at": 31.497990321891365,
      "lat": 25.028835,
      "lon": 121.145094
    },
    {
      "city": "苗栗縣",
      "town": "竹南鎮",
      "name": "竹南",
      "temp": 27.3,
      "at": 33.40455145491064,
      "lat": 24.710737,
      "lon": 120.880772
    },
    {
      "city": "嘉義縣",
      "town": "朴子市",
      "name": "朴子農改",
      "temp": 26.6,
      "at": 32.84081328200262,
      "lat": 23.47164,
      "lon": 120.251277
    },
    {
      "city": "南投縣",
      "town": "埔里鎮",
      "name": "中台",
      "temp": 22.7,
      "at": 27.49871982515706,
      "lat": 24.001373,
      "lon": 120.930591
    },
    {
      "city": "苗栗縣",
      "town": "西湖鄉",
      "name": "畜試北區分所",
      "temp": 25.0,
      "at": 31.00393007915911,
      "lat": 24.529569,
      "lon": 120.762788
    },
    {
      "city": "嘉義縣",
      "town": "大埔鄉",
      "name": "馬頭山",
      "temp": 23.5,
      "at": 28.417269197838053,
      "lat": 23.326389,
      "lon": 120.573611
    },
    {
      "city": "宜蘭縣",
      "town": "南澳鄉",
      "name": "金洋",
      "temp": 23.6,
      "at": 28.687745603113527,
      "lat": 24.426453,
      "lon": 121.737548
    },
    {
      "city": "嘉義縣",
      "town": "竹崎鄉",
      "name": "大華",
      "temp": 20.8,
      "at": 23.748586880427727,
      "lat": 23.484171,
      "lon": 120.6668
    },
    {
      "city": "臺東縣",
      "town": "太麻里鄉",
      "name": "太麻里(1)",
      "temp": 26.6,
      "at": 31.478861137846863,
      "lat": 22.600724,
      "lon": 120.971991
    },
    {
      "city": "臺南市",
      "town": "官田區",
      "name": "西拉雅風管處",
      "temp": 26.2,
      "at": 32.32660721686627,
      "lat": 23.191241,
      "lon": 120.327209
    },
    {
      "city": "雲林縣",
      "town": "古坑鄉",
      "name": "古坑",
      "temp": 25.2,
      "at": 30.343254683791542,
      "lat": 23.635298,
      "lon": 120.543786
    },
    {
      "city": "嘉義縣",
      "town": "民雄鄉",
      "name": "何竹子腳",
      "temp": 26.4,
      "at": 33.04314646245953,
      "lat": 23.538166,
      "lon": 120.373918
    },
    {
      "city": "臺東縣",
      "town": "太麻里鄉",
      "name": "太麻里(2)",
      "temp": 26.9,
      "at": 31.15459402272696,
      "lat": 22.599802,
      "lon": 120.9897
    },
    {
      "city": "花蓮縣",
      "town": "鳳林鎮",
      "name": "長橋",
      "temp": 23.5,
      "at": 28.557269197838053,
      "lat": 23.689203,
      "lon": 121.453731
    },
    {
      "city": "臺南市",
      "town": "安南區",
      "name": "安南",
      "temp": 27.3,
      "at": 33.972639436114456,
      "lat": 23.078333,
      "lon": 120.136667
    },
    {
      "city": "南投縣",
      "town": "仁愛鄉",
      "name": "發祥",
      "temp": 17.4,
      "at": 18.20532057866707,
      "lat": 24.155875,
      "lon": 121.156357
    },
    {
      "city": "嘉義縣",
      "town": "阿里山鄉",
      "name": "阿里山",
      "temp": 12.1,
      "at": 10.746451142590724,
      "lat": 23.509984,
      "lon": 120.805129
    },
    {
      "city": "屏東縣",
      "town": "內埔鄉",
      "name": "屏科大",
      "temp": 25.8,
      "at": 31.543748814257768,
      "lat": 22.65006,
      "lon": 120.611193
    },
    {
      "city": "彰化縣",
      "town": "彰化市",
      "name": "國一N198K",
      "temp": 28.7,
      "at": 35.07633314785733,
      "lat": 24.065639,
      "lon": 120.514899
    },
    {
      "city": "臺南市",
      "town": "白河區",
      "name": "國三S311K",
      "temp": 25.3,
      "at": 30.42664250048896,
      "lat": 23.34815,
      "lon": 120.430789
    },
    {
      "city": "嘉義縣",
      "town": "溪口鄉",
      "name": "農試溪口農場",
      "temp": 26.8,
      "at": 32.27670286076906,
      "lat": 23.587406,
      "lon": 120.399994
    },
    {
      "city": "臺南市",
      "town": "大內區",
      "name": "環湖",
      "temp": 24.7,
      "at": 30.24831537319585,
      "lat": 23.150431,
      "lon": 120.410514
    },
    {
      "city": "基隆市",
      "town": "七堵區",
      "name": "國三S007K",
      "temp": 24.8,
      "at": 29.736035382195062,
      "lat": 25.098727,
      "lon": 121.65957
    },
    {
      "city": "基隆市",
      "town": "七堵區",
      "name": "國一S006K",
      "temp": 26.8,
      "at": 32.32262087044063,
      "lat": 25.088729,
      "lon": 121.678671
    },
    {
      "city": "高雄市",
      "town": "楠梓區",
      "name": "高雄",
      "temp": 26.4,
      "at": 32.98959638719271,
      "lat": 22.732201,
      "lon": 120.304459
    },
    {
      "city": "宜蘭縣",
      "town": "大同鄉",
      "name": "出水溪",
      "temp": 22.3,
      "at": 26.003957787978454,
      "lat": 24.617617,
      "lon": 121.644058
    },
    {
      "city": "臺東縣",
      "town": "卑南鄉",
      "name": "明峰",
      "temp": 23.7,
      "at": 27.950931851566825,
      "lat": 22.868903,
      "lon": 121.110178
    },
    {
      "city": "宜蘭縣",
      "town": "羅東鎮",
      "name": "國五S047K",
      "temp": 26.8,
      "at": 32.08853888011219,
      "lat": 24.677257,
      "lon": 121.786384
    },
    {
      "city": "南投縣",
      "town": "魚池鄉",
      "name": "茶改中部分場",
      "temp": 20.8,
      "at": 24.804566316982005,
      "lat": 23.877382,
      "lon": 120.905442
    },
    {
      "city": "雲林縣",
      "town": "四湖鄉",
      "name": "四湖",
      "temp": 26.8,
      "at": 33.48629290912688,
      "lat": 23.632147,
      "lon": 120.219053
    },
    {
      "city": "南投縣",
      "town": "中寮鄉",
      "name": "中寮",
      "temp": 23.6,
      "at": 28.897745603113528,
      "lat": 23.886278,
      "lon": 120.758528
    },
    {
      "city": "屏東縣",
      "town": "長治鄉",
      "name": "高雄農改",
      "temp": 27.0,
      "at": 32.75925343220808,
      "lat": 22.711084,
      "lon": 120.517814
    },
    {
      "city": "臺中市",
      "town": "北區",
      "name": "臺中",
      "temp": 27.3,
      "at": 33.18646347370682,
      "lat": 24.147494,
      "lon": 120.675919
    },
    {
      "city": "南投縣",
      "town": "信義鄉",
      "name": "臺大內茅埔",
      "temp": 21.9,
      "at": 26.202280766357696,
      "lat": 23.691497,
      "lon": 120.842992
    },
    {
      "city": "嘉義縣",
      "town": "中埔鄉",
      "name": "國三N303K",
      "temp": 24.8,
      "at": 29.876035382195063,
      "lat": 23.413742,
      "lon": 120.444389
    },
    {
      "city": "新北市",
      "town": "坪林區",
      "name": "國五N013K",
      "temp": 24.8,
      "at": 29.925103587494398,
      "lat": 24.949395,
      "lon": 121.697289
    },
    {
      "city": "新北市",
      "town": "瑞芳區",
      "name": "瑞芳",
      "temp": 27.1,
      "at": 32.37983696359297,
      "lat": 25.114861,
      "lon": 121.792639
    },
    {
      "city": "新竹縣",
      "town": "新豐鄉",
      "name": "西濱N066K",
      "temp": 26.0,
      "at": 30.541620302891744,
      "lat": 24.897357,
      "lon": 120.956688
    },
    {
      "city": "南投縣",
      "town": "鹿谷鄉",
      "name": "臺大溪頭",
      "temp": 18.6,
      "at": 20.95454512024015,
      "lat": 23.672071,
      "lon": 120.790065
    },
    {
      "city": "桃園市",
      "town": "楊梅區",
      "name": "茶改場",
      "temp": 24.5,
      "at": 29.30125498644101,
      "lat": 24.910258,
      "lon": 121.17713
    },
    {
      "city": "雲林縣",
      "town": "虎尾鎮",
      "name": "雲林臺大",
      "temp": 25.8,
      "at": 32.291611679233824,
      "lat": 23.732381,
      "lon": 120.415777
    },
    {
      "city": "雲林縣",
      "town": "口湖鄉",
      "name": "西濱S241K",
      "temp": 27.8,
      "at": 32.969066125190956,
      "lat": 23.625171,
      "lon": 120.164529
    },
    {
      "city": "臺北市",
      "town": "北投區",
      "name": "鞍部",
      "temp": 22.1,
      "at": 23.4762579464123,
      "lat": 25.184365,
      "lon": 121.521495
    },
    {
      "city": "新竹縣",
      "town": "關西鎮",
      "name": "國三N077K",
      "temp": 23.0,
      "at": 27.942470466380122,
      "lat": 24.799064,
      "lon": 121.181827
    },
    {
      "city": "金門縣",
      "town": "金湖鎮",
      "name": "金門(東)",
      "temp": 25.4,
      "at": 31.226033830170813,
      "lat": 24.450074,
      "lon": 118.443627
    },