{
  "meta": {
    "updated_at": "2026-02-03 12:12:07",
    "source": "CWA Auto Stations",
    "count": 795
  },
  "data": [
    {
      "city": "花蓮縣",
      "town": "秀林鄉",
      "name": "崇德",
      "temp": 18.7,
      "at": 17.911569422055294,
      "lat": 24.167948,
      "lon": 121.649251
    },
    {
      "city": "臺東縣",
      "town": "卑南鄉",
      "name": "富山",
      "temp": 19.9,
      "at": 12.173797245913129,
      "lat": 22.82419,
      "lon": 121.182756
    },
    {
      "city": "臺東縣",
      "town": "蘭嶼鄉",
      "name": "東清國小",
      "temp": 20.9,
      "at": 18.546009818079753,
      "lat": 22.058965,
      "lon": 121.556901
    },
    {
      "city": "臺東縣",
      "town": "綠島鄉",
      "name": "牛頭山",
      "temp": 18.0,
      "at": 13.341788474677948,
      "lat": 22.678485,
      "lon": 121.498883
    },
    {
      "city": "新北市",
      "town": "八里區",
      "name": "硬漢嶺",
      "temp": 14.0,
      "at": 13.757094238259448,
      "lat": 25.137872,
      "lon": 121.41814
    },
    {
      "city": "花蓮縣",
      "town": "秀林鄉",
      "name": "秀林",
      "temp": 9.2,
      "at": 8.575859018409401,
      "lat": 24.304668,
      "lon": 121.722972
    },
    {
      "city": "花蓮縣",
      "town": "秀林鄉",
      "name": "和仁",
      "temp": 18.2,
      "at": 17.20362134526981,
      "lat": 24.243199,
      "lon": 121.704304
    },
    {
      "city": "花蓮縣",
      "town": "秀林鄉",
      "name": "立霧山",
      "temp": 8.7,
      "at": 7.706997570383869,
      "lat": 24.185061,
      "lon": 121.633735
    },
    {
      "city": "臺中市",
      "town": "和平區",
      "name": "鞍馬山工作站",
      "temp": 8.6,
      "at": 7.582425924604298,
      "lat": 24.2681,
      "lon": 120.9926
    },
    {
      "city": "臺中市",
      "town": "和平區",
      "name": "大雪山埡口",
      "temp": 8.5,
      "at": 4.46802054237174,
      "lat": 24.2744,
      "lon": 121.0224
    },
    {
      "city": "臺中市",
      "town": "和平區",
      "name": "小雪山天池",
      "temp": 5.6,
      "at": 3.2482029974284563,
      "lat": 24.2825,
      "lon": 121.0182
    },
    {
      "city": "臺中市",
      "town": "和平區",
      "name": "小雪山林道",
      "temp": 4.5,
      "at": 3.0824691368220734,
      "lat": 24.2968,
      "lon": 121.0283
    },
    {
      "city": "臺中市",
      "town": "和平區",
      "name": "大雪山",
      "temp": 8.4,
      "at": 7.378626357468331,
      "lat": 24.2562,
      "lon": 120.9991
    },
    {
      "city": "臺中市",
      "town": "和平區",
      "name": "出雲山苗圃",
      "temp": 17.1,
      "at": 18.043609006411824,
      "lat": 24.2328,
      "lon": 120.8965
    },
    {
      "city": "臺中市",
      "town": "和平區",
      "name": "雪山橋",
      "temp": 17.9,
      "at": 17.02405379190777,
      "lat": 24.2336,
      "lon": 120.9704
    },
    {
      "city": "臺中市",
      "town": "和平區",
      "name": "八仙山苗圃",
      "temp": 20.9,
      "at": 19.520317049861227,
      "lat": 24.1944,
      "lon": 120.9932
    },
    {
      "city": "臺中市",
      "town": "和平區",
      "name": "中橫21.6k",
      "temp": 17.4,
      "at": 16.46756728091088,
      "lat": 24.2516,
      "lon": 121.1373
    },
    {
      "city": "苗栗縣",
      "town": "泰安鄉",
      "name": "雪見",
      "temp": 10.4,
      "at": 6.965775339043702,
      "lat": 24.4277,
      "lon": 121.0052
    },
    {
      "city": "苗栗縣",
      "town": "泰安鄉",
      "name": "松安",
      "temp": 20.2,
      "at": 19.46607595260535,
      "lat": 24.3996,
      "lon": 120.9778
    },
    {
      "city": "苗栗縣",
      "town": "泰安鄉",
      "name": "觀霧分站",
      "temp": 14.3,
      "at": 11.523421480148428,
      "lat": 24.5075,
      "lon": 121.1057
    },
    {
      "city": "新竹縣",
      "town": "五峰鄉",
      "name": "樂山林道6k",
      "temp": 8.2,
      "at": 2.875170251622319,
      "lat": 24.5017,
      "lon": 121.0795
    },
    {
      "city": "新竹縣",
      "town": "五峰鄉",
      "name": "大坪苗圃",
      "temp": 12.5,
      "at": 12.042700182014794,
      "lat": 24.5379,
      "lon": 121.1026
    },
    {
      "city": "桃園市",
      "town": "復興區",
      "name": "東眼山",
      "temp": 17.2,
      "at": 17.528856165482352,
      "lat": 24.8301,
      "lon": 121.4006
    },
    {
      "city": "桃園市",
      "town": "復興區",
      "name": "四稜",
      "temp": 8.8,
      "at": 7.085530107978451,
      "lat": 24.6796,
      "lon": 121.4211
    },
    {
      "city": "宜蘭縣",
      "town": "大同鄉",
      "name": "明池",
      "temp": 8.6,
      "at": 5.478367168039766,
      "lat": 24.6506,
      "lon": 121.4673
    },
    {
      "city": "宜蘭縣",
      "town": "大同鄉",
      "name": "太平山中間站",
      "temp": 9.6,
      "at": 7.552389752299645,
      "lat": 24.5437,
      "lon": 121.5052
    },
    {
      "city": "宜蘭縣",
      "town": "大同鄉",
      "name": "翠峰林道6K",
      "temp": 5.7,
      "at": 4.077914815820517,
      "lat": 24.4995,
      "lon": 121.5604
    },
    {
      "city": "宜蘭縣",
      "town": "大同鄉",
      "name": "太平山莊",
      "temp": 6.0,
      "at": 2.368902434144987,
      "lat": 24.4959,
      "lon": 121.5281
    },
    {
      "city": "高雄市",
      "town": "大樹區",
      "name": "大樹",
      "temp": 23.9,
      "at": 24.020545668141267,
      "lat": 22.686423,
      "lon": 120.424748
    },
    {
      "city": "新北市",
      "town": "林口區",
      "name": "太平里",
      "temp": 19.2,
      "at": 16.15468499150287,
      "lat": 25.136709,
      "lon": 121.356668
    },
    {
      "city": "臺東縣",
      "town": "太麻里鄉",
      "name": "美和",
      "temp": 21.2,
      "at": 18.461750749627416,
      "lat": 22.683881,
      "lon": 121.052177
    },
    {
      "city": "臺東縣",
      "town": "臺東市",
      "name": "富岡",
      "temp": 20.5,
      "at": 15.68632157494384,
      "lat": 22.794274,
      "lon": 121.184602
    },
    {
      "city": "臺東縣",
      "town": "東河鄉",
      "name": "新蘭",
      "temp": 19.8,
      "at": 15.713236828016967,
      "lat": 22.871021,
      "lon": 121.215155
    },
    {
      "city": "臺東縣",
      "town": "東河鄉",
      "name": "興隆",
      "temp": 20.2,
      "at": 18.534898738386953,
      "lat": 22.915469,
      "lon": 121.249394
    },
    {
      "city": "臺東縣",
      "town": "成功鎮",
      "name": "叭嗡嗡",
      "temp": 19.3,
      "at": 13.598781974584426,
      "lat": 23.048871,
      "lon": 121.335138
    },
    {
      "city": "臺東縣",
      "town": "成功鎮",
      "name": "白守蓮",
      "temp": 19.8,
      "at": 16.629255288136623,
      "lat": 23.12858,
      "lon": 121.393824
    },
    {
      "city": "臺東縣",
      "town": "成功鎮",
      "name": "小港漁港",
      "temp": 20.1,
      "at": 18.69860669272871,
      "lat": 23.160368,
      "lon": 121.392338
    },
    {
      "city": "臺東縣",
      "town": "長濱鄉",
      "name": "長濱漁港",
      "temp": 18.3,
      "at": 15.225215201637496,
      "lat": 23.315454,
      "lon": 121.451891
    },
    {
      "city": "花蓮縣",
      "town": "花蓮市",
      "name": "花蓮漁港",
      "temp": 18.0,
      "at": 17.43050751558659,
      "lat": 23.997128,
      "lon": 121.63018
    },
    {
      "city": "花蓮縣",
      "town": "秀林鄉",
      "name": "加灣",
      "temp": 17.6,
      "at": 16.768256300793652,
      "lat": 24.083828,
      "lon": 121.600788
    },
    {
      "city": "花蓮縣",
      "town": "壽豐鄉",
      "name": "鹽寮",
      "temp": 16.6,
      "at": 16.222669005330673,
      "lat": 23.847418,
      "lon": 121.584524
    },
    {
      "city": "臺中市",
      "town": "大甲區",
      "name": "大甲溪埔",
      "temp": 19.0,
      "at": 14.731704630268613,
      "lat": 24.372375,
      "lon": 120.611895
    },
    {
      "city": "彰化縣",
      "town": "和美鎮",
      "name": "和美",
      "temp": 20.1,
      "at": 17.651629674302463,
      "lat": 24.106919,
      "lon": 120.483978
    },
    {
      "city": "屏東縣",
      "town": "滿州鄉",
      "name": "鼻頭",
      "temp": 20.7,
      "at": 12.348706129388695,
      "lat": 22.106107,
      "lon": 120.889862
    },
    {
      "city": "屏東縣",
      "town": "滿州鄉",
      "name": "興海",
      "temp": 19.9,
      "at": 11.564662471156744,
      "lat": 21.976985,
      "lon": 120.835907
    },
    {
      "city": "屏東縣",
      "town": "恆春鎮",
      "name": "後壁湖",
      "temp": 21.3,
      "at": 17.7727370928072,
      "lat": 21.94747,
      "lon": 120.737695
    },
    {
      "city": "屏東縣",
      "town": "恆春鎮",
      "name": "山海",
      "temp": 22.0,
      "at": 19.158658297470954,
      "lat": 21.989579,
      "lon": 120.701107
    },
    {
      "city": "屏東縣",
      "town": "車城鄉",
      "name": "竹坑",
      "temp": 22.6,
      "at": 16.782429385137206,
      "lat": 22.140248,
      "lon": 120.694128
    },
    {
      "city": "屏東縣",
      "town": "枋山鄉",
      "name": "加祿堂",
      "temp": 21.0,
      "at": 20.595267245006244,
      "lat": 22.338096,
      "lon": 120.613688
    },
    {
      "city": "臺南市",
      "town": "將軍區",
      "name": "鯤鯓國小",
      "temp": 19.5,
      "at": 16.812493372375112,
      "lat": 23.189624,
      "lon": 120.080813
    },
    {
      "city": "屏東縣",
      "town": "枋寮鄉",
      "name": "下寮",
      "temp": 21.4,
      "at": 21.94121845682205,
      "lat": 22.394648,
      "lon": 120.546743
    },
    {
      "city": "屏東縣",
      "town": "佳冬鄉",
      "name": "塭仔",
      "temp": 20.1,
      "at": 19.3330256020912,
      "lat": 22.418718,
      "lon": 120.511622
    },
    {
      "city": "高雄市",
      "town": "林園區",
      "name": "汕尾",
      "temp": 21.3,
      "at": 21.202737092807205,
      "lat": 22.479984,
      "lon": 120.407094
    },
    {
      "city": "高雄市",
      "town": "小港區",
      "name": "鳳鼻頭",
      "temp": 20.2,
      "at": 19.08827089080381,
      "lat": 22.510051,
      "lon": 120.351098
    },
    {
      "city": "高雄市",
      "town": "梓官區",
      "name": "蚵仔寮",
      "temp": 20.0,
      "at": 18.986644699229913,
      "lat": 22.727414,
      "lon": 120.244618
    },
    {
      "city": "高雄市",
      "town": "彌陀區",
      "name": "南寮",
      "temp": 20.1,
      "at": 19.373258038346204,
      "lat": 22.763381,
      "lon": 120.225866
    },
    {
      "city": "高雄市",
      "town": "彌陀區",
      "name": "文安",
      "temp": 21.2,
      "at": 20.040338287108792,
      "lat": 22.804288,
      "lon": 120.208308
    },
    {
      "city": "高雄市",
      "town": "茄萣區",
      "name": "興達",
      "temp": 23.0,
      "at": 23.47450260117603,
      "lat": 22.879517,
      "lon": 120.204681
    },
    {
      "city": "臺南市",
      "town": "安南區",
      "name": "城西",
      "temp": 19.5,
      "at": 17.437875408869903,
      "lat": 23.058558,
      "lon": 120.087492
    },
    {
      "city": "臺南市",
      "town": "安南區",
      "name": "四草",
      "temp": 19.8,
      "at": 17.731199907777658,
      "lat": 23.025295,
      "lon": 120.103558
    },
    {
      "city": "臺南市",
      "town": "北門區",
      "name": "蘆竹溝",
      "temp": 18.5,
      "at": 13.598234540936911,
      "lat": 23.236154,
      "lon": 120.088035
    },
    {
      "city": "臺南市",
      "town": "北門區",
      "name": "蚵寮",
      "temp": 19.3,
      "at": 16.05987263063804,
      "lat": 23.302745,
      "lon": 120.102281
    },
    {
      "city": "高雄市",
      "town": "前鎮區",
      "name": "前鎮",
      "temp": 22.0,
      "at": 22.83267886926692,
      "lat": 22.573925,
      "lon": 120.303144
    },
    {
      "city": "新北市",
      "town": "貢寮區",
      "name": "澳底",
      "temp": 16.6,
      "at": 14.558459860045883,
      "lat": 25.056993,
      "lon": 121.917036
    },
    {
      "city": "澎湖縣",
      "town": "七美鄉",
      "name": "七美",
      "temp": 17.7,
      "at": 10.917663431841673,
      "lat": 23.221053,
      "lon": 119.436809
    },
    {
      "city": "澎湖縣",
      "town": "望安鄉",
      "name": "望安",
      "temp": 17.5,
      "at": 8.366657708932435,
      "lat": 23.382282,
      "lon": 119.485981
    },
    {
      "city": "澎湖縣",
      "town": "湖西鄉",
      "name": "湖西",
      "temp": 17.7,
      "at": 8.050984147894306,
      "lat": 23.598035,
      "lon": 119.664639
    },
    {
      "city": "連江縣",
      "town": "北竿鄉",
      "name": "北竿",
      "temp": 10.0,
      "at": 3.1542909802789287,
      "lat": 26.222038,
      "lon": 119.966574
    },
    {
      "city": "金門縣",
      "town": "烈嶼鄉",
      "name": "九宮",
      "temp": 16.4,
      "at": 13.7907761189159,
      "lat": 24.425386,
      "lon": 118.232031
    },
    {
      "city": "屏東縣",
      "town": "新埤鄉",
      "name": "萬隆國小",
      "temp": 22.6,
      "at": 22.564580624872494,
      "lat": 22.509453,
      "lon": 120.579772
    },
    {
      "city": "苗栗縣",
      "town": "通霄鎮",
      "name": "白沙屯",
      "temp": 17.9,
      "at": 11.969192937451748,
      "lat": 24.551198,
      "lon": 120.688617
    },
    {
      "city": "屏東縣",
      "town": "內埔鄉",
      "name": "內埔",
      "temp": 24.3,
      "at": 25.12787202379118,
      "lat": 22.610267,
      "lon": 120.562662
    },
    {
      "city": "臺北市",
      "town": "士林區",
      "name": "科教館",
      "temp": 18.3,
      "at": 14.955106901341836,
      "lat": 25.098133,
      "lon": 121.508275
    },
    {
      "city": "宜蘭縣",
      "town": "頭城鎮",
      "name": "大溪漁港",
      "temp": 16.1,
      "at": 16.490561656216737,
      "lat": 24.943603,
      "lon": 121.894736
    },
    {
      "city": "宜蘭縣",
      "town": "頭城鎮",
      "name": "石城",
      "temp": 16.5,
      "at": 15.673724224214538,
      "lat": 24.982247,
      "lon": 121.942992
    },
    {
      "city": "基隆市",
      "town": "安樂區",
      "name": "大武崙",
      "temp": 16.7,
      "at": 13.909564542686962,
      "lat": 25.168464,
      "lon": 121.698758
    },
    {
      "city": "新北市",
      "town": "萬里區",
      "name": "野柳",
      "temp": 16.3,
      "at": 10.174907919763141,
      "lat": 25.208817,
      "lon": 121.681783
    },
    {
      "city": "新北市",
      "town": "淡水區",
      "name": "淡水觀海",
      "temp": 18.9,
      "at": 17.25684037825357,
      "lat": 25.186364,
      "lon": 121.400381
    },
    {
      "city": "桃園市",
      "town": "大園區",
      "name": "竹圍",
      "temp": 19.2,
      "at": 15.400885429353998,
      "lat": 25.114458,
      "lon": 121.231594
    },
    {
      "city": "桃園市",
      "town": "新屋區",
      "name": "中大臨海站",
      "temp": 20.8,
      "at": 18.646127081990187,
      "lat": 24.967883,
      "lon": 121.000364
    },
    {
      "city": "新北市",
      "town": "石門區",
      "name": "石門",
      "temp": 14.9,
      "at": 12.242200891718113,
      "lat": 25.275453,
      "lon": 121.592956
    },
    {
      "city": "桃園市",
      "town": "觀音區",
      "name": "觀音工業區",
      "temp": 19.0,
      "at": 14.799370712879863,
      "lat": 25.066525,
      "lon": 121.106631
    },
    {
      "city": "新竹市",
      "town": "北區",
      "name": "海天一線",
      "temp": 20.7,
      "at": 17.88152959704152,
      "lat": 24.833742,
      "lon": 120.906231
    },
    {
      "city": "新竹市",
      "town": "香山區",
      "name": "香山濕地",
      "temp": 20.4,
      "at": 17.231091522430585,
      "lat": 24.785386,
      "lon": 120.906781
    },
    {
      "city": "新北市",
      "town": "瑞芳區",
      "name": "水湳洞",
      "temp": 16.2,
      "at": 15.226640749181016,
      "lat": 25.125492,
      "lon": 121.854006
    },
    {
      "city": "基隆市",
      "town": "中正區",
      "name": "八斗子",
      "temp": 16.8,
      "at": 14.136649755811789,
      "lat": 25.146547,
      "lon": 121.783436
    },
    {
      "city": "新竹縣",
      "town": "新豐鄉",
      "name": "外湖",
      "temp": 19.8,
      "at": 18.075181447658,
      "lat": 24.919492,
      "lon": 120.960497
    },
    {
      "city": "苗栗縣",
      "town": "後龍鎮",
      "name": "海埔",
      "temp": 19.1,
      "at": 16.27500381012927,
      "lat": 24.650519,
      "lon": 120.764242
    },
    {
      "city": "苗栗縣",
      "town": "通霄鎮",
      "name": "通霄漁港",
      "temp": 18.6,
      "at": 14.288016295924955,
      "lat": 24.500339,
      "lon": 120.665694
    },
    {
      "city": "臺中市",
      "town": "大甲區",
      "name": "松柏",
      "temp": 17.9,
      "at": 12.454239319299745,
      "lat": 24.430864,
      "lon": 120.609306
    },
    {
      "city": "臺中市",
      "town": "大安區",
      "name": "溫寮",
      "temp": 18.6,
      "at": 12.957465335114449,
      "lat": 24.373925,
      "lon": 120.574953
    },
    {
      "city": "苗栗縣",
      "town": "竹南鎮",
      "name": "龍鳳",
      "temp": 19.8,
      "at": 17.75527374825628,
      "lat": 24.701789,
      "lon": 120.850928
    },
    {
      "city": "宜蘭縣",
      "town": "礁溪鄉",
      "name": "淡江大學蘭陽校園",
      "temp": 12.8,
      "at": 12.86562395238968,
      "lat": 24.825033,
      "lon": 121.722172
    },
    {
      "city": "屏東縣",
      "town": "林邊鄉",
      "name": "林邊",
      "temp": 22.5,
      "at": 22.720093577084597,
      "lat": 22.465232,
      "lon": 120.52585
    },
    {
      "city": "新北市",
      "town": "淡水區",
      "name": "六塊厝",
      "temp": 18.9,
      "at": 16.066840378253573,
      "lat": 25.241776,
      "lon": 121.439863
    },
    {
      "city": "新北市",
      "town": "三芝區",
      "name": "田寮",
      "temp": 18.0,
      "at": 14.418456155521689,
      "lat": 25.271575,
      "lon": 121.480355
    },
    {
      "city": "桃園市",
      "town": "觀音區",
      "name": "新興坑尾",
      "temp": 17.8,
      "at": 9.840204704703359,
      "lat": 25.007827,
      "lon": 121.088851
    },
    {
      "city": "宜蘭縣",
      "town": "蘇澳鎮",
      "name": "蘇澳",
      "temp": 14.9,
      "at": 14.647567707004466,
      "lat": 24.59875,
      "lon": 121.848895
    },
    {
      "city": "宜蘭縣",
      "town": "壯圍鄉",
      "name": "壯圍",
      "temp": 14.8,
      "at": 14.27867417582317,
      "lat": 24.737723,
      "lon": 121.808046
    },
    {
      "city": "宜蘭縣",
      "town": "頭城鎮",
      "name": "北關",
      "temp": 14.9,
      "at": 14.773365154334183,
      "lat": 24.90902,
      "lon": 121.865211
    },
    {
      "city": "彰化縣",
      "town": "伸港鄉",
      "name": "防潮門",
      "temp": 19.0,
      "at": 15.443374217212352,
      "lat": 24.185242,
      "lon": 120.478972
    },
    {
      "city": "臺中市",
      "town": "龍井區",
      "name": "臺中電廠",
      "temp": 19.0,
      "at": 15.933374217212354,
      "lat": 24.216388,
      "lon": 120.482584
    },
    {
      "city": "彰化縣",
      "town": "福興鄉",
      "name": "福寶",
      "temp": 17.9,
      "at": 11.331762510223736,
      "lat": 24.046048,
      "lon": 120.373213
    },
    {
      "city": "彰化縣",
      "town": "大城鄉",
      "name": "三豐",
      "temp": 17.6,
      "at": 12.39460353946712,
      "lat": 23.883719,
      "lon": 120.281409
    },
    {
      "city": "雲林縣",
      "town": "口湖鄉",
      "name": "箔子寮",
      "temp": 19.0,
      "at": 14.461040299823601,
      "lat": 23.621487,
      "lon": 120.13192
    },
    {
      "city": "嘉義縣",
      "town": "布袋鎮",
      "name": "好美里",
      "temp": 19.9,
      "at": 17.391345379754696,
      "lat": 23.338176,
      "lon": 120.129936
    },
    {
      "city": "新北市",
      "town": "板橋區",
      "name": "板橋",
      "temp": 17.6,
      "at": 13.356952279308388,
      "lat": 25.012431,
      "lon": 121.440638
    },
    {
      "city": "連江縣",
      "town": "莒光鄉",
      "name": "東莒",
      "temp": 9.9,
      "at": 1.184236486967377,
      "lat": 25.966883,
      "lon": 119.9724
    },
    {
      "city": "澎湖縣",
      "town": "西嶼鄉",
      "name": "西嶼",
      "temp": 16.9,
      "at": 7.36464675985912,
      "lat": 23.564311,
      "lon": 119.460328
    },
    {
      "city": "澎湖縣",
      "town": "望安鄉",
      "name": "花嶼",
      "temp": 17.7,
      "at": 13.104267012104856,
      "lat": 23.401778,
      "lon": 119.314667
    },
    {
      "city": "金門縣",
      "town": "金沙鎮",
      "name": "金沙",
      "temp": 15.5,
      "at": 11.41135896527041,
      "lat": 24.489931,
      "lon": 118.400617
    },
    {
      "city": "金門縣",
      "town": "金寧鄉",
      "name": "金寧",
      "temp": 15.3,
      "at": 9.89873185679286,
      "lat": 24.459339,
      "lon": 118.320831
    },
    {
      "city": "金門縣",
      "town": "烏坵鄉",
      "name": "烏坵",
      "temp": 11.6,
      "at": 0.19481810831960722,
      "lat": 24.996081,
      "lon": 119.441347
    },
    {
      "city": "臺北市",
      "town": "松山區",
      "name": "松山",
      "temp": 17.4,
      "at": 15.259290235967814,
      "lat": 25.050492,
      "lon": 121.542203
    },
    {
      "city": "苗栗縣",
      "town": "後龍鎮",
      "name": "高鐵苗栗",
      "temp": 21.5,
      "at": 21.048655314436132,
      "lat": 24.609,
      "lon": 120.817906
    },
    {
      "city": "雲林縣",
      "town": "虎尾鎮",
      "name": "高鐵雲林",
      "temp": 21.0,
      "at": 21.024884509457355,
      "lat": 23.739206,
      "lon": 120.409817
    },
    {
      "city": "桃園市",
      "town": "龜山區",
      "name": "國一五楊N44K",
      "temp": 17.0,
      "at": 15.71407512187388,
      "lat": 25.065633,
      "lon": 121.332769
    },
    {
      "city": "基隆市",
      "town": "中正區",
      "name": "基隆嶼",
      "temp": 15.9,
      "at": 12.084819495625052,
      "lat": 25.1932,
      "lon": 121.775678
    },
    {
      "city": "臺東縣",
      "town": "蘭嶼鄉",
      "name": "蘭嶼高中",
      "temp": 20.7,
      "at": 19.706553169684543,
      "lat": 22.050931,
      "lon": 121.504119
    },
    {
      "city": "臺東縣",
      "town": "蘭嶼鄉",
      "name": "蘭嶼燈塔",
      "temp": 19.2,
      "at": 19.458927268328736,
      "lat": 22.083031,
      "lon": 121.495094
    },
    {
      "city": "新北市",
      "town": "石門區",
      "name": "白沙灣",
      "temp": 17.0,
      "at": 14.07484125661934,
      "lat": 25.284903,
      "lon": 121.510814
    },
    {
      "city": "高雄市",
      "town": "甲仙區",
      "name": "小林",
      "temp": 25.1,
      "at": 26.236185121577957,
      "lat": 23.150164,
      "lon": 120.625189
    },
    {
      "city": "桃園市",
      "town": "大溪區",
      "name": "大溪永福",
      "temp": 20.0,
      "at": 19.52575016045843,
      "lat": 24.894711,
      "lon": 121.316761
    },
    {
      "city": "宜蘭縣",
      "town": "大同鄉",
      "name": "玉蘭",
      "temp": 12.6,
      "at": 12.627392024565495,
      "lat": 24.677222,
      "lon": 121.578889
    },
    {
      "city": "宜蘭縣",
      "town": "五結鄉",
      "name": "五結",
      "temp": 14.4,
      "at": 14.740545349313695,
      "lat": 24.688722,
      "lon": 121.790222
    },
    {
      "city": "宜蘭縣",
      "town": "大同鄉",
      "name": "太平山",
      "temp": 5.8,
      "at": 4.599441429974906,
      "lat": 24.507222,
      "lon": 121.5175
    },
    {
      "city": "宜蘭縣",
      "town": "大同鄉",
      "name": "南山",
      "temp": 8.6,
      "at": 6.952007314326293,
      "lat": 24.439167,
      "lon": 121.373333
    },
    {
      "city": "宜蘭縣",
      "town": "員山鄉",
      "name": "雙連埤",
      "temp": 11.4,
      "at": 11.840658913041224,
      "lat": 24.754722,
      "lon": 121.633056
    },
    {
      "city": "宜蘭縣",
      "town": "頭城鎮",
      "name": "頭城",
      "temp": 15.1,
      "at": 16.41283009543007,
      "lat": 24.855031,
      "lon": 121.822586
    },
    {
      "city": "宜蘭縣",
      "town": "礁溪鄉",
      "name": "大礁溪",
      "temp": 11.9,
      "at": 12.093803961502402,
      "lat": 24.792836,
      "lon": 121.666839
    },
    {
      "city": "宜蘭縣",
      "town": "三星鄉",
      "name": "三星",
      "temp": 14.7,
      "at": 15.267350360854255,
      "lat": 24.669917,
      "lon": 121.644819
    },
    {
      "city": "宜蘭縣",
      "town": "員山鄉",
      "name": "內城",
      "temp": 15.4,
      "at": 16.355136165510856,
      "lat": 24.719928,
      "lon": 121.679461
    },
    {
      "city": "宜蘭縣",
      "town": "冬山鄉",
      "name": "冬山",
      "temp": 14.5,
      "at": 14.787119609629276,
      "lat": 24.635528,
      "lon": 121.7855
    },
    {
      "city": "宜蘭縣",
      "town": "礁溪鄉",
      "name": "礁溪",
      "temp": 15.8,
      "at": 16.765363827263094,
      "lat": 24.819336,
      "lon": 121.757397
    },
    {
      "city": "宜蘭縣",
      "town": "頭城鎮",
      "name": "龜山島",
      "temp": 12.3,
      "at": 10.719509841490648,
      "lat": 24.843392,
      "lon": 121.944947
    },
    {
      "city": "新北市",
      "town": "貢寮區",
      "name": "三貂角",
      "temp": 14.9,
      "at": 12.676403444388395,
      "lat": 25.009444,
      "lon": 121.993889
    },
    {
      "city": "宜蘭縣",
      "town": "羅東鎮",
      "name": "羅東",
      "temp": 15.0,
      "at": 16.39111430686762,
      "lat": 24.683636,
      "lon": 121.741144
    },
    {
      "city": "宜蘭縣",
      "town": "頭城鎮",
      "name": "鶯子嶺",
      "temp": 8.4,
      "at": 3.6924711676443067,
      "lat": 24.899333,
      "lon": 121.784231
    },
    {
      "city": "宜蘭縣",
      "town": "壯圍鄉",
      "name": "大福",
      "temp": 14.7,
      "at": 14.567350360854256,
      "lat": 24.802436,
      "lon": 121.805683
    },
    {
      "city": "宜蘭縣",
      "town": "頭城鎮",
      "name": "坪林石牌",
      "temp": 11.1,
      "at": 9.773289723016541,
      "lat": 24.866578,
      "lon": 121.76575
    },
    {
      "city": "花蓮縣",
      "town": "秀林鄉",
      "name": "天祥",
      "temp": 15.0,
      "at": 13.629493170847255,
      "lat": 24.181389,
      "lon": 121.4875
    },
    {
      "city": "花蓮縣",
      "town": "壽豐鄉",
      "name": "東華",
      "temp": 17.1,
      "at": 19.520271436898472,
      "lat": 23.897056,
      "lon": 121.541694
    },
    {
      "city": "花蓮縣",
      "town": "壽豐鄉",
      "name": "鯉魚潭",
      "temp": 16.4,
      "at": 17.024657312643757,
      "lat": 23.937444,
      "lon": 121.500806
    },
    {
      "city": "花蓮縣",
      "town": "秀林鄉",
      "name": "水源",
      "temp": 13.4,
      "at": 13.739711061454766,
      "lat": 23.993718,
      "lon": 121.529043
    },
    {
      "city": "花蓮縣",
      "town": "鳳林鎮",
      "name": "鳳林山",
      "temp": 14.4,
      "at": 14.542766684036621,
      "lat": 23.737072,
      "lon": 121.411994
    },
    {
      "city": "花蓮縣",
      "town": "光復鄉",
      "name": "光復",
      "temp": 17.6,
      "at": 17.390777909387754,
      "lat": 23.662497,
      "lon": 121.416839
    },
    {
      "city": "花蓮縣",
      "town": "萬榮鄉",
      "name": "西林",
      "temp": 18.1,
      "at": 18.95310323496705,
      "lat": 23.813667,
      "lon": 121.433194
    },
    {
      "city": "花蓮縣",
      "town": "壽豐鄉",
      "name": "月眉山",
      "temp": 13.3,
      "at": 14.330649337380326,
      "lat": 23.811736,
      "lon": 121.531686
    },
    {
      "city": "花蓮縣",
      "town": "壽豐鄉",
      "name": "大坑",
      "temp": 13.4,
      "at": 14.253522405802943,
      "lat": 23.882433,
      "lon": 121.573839
    },
    {
      "city": "花蓮縣",
      "town": "豐濱鄉",
      "name": "加路蘭山",
      "temp": 10.8,
      "at": 9.03743475802481,
      "lat": 23.684706,
      "lon": 121.519219
    },
    {
      "city": "花蓮縣",
      "town": "壽豐鄉",
      "name": "水璉",
      "temp": 15.2,
      "at": 16.774587146166418,
      "lat": 23.798889,
      "lon": 121.534167
    },
    {
      "city": "花蓮縣",
      "town": "豐濱鄉",
      "name": "豐濱",
      "temp": 16.2,
      "at": 17.078780122255527,
      "lat": 23.585708,
      "lon": 121.506678
    },
    {
      "city": "花蓮縣",
      "town": "富里鄉",
      "name": "明里",
      "temp": 16.6,
      "at": 17.41266900533067,
      "lat": 23.210556,
      "lon": 121.254167
    },
    {
      "city": "花蓮縣",
      "town": "玉里鎮",
      "name": "玉里",
      "temp": 17.1,
      "at": 16.655203577673852,
      "lat": 23.323306,
      "lon": 121.331556
    },
    {
      "city": "花蓮縣",
      "town": "瑞穗鄉",
      "name": "舞鶴",
      "temp": 15.7,
      "at": 16.7874083146066,
      "lat": 23.469722,
      "lon": 121.365833
    },
    {
      "city": "花蓮縣",
      "town": "卓溪鄉",
      "name": "佳心",
      "temp": 11.4,
      "at": 11.4018457347804,
      "lat": 23.347464,
      "lon": 121.205061
    },
    {
      "city": "花蓮縣",
      "town": "光復鄉",
      "name": "富源",
      "temp": 17.4,
      "at": 18.056182056195535,
      "lat": 23.58975,
      "lon": 121.370389
    },
    {
      "city": "花蓮縣",
      "town": "吉安鄉",
      "name": "吉安光華",
      "temp": 17.3,
      "at": 16.63145398940047,
      "lat": 23.932733,
      "lon": 121.587003
    },
    {
      "city": "花蓮縣",
      "town": "鳳林鎮",
      "name": "鳳林",
      "temp": 17.7,
      "at": 16.697512024473316,
      "lat": 23.747917,
      "lon": 121.445278
    },
    {
      "city": "花蓮縣",
      "town": "卓溪鄉",
      "name": "卓溪",
      "temp": 16.0,
      "at": 13.929803107043778,
      "lat": 23.346133,
      "lon": 121.294748
    },
    {
      "city": "花蓮縣",
      "town": "新城鄉",
      "name": "新城",
      "temp": 17.0,
      "at": 17.14863914004093,
      "lat": 24.042289,
      "lon": 121.596724
    },
    {
      "city": "花蓮縣",
      "town": "秀林鄉",
      "name": "富世",
      "temp": 17.3,
      "at": 17.75145398940047,
      "lat": 24.149236,
      "lon": 121.621542
    },
    {
      "city": "花蓮縣",
      "town": "鳳林鎮",
      "name": "萬榮",
      "temp": 17.9,
      "at": 16.74653060098377,
      "lat": 23.711022,
      "lon": 121.411969
    },
    {
      "city": "花蓮縣",
      "town": "瑞穗鄉",
      "name": "瑞穗",
      "temp": 17.2,
      "at": 17.103393274687622,
      "lat": 23.525708,
      "lon": 121.382086
    },
    {
      "city": "花蓮縣",
      "town": "卓溪鄉",
      "name": "瑞穗林道",
      "temp": 9.9,
      "at": 9.838357575300039,
      "lat": 23.494642,
      "lon": 121.298764
    },
    {
      "city": "花蓮縣",
      "town": "壽豐鄉",
      "name": "蕃薯寮",
      "temp": 13.7,
      "at": 12.976744550483133,
      "lat": 23.740156,
      "lon": 121.531975
    },
    {
      "city": "花蓮縣",
      "town": "玉里鎮",
      "name": "德武",
      "temp": 16.3,
      "at": 17.067221550409137,
      "lat": 23.476069,
      "lon": 121.402597
    },
    {
      "city": "花蓮縣",
      "town": "玉里鎮",
      "name": "赤柯山",
      "temp": 10.3,
      "at": 9.307647284223071,
      "lat": 23.370733,
      "lon": 121.374825
    },
    {
      "city": "花蓮縣",
      "town": "富里鄉",
      "name": "東里",
      "temp": 16.8,
      "at": 14.976598995784514,
      "lat": 23.270336,
      "lon": 121.297364
    },
    {
      "city": "花蓮縣",
      "town": "秀林鄉",
      "name": "清水斷崖",
      "temp": 17.5,
      "at": 17.833279204333394,
      "lat": 24.2201,
      "lon": 121.680972
    },
    {
      "city": "花蓮縣",
      "town": "卓溪鄉",
      "name": "清水林道",
      "temp": 13.3,
      "at": 13.777277910268488,
      "lat": 23.273047,
      "lon": 121.180172
    },
    {
      "city": "花蓮縣",
      "town": "玉里鎮",
      "name": "安通山",
      "temp": 14.3,
      "at": 14.431171262299287,
      "lat": 23.292536,
      "lon": 121.340419
    },
    {
      "city": "花蓮縣",
      "town": "豐濱鄉",
      "name": "靜浦",
      "temp": 16.6,
      "at": 17.57568147617356,
      "lat": 23.456944,
      "lon": 121.486667
    },
    {
      "city": "臺東縣",
      "town": "長濱鄉",
      "name": "長濱",
      "temp": 17.1,
      "at": 18.032014435149794,
      "lat": 23.288611,
      "lon": 121.403889
    },
    {
      "city": "臺東縣",
      "town": "東河鄉",
      "name": "東河",
      "temp": 20.5,
      "at": 19.80694555244464,
      "lat": 22.973611,
      "lon": 121.298333
    },
    {
      "city": "臺東縣",
      "town": "綠島鄉",
      "name": "綠島",
      "temp": 16.9,
      "at": 12.35576198222531,
      "lat": 22.669025,
      "lon": 121.467267
    },
    {
      "city": "臺東縣",
      "town": "海端鄉",
      "name": "下馬",
      "temp": 14.9,
      "at": 14.622200891718112,
      "lat": 23.152222,
      "lon": 121.062222
    },
    {
      "city": "臺東縣",
      "town": "海端鄉",
      "name": "向陽",
      "temp": 7.4,
      "at": 6.793484100084946,
      "lat": 23.25,
      "lon": 120.978056
    },
    {
      "city": "臺東縣",
      "town": "海端鄉",
      "name": "紅石",
      "temp": 9.4,
      "at": 8.679563306864825,
      "lat": 23.070902,
      "lon": 121.11777
    },
    {
      "city": "臺東縣",
      "town": "池上鄉",
      "name": "池上",
      "temp": 17.2,
      "at": 16.50573451359965,
      "lat": 23.121389,
      "lon": 121.201667
    },
    {
      "city": "臺東縣",
      "town": "鹿野鄉",
      "name": "鹿野",
      "temp": 18.0,
      "at": 16.79230207532698,
      "lat": 22.919517,
      "lon": 121.114908
    },
    {
      "city": "臺東縣",
      "town": "達仁鄉",
      "name": "土阪",
      "temp": 20.6,
      "at": 19.981162801799634,
      "lat": 22.454908,
      "lon": 120.879528
    },
    {
      "city": "臺東縣",
      "town": "太麻里鄉",
      "name": "大溪山",
      "temp": 17.7,
      "at": 17.427663431841673,
      "lat": 22.48,
      "lon": 120.935278
    },
    {
      "city": "臺東縣",
      "town": "達仁鄉",
      "name": "南田",
      "temp": 22.0,
      "at": 21.099689155164906,
      "lat": 22.291944,
      "lon": 120.881944
    },
    {
      "city": "臺東縣",
      "town": "太麻里鄉",
      "name": "金崙",
      "temp": 20.4,
      "at": 21.275531543624584,
      "lat": 22.54,
      "lon": 120.958889
    },
    {
      "city": "臺東縣",
      "town": "太麻里鄉",
      "name": "太麻里",
      "temp": 18.1,
      "at": 16.92310323496705,
      "lat": 22.610825,
      "lon": 120.977275
    },
    {
      "city": "臺東縣",
      "town": "卑南鄉",
      "name": "知本",
      "temp": 17.4,
      "at": 17.528166884845906,
      "lat": 22.686667,
      "lon": 120.997583
    },
    {
      "city": "花蓮縣",
      "town": "富里鄉",
      "name": "富里",
      "temp": 17.3,
      "at": 16.441377463642553,
      "lat": 23.173442,
      "lon": 121.241286
    },
    {
      "city": "桃園市",
      "town": "中壢區",
      "name": "中壢",
      "temp": 17.2,
      "at": 13.275026784938369,
      "lat": 24.979428,
      "lon": 121.248156
    },
    {
      "city": "臺南市",
      "town": "柳營區",
      "name": "柳營",
      "temp": 21.4,
      "at": 20.585208939942383,
      "lat": 23.255089,
      "lon": 120.367158
    },
    {
      "city": "新竹縣",
      "town": "關西鎮",
      "name": "關西",
      "temp": 20.1,
      "at": 19.549071565238712,
      "lat": 24.799421,
      "lon": 121.165033
    },
    {
      "city": "嘉義縣",
      "town": "阿里山鄉",
      "name": "新美",
      "temp": 22.9,
      "at": 23.48164394406834,
      "lat": 23.339792,
      "lon": 120.675231
    },
    {
      "city": "彰化縣",
      "town": "永靖鄉",
      "name": "永靖",
      "temp": 21.9,
      "at": 21.69706874844375,
      "lat": 23.926458,
      "lon": 120.539392
    },
    {
      "city": "彰化縣",
      "town": "竹塘鄉",
      "name": "竹塘",
      "temp": 21.4,
      "at": 19.157443114427128,
      "lat": 23.85,
      "lon": 120.378628
    },
    {
      "city": "屏東縣",
      "town": "車城鄉",
      "name": "車城",
      "temp": 23.2,
      "at": 18.44431373626601,
      "lat": 22.075833,
      "lon": 120.708056
    },
    {
      "city": "屏東縣",
      "town": "春日鄉",
      "name": "大漢山",
      "temp": 9.0,
      "at": 5.562866155843196,
      "lat": 22.405861,
      "lon": 120.745083
    },
    {
      "city": "屏東縣",
      "town": "枋山鄉",
      "name": "枋山",
      "temp": 21.7,
      "at": 21.650386903154413,
      "lat": 22.248639,
      "lon": 120.653058
    },
    {
      "city": "屏東縣",
      "town": "枋寮鄉",
      "name": "枋寮",
      "temp": 20.8,
      "at": 21.38919062298528,
      "lat": 22.369511,
      "lon": 120.582611
    },
    {
      "city": "屏東縣",
      "town": "枋山鄉",
      "name": "楓港",
      "temp": 22.3,
      "at": 20.425037964804456,
      "lat": 22.191928,
      "lon": 120.684131
    },
    {
      "city": "屏東縣",
      "town": "滿州鄉",
      "name": "檳榔",
      "temp": 18.6,
      "at": 16.67407686484053,
      "lat": 22.077883,
      "lon": 120.828758
    },
    {
      "city": "屏東縣",
      "town": "牡丹鄉",
      "name": "牡丹",
      "temp": 20.1,
      "at": 18.525816147409955,
      "lat": 22.131817,
      "lon": 120.784589
    },
    {
      "city": "屏東縣",
      "town": "滿州鄉",
      "name": "佳樂水",
      "temp": 20.0,
      "at": 14.37290647063034,
      "lat": 21.995386,
      "lon": 120.853619
    },
    {
      "city": "屏東縣",
      "town": "恆春鎮",
      "name": "墾丁",
      "temp": 19.2,
      "at": 19.02920700561806,
      "lat": 21.968561,
      "lon": 120.802258
    },
    {
      "city": "屏東縣",
      "town": "牡丹鄉",
      "name": "旭海",
      "temp": 19.2,
      "at": 15.516246655337156,
      "lat": 22.207208,
      "lon": 120.879586
    },
    {
      "city": "屏東縣",
      "town": "恆春鎮",
      "name": "貓鼻頭",
      "temp": 21.7,
      "at": 18.764952804537927,
      "lat": 21.923578,
      "lon": 120.727792
    },
    {
      "city": "屏東縣",
      "town": "恆春鎮",
      "name": "墾雷",
      "temp": 21.5,
      "at": 20.471777406824817,
      "lat": 21.90265,
      "lon": 120.847244
    },
    {
      "city": "屏東縣",
      "town": "牡丹鄉",
      "name": "四林格山",
      "temp": 18.5,
      "at": 12.339124761578738,
      "lat": 22.078792,
      "lon": 120.794419
    },
    {
      "city": "屏東縣",
      "town": "恆春鎮",
      "name": "大坪頂",
      "temp": 21.5,
      "at": 18.730216360630475,
      "lat": 22.026433,
      "lon": 120.685536
    },
    {
      "city": "屏東縣",
      "town": "恆春鎮",
      "name": "龍磐",
      "temp": 20.0,
      "at": 14.645941624373172,
      "lat": 21.933481,
      "lon": 120.830933
    },
    {
      "city": "屏東縣",
      "town": "獅子鄉",
      "name": "獅子",
      "temp": 22.7,
      "at": 20.914083102087954,
      "lat": 22.204106,
      "lon": 120.69721
    },
    {
      "city": "宜蘭縣",
      "town": "南澳鄉",
      "name": "東澳",
      "temp": 14.8,
      "at": 16.17762948925963,
      "lat": 24.523767,
      "lon": 121.824986
    },
    {
      "city": "宜蘭縣",
      "town": "南澳鄉",
      "name": "南澳",
      "temp": 16.2,
      "at": 16.72430772164913,
      "lat": 24.451153,
      "lon": 121.802036
    },
    {
      "city": "花蓮縣",
      "town": "秀林鄉",
      "name": "和中",
      "temp": 17.0,
      "at": 17.262053956089794,
      "lat": 24.268567,
      "lon": 121.732861
    },
    {
      "city": "宜蘭縣",
      "town": "大同鄉",
      "name": "翠峰湖",
      "temp": 5.5,
      "at": 3.7772760502878304,
      "lat": 24.51265,
      "lon": 121.599858
    },
    {
      "city": "花蓮縣",
      "town": "秀林鄉",
      "name": "和平林道",
      "temp": 13.6,
      "at": 14.090746181973596,
      "lat": 24.345722,
      "lon": 121.648142
    },
    {
      "city": "花蓮縣",
      "town": "秀林鄉",
      "name": "和平",
      "temp": 17.2,
      "at": 15.633465958997014,
      "lat": 24.308961,
      "lon": 121.761903
    },
    {
      "city": "宜蘭縣",
      "town": "南澳鄉",
      "name": "樟樹山",
      "temp": 12.8,
      "at": 12.81086083860485,
      "lat": 24.415731,
      "lon": 121.775067
    },
    {
      "city": "宜蘭縣",
      "town": "頭城鎮",
      "name": "桃源谷",
      "temp": 11.0,
      "at": 9.084504267572372,
      "lat": 24.964408,
      "lon": 121.880658
    },
    {
      "city": "宜蘭縣",
      "town": "南澳鄉",
      "name": "西帽山",
      "temp": 9.7,
      "at": 9.175228610410242,
      "lat": 24.557164,
      "lon": 121.794436
    },
    {
      "city": "宜蘭縣",
      "town": "南澳鄉",
      "name": "西德山",
      "temp": 8.8,
      "at": 7.832136955766792,
      "lat": 24.562447,
      "lon": 121.744417
    },
    {
      "city": "新北市",
      "town": "烏來區",
      "name": "福山植物園",
      "temp": 10.9,
      "at": 10.759968498413025,
      "lat": 24.762506,
      "lon": 121.573147
    },
    {
      "city": "宜蘭縣",
      "town": "大同鄉",
      "name": "鴛鴦湖",
      "temp": 6.4,
      "at": 5.498453191627622,
      "lat": 24.592053,
      "lon": 121.404039
    },
    {
      "city": "宜蘭縣",
      "town": "大同鄉",
      "name": "白嶺",
      "temp": 7.2,
      "at": 6.547384357063663,
      "lat": 24.529611,
      "lon": 121.510844
    },
    {
      "city": "宜蘭縣",
      "town": "大同鄉",
      "name": "土場",
      "temp": 13.0,
      "at": 13.517830705528795,
      "lat": 24.578356,
      "lon": 121.487153
    },
    {
      "city": "宜蘭縣",
      "town": "員山鄉",
      "name": "員山",
      "temp": 15.8,
      "at": 16.017140878994926,
      "lat": 24.746147,
      "lon": 121.714269
    },
    {
      "city": "桃園市",
      "town": "蘆竹區",
      "name": "蘆竹",
      "temp": 18.7,
      "at": 14.618590256471975,
      "lat": 25.086111,
      "lon": 121.2575
    },
    {
      "city": "新竹縣",
      "town": "橫山鄉",
      "name": "橫山",
      "temp": 22.0,
      "at": 22.940617153879018,
      "lat": 24.712925,
      "lon": 121.108733
    },
    {
      "city": "新竹縣",
      "town": "五峰鄉",
      "name": "雪霸",
      "temp": 11.5,
      "at": 10.62908567128882,
      "lat": 24.528722,
      "lon": 121.107917
    },
    {
      "city": "新竹縣",
      "town": "竹東鎮",
      "name": "竹東",
      "temp": 21.8,
      "at": 21.499748386885667,
      "lat": 24.76925,
      "lon": 121.049861
    },
    {
      "city": "桃園市",
      "town": "平鎮區",
      "name": "平鎮",
      "temp": 18.2,
      "at": 16.13691351454758,
      "lat": 24.899444,
      "lon": 121.206389
    },
    {
      "city": "桃園市",
      "town": "大溪區",
      "name": "大溪",
      "temp": 17.3,
      "at": 14.931262675005673,
      "lat": 24.884722,
      "lon": 121.256944
    },
    {
      "city": "新竹縣",
      "town": "寶山鄉",
      "name": "寶山",
      "temp": 21.4,
      "at": 22.34909185270001,
      "lat": 24.736722,
      "lon": 121.016769
    },
    {
      "city": "桃園市",
      "town": "楊梅區",
      "name": "楊梅",
      "temp": 18.1,
      "at": 15.540962462958195,
      "lat": 24.914139,
      "lon": 121.134833
    },
    {
      "city": "新竹縣",
      "town": "湖口鄉",
      "name": "湖口",
      "temp": 18.9,
      "at": 15.921186811563885,
      "lat": 24.906556,
      "lon": 121.035417
    },
    {
      "city": "桃園市",
      "town": "龍潭區",
      "name": "龍潭",
      "temp": 17.3,
      "at": 15.271300937884632,
      "lat": 24.871833,
      "lon": 121.213194
    },
    {
      "city": "新竹市",
      "town": "東區",
      "name": "新竹市東區",
      "temp": 19.8,
      "at": 18.51703376670075,
      "lat": 24.800436,
      "lon": 120.978742
    },
    {
      "city": "臺中市",
      "town": "和平區",
      "name": "桃山A",
      "temp": 0.9,
      "at": -0.9497416860508006,
      "lat": 24.434519,
      "lon": 121.295628
    },
    {
      "city": "臺中市",
      "town": "和平區",
      "name": "雪山東峰A",
      "temp": 5.0,
      "at": 2.4066839760584484,
      "lat": 24.390581,
      "lon": 121.263286
    },
    {
      "city": "臺中市",
      "town": "和平區",
      "name": "雪山圈谷A",
      "temp": 0.7,
      "at": -1.5408604499840122,
      "lat": 24.390375,
      "lon": 121.228197
    },
    {
      "city": "桃園市",
      "town": "龜山區",
      "name": "龜山",
      "temp": 15.8,
      "at": 12.028691715251824,
      "lat": 25.030231,
      "lon": 121.378336
    },
    {
      "city": "臺中市",
      "town": "和平區",
      "name": "審馬陣A",
      "temp": 1.6,
      "at": -3.7313673208995812,
      "lat": 24.383461,
      "lon": 121.412122
    },
    {
      "city": "苗栗縣",
      "town": "銅鑼鄉",
      "name": "銅鑼",
      "temp": 22.3,
      "at": 21.820590708152274,
      "lat": 24.491528,
      "lon": 120.782639
    },
    {
      "city": "臺中市",
      "town": "大安區",
      "name": "大安",
      "temp": 19.0,
      "at": 15.504038547657359,
      "lat": 24.347444,
      "lon": 120.579972
    },
    {
      "city": "臺中市",
      "town": "豐原區",
      "name": "豐原",
      "temp": 22.5,
      "at": 22.842543598366493,
      "lat": 24.256306,
      "lon": 120.712333
    },
    {
      "city": "臺中市",
      "town": "潭子區",
      "name": "潭子",
      "temp": 21.2,
      "at": 20.867475774615002,
      "lat": 24.21475,
      "lon": 120.695833
    },
    {
      "city": "臺中市",
      "town": "清水區",
      "name": "清水",
      "temp": 19.4,
      "at": 17.502619798092706,
      "lat": 24.314028,
      "lon": 120.554083
    },
    {
      "city": "臺中市",
      "town": "外埔區",
      "name": "外埔",
      "temp": 21.8,
      "at": 20.56144528512028,
      "lat": 24.349556,
      "lon": 120.697472
    },
    {
      "city": "臺中市",
      "town": "龍井區",
      "name": "龍井",
      "temp": 20.0,
      "at": 18.041820467944103,
      "lat": 24.186278,
      "lon": 120.520833
    },
    {
      "city": "彰化縣",
      "town": "伸港鄉",
      "name": "伸港",
      "temp": 19.7,
      "at": 16.889592999098912,
      "lat": 24.150528,
      "lon": 120.476167
    },
    {
      "city": "苗栗縣",
      "town": "苑裡鎮",
      "name": "苑裡",
      "temp": 19.3,
      "at": 16.579206891774778,
      "lat": 24.441458,
      "lon": 120.644883
    },
    {
      "city": "臺中市",
      "town": "石岡區",
      "name": "石岡",
      "temp": 20.5,
      "at": 19.91881748494705,
      "lat": 24.277822,
      "lon": 120.769478
    },
    {
      "city": "臺中市",
      "town": "和平區",
      "name": "中坑",
      "temp": 18.4,
      "at": 19.136527593473293,
      "lat": 24.250283,
      "lon": 120.895153
    },
    {
      "city": "南投縣",
      "town": "魚池鄉",
      "name": "魚池",
      "temp": 23.4,
      "at": 23.26649795279054,
      "lat": 23.897478,
      "lon": 120.933219
    },
    {
      "city": "南投縣",
      "town": "國姓鄉",
      "name": "國姓",
      "temp": 20.7,
      "at": 19.742964903510952,
      "lat": 24.039567,
      "lon": 120.846925
    },
    {
      "city": "南投縣",
      "town": "仁愛鄉",
      "name": "仁愛",
      "temp": 17.9,
      "at": 16.288729118971816,
      "lat": 24.023903,
      "lon": 121.124056
    },
    {
      "city": "南投縣",
      "town": "水里鄉",
      "name": "水里",
      "temp": 20.4,
      "at": 18.605534387142725,
      "lat": 23.814322,
      "lon": 120.841658
    },
    {
      "city": "南投縣",
      "town": "集集鎮",
      "name": "集集",
      "temp": 21.7,
      "at": 22.032348212838972,
      "lat": 23.829972,
      "lon": 120.793328
    },
    {
      "city": "南投縣",
      "town": "名間鄉",
      "name": "名間",
      "temp": 21.0,
      "at": 21.724884509457354,
      "lat": 23.838817,
      "lon": 120.693306
    },
    {
      "city": "南投縣",
      "town": "仁愛鄉",
      "name": "萬大林道",
      "temp": 16.0,
      "at": 13.842255524337048,
      "lat": 23.930008,
      "lon": 121.083267
    },
    {
      "city": "南投縣",
      "town": "仁愛鄉",
      "name": "梅峰",
      "temp": 9.4,
      "at": 8.221195236448002,
      "lat": 24.087056,
      "lon": 121.165414
    },
    {
      "city": "南投縣",
      "town": "信義鄉",
      "name": "玉山風口",
      "temp": 3.1,
      "at": -0.3212593057719788,
      "lat": 23.472294,
      "lon": 120.947853
    },
    {
      "city": "南投縣",
      "town": "仁愛鄉",
      "name": "小奇萊",
      "temp": 1.9,
      "at": -6.812763708790662,
      "lat": 24.13355,
      "lon": 121.287556
    },
    {
      "city": "臺中市",
      "town": "大里區",
      "name": "大里",
      "temp": 21.6,
      "at": 21.780285146510213,
      "lat": 24.094389,
      "lon": 120.692194
    },
    {
      "city": "臺中市",
      "town": "烏日區",
      "name": "烏日",
      "temp": 22.4,
      "at": 22.195870068158772,
      "lat": 24.108833,
      "lon": 120.615917
    },
    {
      "city": "臺中市",
      "town": "西屯區",
      "name": "西屯",
      "temp": 20.9,
      "at": 20.487078304655572,
      "lat": 24.182028,
      "lon": 120.632861
    },
    {
      "city": "臺中市",
      "town": "南屯區",
      "name": "南屯",
      "temp": 22.0,
      "at": 21.771545152593134,
      "lat": 24.138861,
      "lon": 120.630111
    },
    {
      "city": "彰化縣",
      "town": "福興鄉",
      "name": "福興",
      "temp": 21.1,
      "at": 19.846670759057556,
      "lat": 24.042972,
      "lon": 120.429528
    },
    {
      "city": "彰化縣",
      "town": "秀水鄉",
      "name": "秀水",
      "temp": 20.6,
      "at": 20.231564492626926,
      "lat": 24.035917,
      "lon": 120.495722
    },
    {
      "city": "彰化縣",
      "town": "埔鹽鄉",
      "name": "埔鹽",
      "temp": 20.6,
      "at": 19.131296698742066,
      "lat": 24.002167,
      "lon": 120.423583
    },
    {
      "city": "彰化縣",
      "town": "埔心鄉",
      "name": "埔心",
      "temp": 20.7,
      "at": 20.992606076893598,
      "lat": 23.948694,
      "lon": 120.517611
    },
    {
      "city": "彰化縣",
      "town": "田尾鄉",
      "name": "田尾",
      "temp": 21.8,
      "at": 23.419098883102688,
      "lat": 23.903417,
      "lon": 120.501389
    },
    {
      "city": "彰化縣",
      "town": "埤頭鄉",
      "name": "埤頭",
      "temp": 20.0,
      "at": 19.245750160458428,
      "lat": 23.867806,
      "lon": 120.444722
    },
    {
      "city": "彰化縣",
      "town": "社頭鄉",
      "name": "社頭",
      "temp": 21.6,
      "at": 22.63399927737663,
      "lat": 23.899417,
      "lon": 120.578083
    },
    {
      "city": "彰化縣",
      "town": "二水鄉",
      "name": "二水",
      "temp": 21.4,
      "at": 22.15180389303391,
      "lat": 23.812778,
      "lon": 120.609028
    },
    {
      "city": "新竹縣",
      "town": "尖石鄉",
      "name": "梅花",
      "temp": 18.9,
      "at": 18.80249394494326,
      "lat": 24.680119,
      "lon": 121.200361
    },
    {
      "city": "新北市",
      "town": "坪林區",
      "name": "坪林",
      "temp": 12.7,
      "at": 11.637077032385804,
      "lat": 24.939975,
      "lon": 121.701531
    },
    {
      "city": "新北市",
      "town": "雙溪區",
      "name": "泰平",
      "temp": 11.7,
      "at": 12.229565034815657,
      "lat": 24.973056,
      "lon": 121.815278
    },
    {
      "city": "新北市",
      "town": "汐止區",
      "name": "五指山",
      "temp": 10.2,
      "at": 4.0461709150733185,
      "lat": 25.133889,
      "lon": 121.600278
    },
    {
      "city": "新北市",
      "town": "三峽區",
      "name": "三峽",
      "temp": 19.4,
      "at": 17.638463624591342,
      "lat": 24.940806,
      "lon": 121.3615
    },
    {
      "city": "臺北市",
      "town": "信義區",
      "name": "信義",
      "temp": 17.9,
      "at": 16.33396102821178,
      "lat": 25.039606,
      "lon": 121.556372
    },
    {
      "city": "臺北市",
      "town": "文山區",
      "name": "文山",
      "temp": 17.6,
      "at": 14.878256300793652,
      "lat": 25.004083,
      "lon": 121.567528
    },
    {
      "city": "新北市",
      "town": "新莊區",
      "name": "新莊",
      "temp": 17.3,
      "at": 15.661147886368795,
      "lat": 25.05325,
      "lon": 121.438528
    },
    {
      "city": "新北市",
      "town": "樹林區",
      "name": "山佳",
      "temp": 18.7,
      "at": 14.1414999739997,
      "lat": 24.976719,
      "lon": 121.393789
    },
    {
      "city": "新北市",
      "town": "烏來區",
      "name": "桶後",
      "temp": 14.3,
      "at": 12.681171262299287,
      "lat": 24.850056,
      "lon": 121.589639
    },
    {
      "city": "新北市",
      "town": "雙溪區",
      "name": "雙溪",
      "temp": 15.6,
      "at": 17.085885104228804,
      "lat": 25.037861,
      "lon": 121.856056
    },
    {
      "city": "新北市",
      "town": "瑞芳區",
      "name": "鼻頭角",
      "temp": 17.1,
      "at": 9.689987291459946,
      "lat": 25.130833,
      "lon": 121.915278
    },
    {
      "city": "新北市",
      "town": "萬里區",
      "name": "大坪",
      "temp": 13.0,
      "at": 12.278499192566116,
      "lat": 25.167694,
      "lon": 121.62475
    },
    {
      "city": "新北市",
      "town": "金山區",
      "name": "三和",
      "temp": 14.8,
      "at": 14.097795217281735,
      "lat": 25.234933,
      "lon": 121.586997
    },
    {
      "city": "新北市",
      "town": "金山區",
      "name": "金山",
      "temp": 16.2,
      "at": 16.216001834808672,
      "lat": 25.225278,
      "lon": 121.635556
    },
    {
      "city": "新北市",
      "town": "石碇區",
      "name": "石碇",
      "temp": 15.0,
      "at": 15.016437815026478,
      "lat": 24.995758,
      "lon": 121.654639
    },
    {
      "city": "桃園市",
      "town": "復興區",
      "name": "復興",
      "temp": 18.7,
      "at": 18.533624980499773,
      "lat": 24.822,
      "lon": 121.344094
    },
    {
      "city": "桃園市",
      "town": "八德區",
      "name": "八德",
      "temp": 17.8,
      "at": 15.29730478058567,
      "lat": 24.930528,
      "lon": 121.275
    },
    {
      "city": "臺北市",
      "town": "內湖區",
      "name": "內湖",
      "temp": 18.8,
      "at": 16.579192462707297,
      "lat": 25.081206,
      "lon": 121.567222
    },
    {
      "city": "新北市",
      "town": "中和區",
      "name": "中和",
      "temp": 17.4,
      "at": 16.66385949720358,
      "lat": 24.993403,
      "lon": 121.483569
    },
    {
      "city": "基隆市",
      "town": "暖暖區",
      "name": "暖暖",
      "temp": 16.6,
      "at": 16.876066511162094,
      "lat": 25.097533,
      "lon": 121.732069
    },
    {
      "city": "臺北市",
      "town": "士林區",
      "name": "天母",
      "temp": 18.1,
      "at": 16.161221065872116,
      "lat": 25.119253,
      "lon": 121.528939
    },
    {
      "city": "臺北市",
      "town": "士林區",
      "name": "社子",
      "temp": 19.2,
      "at": 17.510605692064676,
      "lat": 25.111389,
      "lon": 121.461389
    },
    {
      "city": "臺北市",
      "town": "北投區",
      "name": "大屯山",
      "temp": 8.1,
      "at": 5.5592666084333935,
      "lat": 25.177333,
      "lon": 121.514167
    },
    {
      "city": "新北市",
      "town": "八里區",
      "name": "八里",
      "temp": 19.2,
      "at": 19.095966918047836,
      "lat": 25.15225,
      "lon": 121.395306
    },
    {
      "city": "新北市",
      "town": "蘆洲區",
      "name": "蘆洲",
      "temp": 17.7,
      "at": 15.510832740525952,
      "lat": 25.088528,
      "lon": 121.464056
    },
    {
      "city": "新北市",
      "town": "土城區",
      "name": "土城",
      "temp": 17.4,
      "at": 15.53015171349628,
      "lat": 24.974944,
      "lon": 121.436917
    },
    {
      "city": "新北市",
      "town": "鶯歌區",
      "name": "鶯歌",
      "temp": 18.3,
      "at": 13.194454301660237,
      "lat": 24.953,
      "lon": 121.33725
    },
    {
      "city": "新北市",
      "town": "永和區",
      "name": "永和",
      "temp": 19.1,
      "at": 16.4177895788454,
      "lat": 25.013028,
      "lon": 121.499889
    },
    {
      "city": "新北市",
      "town": "瑞芳區",
      "name": "五分山",
      "temp": 12.0,
      "at": 10.940031069992433,
      "lat": 25.073047,
      "lon": 121.772586
    },
    {
      "city": "臺北市",
      "town": "士林區",
      "name": "平等",
      "temp": 15.0,
      "at": 14.134122933633403,
      "lat": 25.130925,
      "lon": 121.568856
    },
    {
      "city": "新北市",
      "town": "林口區",
      "name": "林口",
      "temp": 15.3,
      "at": 10.6109749293865,
      "lat": 25.073953,
      "lon": 121.372611
    },
    {
      "city": "新北市",
      "town": "深坑區",
      "name": "深坑",
      "temp": 16.8,
      "at": 16.2576142237927,
      "lat": 25.004489,
      "lon": 121.620106
    },
    {
      "city": "基隆市",
      "town": "七堵區",
      "name": "七堵",
      "temp": 18.2,
      "at": 18.79452668158726,
      "lat": 25.096608,
      "lon": 121.708897
    },
    {
      "city": "新北市",
      "town": "五股區",
      "name": "五股",
      "temp": 16.9,
      "at": 15.351251469727668,
      "lat": 25.076228,
      "lon": 121.419053
    },
    {
      "city": "新北市",
      "town": "三重區",
      "name": "三重",
      "temp": 17.3,
      "at": 13.526549646597871,
      "lat": 25.059108,
      "lon": 121.4924
    },
    {
      "city": "臺北市",
      "town": "北投區",
      "name": "石牌",
      "temp": 18.5,
      "at": 17.727121765134623,
      "lat": 25.117336,
      "lon": 121.504825
    },
    {
      "city": "臺東縣",
      "town": "金峰鄉",
      "name": "金峰嘉蘭",
      "temp": 20.4,
      "at": 20.039980095373014,
      "lat": 22.596589,
      "lon": 120.952772
    },
    {
      "city": "臺東縣",
      "town": "延平鄉",
      "name": "延平",
      "temp": 19.8,
      "at": 19.271199907777657,
      "lat": 22.904381,
      "lon": 121.075983
    },
    {
      "city": "臺東縣",
      "town": "長濱鄉",
      "name": "石寧山",
      "temp": 17.9,
      "at": 18.394332082995728,
      "lat": 23.225581,
      "lon": 121.398542
    },
    {
      "city": "臺東縣",
      "town": "東河鄉",
      "name": "七塊厝",
      "temp": 18.3,
      "at": 18.02901970152378,
      "lat": 22.957525,
      "lon": 121.221089
    },
    {
      "city": "臺東縣",
      "town": "臺東市",
      "name": "知本(水試所)",
      "temp": 22.8,
      "at": 23.665649607881242,
      "lat": 22.704053,
      "lon": 121.074603
    },
    {
      "city": "臺東縣",
      "town": "太麻里鄉",
      "name": "香蘭",
      "temp": 21.5,
      "at": 19.485819143045163,
      "lat": 22.589372,
      "lon": 120.985322
    },
    {
      "city": "臺東縣",
      "town": "大武鄉",
      "name": "加津林",
      "temp": 21.9,
      "at": 19.300782209503367,
      "lat": 22.418014,
      "lon": 120.9189
    },
    {
      "city": "臺東縣",
      "town": "達仁鄉",
      "name": "勝林山",
      "temp": 15.7,
      "at": 15.58132414089118,
      "lat": 22.432239,
      "lon": 120.885742
    },
    {
      "city": "臺東縣",
      "town": "大武鄉",
      "name": "山豬窟",
      "temp": 18.2,
      "at": 15.021687180468216,
      "lat": 22.320422,
      "lon": 120.849339
    },
    {
      "city": "臺東縣",
      "town": "太麻里鄉",
      "name": "歷坵",
      "temp": 19.5,
      "at": 20.014021518354273,
      "lat": 22.522769,
      "lon": 120.883803
    },
    {
      "city": "臺東縣",
      "town": "卑南鄉",
      "name": "檳榔四格山",
      "temp": 20.7,
      "at": 21.863682556745673,
      "lat": 22.811789,
      "lon": 121.101247
    },
    {
      "city": "臺東縣",
      "town": "太麻里鄉",
      "name": "金崙山",
      "temp": 14.0,
      "at": 13.302979182522336,
      "lat": 22.569219,
      "lon": 120.951617
    },
    {
      "city": "臺東縣",
      "town": "成功鎮",
      "name": "都歷",
      "temp": 19.3,
      "at": 16.251388203882012,
      "lat": 23.022142,
      "lon": 121.315558
    },
    {
      "city": "臺東縣",
      "town": "達仁鄉",
      "name": "達仁林場",
      "temp": 19.7,
      "at": 20.036182141784423,
      "lat": 22.266147,
      "lon": 120.815942
    },
    {
      "city": "屏東縣",
      "town": "牡丹鄉",
      "name": "牡丹池山",
      "temp": 16.2,
      "at": 12.743252522861923,
      "lat": 22.170192,
      "lon": 120.8332
    },
    {
      "city": "屏東縣",
      "town": "牡丹鄉",
      "name": "高士",
      "temp": 17.1,
      "at": 13.598825292625733,
      "lat": 22.123631,
      "lon": 120.828758
    },
    {
      "city": "屏東縣",
      "town": "來義鄉",
      "name": "白鷺",
      "temp": 23.0,
      "at": 23.98695179780614,
      "lat": 22.456067,
      "lon": 120.658178
    },
    {
      "city": "屏東縣",
      "town": "獅子鄉",
      "name": "內獅",
      "temp": 20.9,
      "at": 21.703589080545058,
      "lat": 22.306856,
      "lon": 120.634956
    },
    {
      "city": "屏東縣",
      "town": "獅子鄉",
      "name": "丹路",
      "temp": 21.0,
      "at": 18.6674726056214,
      "lat": 22.206281,
      "lon": 120.742964
    },
    {
      "city": "屏東縣",
      "town": "滿州鄉",
      "name": "九棚",
      "temp": 19.7,
      "at": 8.777280332232007,
      "lat": 22.143756,
      "lon": 120.886331
    },
    {
      "city": "屏東縣",
      "town": "滿州鄉",
      "name": "滿州",
      "temp": 19.9,
      "at": 15.763268365608187,
      "lat": 22.026208,
      "lon": 120.831875
    },
    {
      "city": "屏東縣",
      "town": "車城鄉",
      "name": "保力",
      "temp": 22.5,
      "at": 21.93039982974484,
      "lat": 22.072925,
      "lon": 120.756094
    },
    {
      "city": "屏東縣",
      "town": "滿州鄉",
      "name": "南仁湖",
      "temp": 17.4,
      "at": 12.227905011252467,
      "lat": 22.086486,
      "lon": 120.855333
    },
    {
      "city": "南投縣",
      "town": "仁愛鄉",
      "name": "合歡山",
      "temp": 0.0,
      "at": -5.205349999999999,
      "lat": 24.144778,
      "lon": 121.264083
    },
    {
      "city": "臺中市",
      "town": "北屯區",
      "name": "大坑",
      "temp": 22.2,
      "at": 23.098357808663337,
      "lat": 24.174889,
      "lon": 120.714139
    },
    {
      "city": "彰化縣",
      "town": "溪湖鎮",
      "name": "溪湖",
      "temp": 22.0,
      "at": 21.752576010287083,
      "lat": 23.95175,
      "lon": 120.471056
    },
    {
      "city": "彰化縣",
      "town": "員林市",
      "name": "員林",
      "temp": 25.3,
      "at": 26.855401562805604,
      "lat": 23.948333,
      "lon": 120.577528
    },
    {
      "city": "南投縣",
      "town": "草屯鎮",
      "name": "草屯",
      "temp": 20.6,
      "at": 20.9423678742815,
      "lat": 23.975444,
      "lon": 120.672194
    },
    {
      "city": "彰化縣",
      "town": "芬園鄉",
      "name": "芬園",
      "temp": 22.2,
      "at": 22.08220753939909,
      "lat": 24.017222,
      "lon": 120.613056
    },
    {
      "city": "臺中市",
      "town": "東勢區",
      "name": "東勢",
      "temp": 21.7,
      "at": 21.9160459169895,
      "lat": 24.248194,
      "lon": 120.824917
    },
    {
      "city": "南投縣",
      "town": "竹山鎮",
      "name": "竹山",
      "temp": 20.2,
      "at": 21.47619240985592,
      "lat": 23.764722,
      "lon": 120.677778
    },
    {
      "city": "苗栗縣",
      "town": "泰安鄉",
      "name": "馬都安",
      "temp": 16.1,
      "at": 16.309800113393898,
      "lat": 24.453056,
      "lon": 120.921944
    },
    {
      "city": "苗栗縣",
      "town": "頭屋鄉",
      "name": "明德",
      "temp": 21.9,
      "at": 22.39706874844375,
      "lat": 24.58525,
      "lon": 120.877222
    },
    {
      "city": "苗栗縣",
      "town": "通霄鎮",
      "name": "通霄",
      "temp": 22.3,
      "at": 21.4936497789675,
      "lat": 24.473639,
      "lon": 120.696444
    },
    {
      "city": "臺中市",
      "town": "神岡區",
      "name": "神岡",
      "temp": 20.2,
      "at": 18.985291143126418,
      "lat": 24.274222,
      "lon": 120.650306
    },
    {
      "city": "苗栗縣",
      "town": "卓蘭鎮",
      "name": "卓蘭",
      "temp": 21.3,
      "at": 21.155538213650246,
      "lat": 24.314319,
      "lon": 120.816192
    },
    {
      "city": "臺中市",
      "town": "新社區",
      "name": "新社",
      "temp": 20.3,
      "at": 19.069435773153273,
      "lat": 24.201583,
      "lon": 120.8075
    },
    {
      "city": "南投縣",
      "town": "埔里鎮",
      "name": "埔里",
      "temp": 23.6,
      "at": 23.220946277829373,
      "lat": 23.973944,
      "lon": 120.944278
    },
    {
      "city": "南投縣",
      "town": "仁愛鄉",
      "name": "昆陽",
      "temp": 1.1,
      "at": -4.59034805208964,
      "lat": 24.123139,
      "lon": 121.265361
    },
    {
      "city": "南投縣",
      "town": "仁愛鄉",
      "name": "廬山",
      "temp": 16.9,
      "at": 16.09353153749293,
      "lat": 24.035,
      "lon": 121.173333
    },
    {
      "city": "臺中市",
      "town": "大雅區",
      "name": "大雅(中科園區)",
      "temp": 20.9,
      "at": 20.148430555614446,
      "lat": 24.217056,
      "lon": 120.616239
    },
    {
      "city": "南投縣",
      "town": "南投市",
      "name": "南投",
      "temp": 20.2,
      "at": 19.561134181230635,
      "lat": 23.913208,
      "lon": 120.679183
    },
    {
      "city": "彰化縣",
      "town": "花壇鄉",
      "name": "花壇",
      "temp": 20.7,
      "at": 19.634041383363034,
      "lat": 24.032075,
      "lon": 120.541314
    },
    {
      "city": "彰化縣",
      "town": "線西鄉",
      "name": "線西",
      "temp": 18.9,
      "at": 15.38380107832264,
      "lat": 24.141081,
      "lon": 120.435381
    },
    {
      "city": "臺中市",
      "town": "霧峰區",
      "name": "霧峰",
      "temp": 22.1,
      "at": 22.37231258240757,
      "lat": 24.043658,
      "lon": 120.691323
    },
    {
      "city": "雲林縣",
      "town": "虎尾鎮",
      "name": "虎尾",
      "temp": 20.7,
      "at": 21.10152959704152,
      "lat": 23.720939,
      "lon": 120.433911
    },
    {
      "city": "雲林縣",
      "town": "口湖鄉",
      "name": "宜梧",
      "temp": 20.1,
      "at": 17.463955347111213,
      "lat": 23.538014,
      "lon": 120.1612
    },
    {
      "city": "嘉義縣",
      "town": "義竹鄉",
      "name": "東後寮",
      "temp": 20.5,
      "at": 19.451937372451056,
      "lat": 23.371644,
      "lon": 120.239936
    },
    {
      "city": "臺南市",
      "town": "東山區",
      "name": "東河",
      "temp": 20.3,
      "at": 19.892628288291267,
      "lat": 23.298339,
      "lon": 120.377492
    },
    {
      "city": "臺南市",
      "town": "佳里區",
      "name": "佳里",
      "temp": 23.1,
      "at": 22.349480570981292,
      "lat": 23.175,
      "lon": 120.136667
    },
    {
      "city": "彰化縣",
      "town": "二林鎮",
      "name": "二林",
      "temp": 19.7,
      "at": 16.38849480865133,
      "lat": 23.905067,
      "lon": 120.367928
    },
    {
      "city": "臺南市",
      "town": "白河區",
      "name": "白河",
      "temp": 20.0,
      "at": 19.665750160458426,
      "lat": 23.349228,
      "lon": 120.406328
    },
    {
      "city": "嘉義縣",
      "town": "番路鄉",
      "name": "番路",
      "temp": 20.2,
      "at": 20.518663295543274,
      "lat": 23.466408,
      "lon": 120.546028
    },
    {
      "city": "臺南市",
      "town": "新營區",
      "name": "新營",
      "temp": 20.0,
      "at": 19.098785314201265,
      "lat": 23.312447,
      "lon": 120.308586
    },
    {
      "city": "臺南市",
      "town": "將軍區",
      "name": "將軍",
      "temp": 19.8,
      "at": 18.163236828016966,
      "lat": 23.216733,
      "lon": 120.127656
    },
    {
      "city": "雲林縣",
      "town": "褒忠鄉",
      "name": "褒忠",
      "temp": 20.2,
      "at": 18.643212662178527,
      "lat": 23.692672,
      "lon": 120.295503
    },
    {
      "city": "嘉義縣",
      "town": "溪口鄉",
      "name": "溪口",
      "temp": 20.1,
      "at": 19.48651345617496,
      "lat": 23.605872,
      "lon": 120.395439
    },
    {
      "city": "雲林縣",
      "town": "二崙鄉",
      "name": "二崙",
      "temp": 19.9,
      "at": 18.75889351359626,
      "lat": 23.77455,
      "lon": 120.400811
    },
    {
      "city": "嘉義縣",
      "town": "竹崎鄉",
      "name": "竹崎",
      "temp": 21.0,
      "at": 21.258590461375338,
      "lat": 23.527931,
      "lon": 120.547378
    },
    {
      "city": "嘉義縣",
      "town": "中埔鄉",
      "name": "中埔",
      "temp": 20.2,
      "at": 20.766977219334848,
      "lat": 23.427144,
      "lon": 120.514797
    },
    {
      "city": "臺南市",
      "town": "鹽水區",
      "name": "鹽水",
      "temp": 20.7,
      "at": 19.911529597041522,
      "lat": 23.274339,
      "lon": 120.239506
    },
    {
      "city": "臺南市",
      "town": "學甲區",
      "name": "學甲",
      "temp": 20.5,
      "at": 19.713185327452663,
      "lat": 23.2321,
      "lon": 120.174072
    },
    {
      "city": "臺南市",
      "town": "後壁區",
      "name": "後壁",
      "temp": 20.5,
      "at": 20.371313394950256,
      "lat": 23.368094,
      "lon": 120.354211
    },
    {
      "city": "雲林縣",
      "town": "西螺鎮",
      "name": "西螺",
      "temp": 20.2,
      "at": 19.615291143126417,
      "lat": 23.80215,
      "lon": 120.459253
    },
    {
      "city": "雲林縣",
      "town": "土庫鎮",
      "name": "土庫",
      "temp": 20.7,
      "at": 20.5208119438068,
      "lat": 23.680772,
      "lon": 120.387436
    },
    {
      "city": "嘉義縣",
      "town": "大林鎮",
      "name": "大林",
      "temp": 20.1,
      "at": 20.053955347111213,
      "lat": 23.602361,
      "lon": 120.450281
    },
    {
      "city": "嘉義縣",
      "town": "東石鄉",
      "name": "東石",
      "temp": 20.1,
      "at": 17.441629674302465,
      "lat": 23.460653,
      "lon": 120.145722
    },
    {
      "city": "嘉義縣",
      "town": "水上鄉",
      "name": "水上",
      "temp": 20.0,
      "at": 19.014855621686937,
      "lat": 23.421475,
      "lon": 120.380792
    },
    {
      "city": "嘉義市",
      "town": "東區",
      "name": "嘉義市東區",
      "temp": 23.1,
      "at": 23.655498705735308,
      "lat": 23.459414,
      "lon": 120.452408
    },
    {
      "city": "臺南市",
      "town": "白河區",
      "name": "關子嶺",
      "temp": 19.2,
      "at": 19.70652639262648,
      "lat": 23.332933,
      "lon": 120.499931
    },
    {
      "city": "臺南市",
      "town": "新化區",
      "name": "虎頭埤",
      "temp": 22.5,
      "at": 23.179481071764126,
      "lat": 23.023139,
      "lon": 120.339806
    },
    {
      "city": "臺南市",
      "town": "歸仁區",
      "name": "媽廟",
      "temp": 22.2,
      "at": 22.750658347191848,
      "lat": 22.993514,
      "lon": 120.285431
    },
    {
      "city": "臺南市",
      "town": "龍崎區",
      "name": "崎頂",
      "temp": 23.4,
      "at": 25.08650806577835,
      "lat": 22.961306,
      "lon": 120.361194
    },
    {
      "city": "臺南市",
      "town": "新市區",
      "name": "新市",
      "temp": 23.2,
      "at": 24.20931700549704,
      "lat": 23.063556,
      "lon": 120.290417
    },
    {
      "city": "臺南市",
      "town": "南化區",
      "name": "北寮",
      "temp": 25.0,
      "at": 26.864545460666758,
      "lat": 23.081611,
      "lon": 120.486944
    },
    {
      "city": "臺南市",
      "town": "善化區",
      "name": "善化",
      "temp": 21.5,
      "at": 21.307805230971717,
      "lat": 23.114444,
      "lon": 120.289444
    },
    {
      "city": "高雄市",
      "town": "桃源區",
      "name": "復興",
      "temp": 23.9,
      "at": 23.292950053173314,
      "lat": 23.224167,
      "lon": 120.797778
    },
    {
      "city": "臺南市",
      "town": "六甲區",
      "name": "王爺宮",
      "temp": 20.1,
      "at": 20.695816147409953,
      "lat": 23.223828,
      "lon": 120.392758
    },
    {
      "city": "臺南市",
      "town": "大內區",
      "name": "大內",
      "temp": 20.9,
      "at": 22.102771072874102,
      "lat": 23.120611,
      "lon": 120.35275
    },
    {
      "city": "高雄市",
      "town": "阿蓮區",
      "name": "阿蓮",
      "temp": 22.4,
      "at": 23.049080847875505,
      "lat": 22.884944,
      "lon": 120.319528
    },
    {
      "city": "臺南市",
      "town": "北區",
      "name": "臺南市北區",
      "temp": 20.2,
      "at": 19.67074177649117,
      "lat": 23.012167,
      "lon": 120.186333
    },
    {
      "city": "臺南市",
      "town": "南區",
      "name": "臺南市南區",
      "temp": 20.3,
      "at": 19.646243258015286,
      "lat": 22.963028,
      "lon": 120.180417
    },
    {
      "city": "臺南市",
      "town": "安平區",
      "name": "安平",
      "temp": 20.8,
      "at": 19.593564466324068,
      "lat": 22.994972,
      "lon": 120.144111
    },
    {
      "city": "臺南市",
      "town": "麻豆區",
      "name": "麻豆",
      "temp": 21.2,
      "at": 21.766100899552903,
      "lat": 23.185056,
      "lon": 120.2405
    },
    {
      "city": "臺南市",
      "town": "安定區",
      "name": "安定",
      "temp": 20.9,
      "at": 21.41600981807975,
      "lat": 23.104417,
      "lon": 120.219972
    },
    {
      "city": "臺南市",
      "town": "山上區",
      "name": "山上",
      "temp": 21.1,
      "at": 22.514947467828087,
      "lat": 23.077444,
      "lon": 120.355194
    },
    {
      "city": "臺南市",
      "town": "關廟區",
      "name": "關廟",
      "temp": 22.3,
      "at": 23.569767920597958,
      "lat": 22.964861,
      "lon": 120.319722
    },
    {
      "city": "臺南市",
      "town": "官田區",
      "name": "官田",
      "temp": 20.8,
      "at": 21.08637754465467,
      "lat": 23.195028,
      "lon": 120.307528
    },
    {
      "city": "臺南市",
      "town": "西港區",
      "name": "西港",
      "temp": 19.9,
      "at": 19.95538388682795,
      "lat": 23.127417,
      "lon": 120.195083
    },
    {
      "city": "臺南市",
      "town": "仁德區",
      "name": "仁德",
      "temp": 21.0,
      "at": 20.920443437334328,
      "lat": 22.970111,
      "lon": 120.249778
    },
    {
      "city": "嘉義縣",
      "town": "大埔鄉",
      "name": "表湖",
      "temp": 20.2,
      "at": 21.02450633364749,
      "lat": 23.243628,
      "lon": 120.633564
    },
    {
      "city": "屏東縣",
      "town": "泰武鄉",
      "name": "舊泰武",
      "temp": 18.2,
      "at": 18.16572009806742,
      "lat": 22.58995,
      "lon": 120.656922
    },
    {
      "city": "高雄市",
      "town": "茂林區",
      "name": "萬山",
      "temp": 21.4,
      "at": 19.590155154761028,
      "lat": 22.907694,
      "lon": 120.68
    },
    {
      "city": "高雄市",
      "town": "六龜區",
      "name": "六龜",
      "temp": 24.7,
      "at": 26.59507539338486,
      "lat": 22.99975,
      "lon": 120.625528
    },
    {
      "city": "屏東縣",
      "town": "里港鄉",
      "name": "里港",
      "temp": 22.1,
      "at": 23.42280813578062,
      "lat": 22.780972,
      "lon": 120.486528
    },
    {
      "city": "高雄市",
      "town": "左營區",
      "name": "左營",
      "temp": 20.4,
      "at": 20.032200105970013,
      "lat": 22.676689,
      "lon": 120.27685
    },
    {
      "city": "屏東縣",
      "town": "東港鎮",
      "name": "東港",
      "temp": 21.6,
      "at": 21.199599349638966,
      "lat": 22.464244,
      "lon": 120.432703
    },
    {
      "city": "屏東縣",
      "town": "竹田鄉",
      "name": "竹田",
      "temp": 22.9,
      "at": 23.63488983573747,
      "lat": 22.586642,
      "lon": 120.535392
    },
    {
      "city": "屏東縣",
      "town": "萬丹鄉",
      "name": "萬丹",
      "temp": 21.6,
      "at": 21.47045659572802,
      "lat": 22.590256,
      "lon": 120.477031
    },
    {
      "city": "屏東縣",
      "town": "霧臺鄉",
      "name": "阿禮",
      "temp": 18.3,
      "at": 17.88901970152378,
      "lat": 22.744444,
      "lon": 120.735556
    },
    {
      "city": "高雄市",
      "town": "大樹區",
      "name": "溪埔",
      "temp": 26.3,
      "at": 27.15801405067018,
      "lat": 22.740278,
      "lon": 120.438611
    },
    {
      "city": "高雄市",
      "town": "燕巢區",
      "name": "阿公店",
      "temp": 22.1,
      "at": 22.302642951322937,
      "lat": 22.805944,
      "lon": 120.347444
    },
    {
      "city": "高雄市",
      "town": "內門區",
      "name": "內門",
      "temp": 25.4,
      "at": 26.603394029471087,
      "lat": 22.976944,
      "lon": 120.458333
    },
    {
      "city": "高雄市",
      "town": "田寮區",
      "name": "古亭坑",
      "temp": 23.0,
      "at": 24.98409617421685,
      "lat": 22.895,
      "lon": 120.393889
    },
    {
      "city": "屏東縣",
      "town": "琉球鄉",
      "name": "琉球嶼",
      "temp": 24.8,
      "at": 25.40240563953433,
      "lat": 22.334025,
      "lon": 120.354194
    },
    {
      "city": "高雄市",
      "town": "鳳山區",
      "name": "鳳山",
      "temp": 23.8,
      "at": 25.599784767567723,
      "lat": 22.648611,
      "lon": 120.348056
    },
    {
      "city": "屏東縣",
      "town": "鹽埔鄉",
      "name": "鹽埔",
      "temp": 22.9,
      "at": 23.442458916691255,
      "lat": 22.741342,
      "lon": 120.522697
    },
    {
      "city": "高雄市",
      "town": "小港區",
      "name": "鳳森",
      "temp": 24.4,
      "at": 24.701436116917343,
      "lat": 22.546944,
      "lon": 120.3845
    },
    {
      "city": "屏東縣",
      "town": "萬巒鄉",
      "name": "赤山",
      "temp": 23.6,
      "at": 25.075566369289287,
      "lat": 22.594139,
      "lon": 120.60625
    },
    {
      "city": "屏東縣",
      "town": "內埔鄉",
      "name": "三地門",
      "temp": 24.3,
      "at": 25.61787202379118,
      "lat": 22.711667,
      "lon": 120.631889
    },
    {
      "city": "屏東縣",
      "town": "潮州鎮",
      "name": "潮州",
      "temp": 22.8,
      "at": 23.826987883004385,
      "lat": 22.536139,
      "lon": 120.531972
    },
    {
      "city": "高雄市",
      "town": "新興區",
      "name": "新興",
      "temp": 22.9,
      "at": 23.665428484545238,
      "lat": 22.629111,
      "lon": 120.290583
    },
    {
      "city": "高雄市",
      "town": "湖內區",
      "name": "湖內",
      "temp": 21.8,
      "at": 21.767401984868076,
      "lat": 22.888889,
      "lon": 120.236444
    },
    {
      "city": "高雄市",
      "town": "永安區",
      "name": "永安",
      "temp": 22.1,
      "at": 22.18001906297967,
      "lat": 22.824944,
      "lon": 120.228806
    },
    {
      "city": "高雄市",
      "town": "大社區",
      "name": "大社",
      "temp": 22.9,
      "at": 23.897320754783685,
      "lat": 22.731944,
      "lon": 120.338583
    },
    {
      "city": "高雄市",
      "town": "梓官區",
      "name": "梓官",
      "temp": 22.5,
      "at": 22.62162484038578,
      "lat": 22.762444,
      "lon": 120.25925
    },
    {
      "city": "高雄市",
      "town": "路竹區",
      "name": "路竹",
      "temp": 23.9,
      "at": 25.042950053173314,
      "lat": 22.856639,
      "lon": 120.251361
    },
    {
      "city": "高雄市",
      "town": "茄萣區",
      "name": "茄萣",
      "temp": 21.6,
      "at": 21.549599349638967,
      "lat": 22.908444,
      "lon": 120.174583
    },
    {
      "city": "高雄市",
      "town": "岡山區",
      "name": "岡山",
      "temp": 23.9,
      "at": 24.1773763633656,
      "lat": 22.798844,
      "lon": 120.286889
    },
    {
      "city": "高雄市",
      "town": "彌陀區",
      "name": "彌陀",
      "temp": 21.5,
      "at": 20.869435837533302,
      "lat": 22.785583,
      "lon": 120.238278
    },
    {
      "city": "高雄市",
      "town": "橋頭區",
      "name": "橋頭",
      "temp": 22.9,
      "at": 22.947859403591448,
      "lat": 22.759583,
      "lon": 120.297694
    },
    {
      "city": "高雄市",
      "town": "仁武區",
      "name": "仁武",
      "temp": 23.7,
      "at": 24.61012824934466,
      "lat": 22.702861,
      "lon": 120.339667
    },
    {
      "city": "高雄市",
      "town": "三民區",
      "name": "三民",
      "temp": 21.7,
      "at": 23.011255100387398,
      "lat": 22.646917,
      "lon": 120.303278
    },
    {
      "city": "高雄市",
      "town": "鼓山區",
      "name": "鼓山",
      "temp": 21.2,
      "at": 20.60033828710879,
      "lat": 22.625139,
      "lon": 120.2675
    },
    {
      "city": "高雄市",
      "town": "苓雅區",
      "name": "苓雅",
      "temp": 23.0,
      "at": 24.284096174216852,
      "lat": 22.624528,
      "lon": 120.322583
    },
    {
      "city": "高雄市",
      "town": "旗山區",
      "name": "旗山",
      "temp": 24.8,
      "at": 25.96642512676271,
      "lat": 22.890389,
      "lon": 120.475528
    },
    {
      "city": "屏東縣",
      "town": "長治鄉",
      "name": "長治",
      "temp": 24.7,
      "at": 26.686966819072147,
      "lat": 22.694833,
      "lon": 120.534611
    },
    {
      "city": "屏東縣",
      "town": "麟洛鄉",
      "name": "麟洛",
      "temp": 24.1,
      "at": 25.737765878565614,
      "lat": 22.652556,
      "lon": 120.519139
    },
    {
      "city": "屏東縣",
      "town": "南州鄉",
      "name": "南州",
      "temp": 22.4,
      "at": 22.73738354280469,
      "lat": 22.487694,
      "lon": 120.494694
    },
    {
      "city": "屏東縣",
      "town": "佳冬鄉",
      "name": "佳冬",
      "temp": 21.7,
      "at": 22.482123297620383,
      "lat": 22.421194,
      "lon": 120.544222
    },
    {
      "city": "屏東縣",
      "town": "高樹鄉",
      "name": "高樹",
      "temp": 23.4,
      "at": 24.48121454301293,
      "lat": 22.828222,
      "lon": 120.592722
    },
    {
      "city": "高雄市",
      "town": "大寮區",
      "name": "大寮",
      "temp": 24.1,
      "at": 24.59372175287378,
      "lat": 22.607389,
      "lon": 120.387667
    },
    {
      "city": "屏東縣",
      "town": "新園鄉",
      "name": "新園",
      "temp": 23.3,
      "at": 24.24826166904968,
      "lat": 22.545194,
      "lon": 120.4535
    },
    {
      "city": "屏東縣",
      "town": "崁頂鄉",
      "name": "崁頂",
      "temp": 22.4,
      "at": 22.323988932663056,
      "lat": 22.516639,
      "lon": 120.498972
    },
    {
      "city": "高雄市",
      "town": "林園區",
      "name": "林園",
      "temp": 22.5,
      "at": 22.50131858772555,
      "lat": 22.509583,
      "lon": 120.386556
    },
    {
      "city": "彰化縣",
      "town": "溪州鄉",
      "name": "溪州",
      "temp": 20.6,
      "at": 20.092501771223933,
      "lat": 23.853347,
      "lon": 120.490944
    },
    {
      "city": "雲林縣",
      "town": "斗南鎮",
      "name": "斗南",
      "temp": 19.3,
      "at": 18.90029754782839,
      "lat": 23.680478,
      "lon": 120.470231
    },
    {
      "city": "雲林縣",
      "town": "斗六市",
      "name": "斗六",
      "temp": 20.5,
      "at": 20.781937372451058,
      "lat": 23.722303,
      "lon": 120.532972
    },
    {
      "city": "嘉義縣",
      "town": "朴子市",
      "name": "朴子",
      "temp": 20.0,
      "at": 18.888785314201264,
      "lat": 23.436364,
      "lon": 120.230928
    },
    {
      "city": "嘉義縣",
      "town": "太保市",
      "name": "太保",
      "temp": 20.2,
      "at": 19.747369624074313,
      "lat": 23.456792,
      "lon": 120.323303
    },
    {
      "city": "雲林縣",
      "town": "林內鄉",
      "name": "林內",
      "temp": 20.3,
      "at": 20.84464700044629,
      "lat": 23.750436,
      "lon": 120.601508
    },
    {
      "city": "彰化縣",
      "town": "大城鄉",
      "name": "大城",
      "temp": 19.4,
      "at": 18.334307451089977,
      "lat": 23.854225,
      "lon": 120.312789
    },
    {
      "city": "嘉義縣",
      "town": "民雄鄉",
      "name": "民雄",
      "temp": 19.8,
      "at": 19.673144527418685,
      "lat": 23.553497,
      "lon": 120.420331
    },
    {
      "city": "雲林縣",
      "town": "大埤鄉",
      "name": "大埤",
      "temp": 20.4,
      "at": 20.503314376545728,
      "lat": 23.647817,
      "lon": 120.4234
    },
    {
      "city": "雲林縣",
      "town": "莿桐鄉",
      "name": "莿桐",
      "temp": 20.1,
      "at": 20.256513456174964,
      "lat": 23.762947,
      "lon": 120.494247
    },
    {
      "city": "雲林縣",
      "town": "臺西鄉",
      "name": "臺西",
      "temp": 18.4,
      "at": 14.727505610411907,
      "lat": 23.703283,
      "lon": 120.189422
    },
    {
      "city": "雲林縣",
      "town": "水林鄉",
      "name": "水林",
      "temp": 21.0,
      "at": 21.10561962966241,
      "lat": 23.574658,
      "lon": 120.237839
    },
    {
      "city": "雲林縣",
      "town": "元長鄉",
      "name": "元長",
      "temp": 20.5,
      "at": 19.503185327452663,
      "lat": 23.651544,
      "lon": 120.306892
    },
    {
      "city": "嘉義縣",
      "town": "布袋鎮",
      "name": "布袋",
      "temp": 20.1,
      "at": 17.58907156523871,
      "lat": 23.382611,
      "lon": 120.159667
    },
    {
      "city": "嘉義縣",
      "town": "鹿草鄉",
      "name": "鹿草",
      "temp": 21.2,
      "at": 20.637438187158466,
      "lat": 23.413075,
      "lon": 120.300231
    },
    {
      "city": "嘉義縣",
      "town": "新港鄉",
      "name": "新港",
      "temp": 20.2,
      "at": 19.615291143126417,
      "lat": 23.555011,
      "lon": 120.3376
    },
    {
      "city": "嘉義縣",
      "town": "梅山鄉",
      "name": "嘉義梅山",
      "temp": 20.8,
      "at": 21.25296072376651,
      "lat": 23.587147,
      "lon": 120.547464
    },
    {
      "city": "嘉義縣",
      "town": "阿里山鄉",
      "name": "達邦",
      "temp": 19.9,
      "at": 19.20995127420614,
      "lat": 23.455769,
      "lon": 120.741403
    },
    {
      "city": "臺南市",
      "town": "白河區",
      "name": "鹿寮",
      "temp": 20.9,
      "at": 21.313839559449928,
      "lat": 23.387811,
      "lon": 120.469225
    },
    {
      "city": "嘉義縣",
      "town": "阿里山鄉",
      "name": "茶山",
      "temp": 22.5,
      "at": 22.341624840385784,
      "lat": 23.300847,
      "lon": 120.656664
    },
    {
      "city": "雲林縣",
      "town": "古坑鄉",
      "name": "棋山",
      "temp": 21.1,
      "at": 21.670809113442825,
      "lat": 23.688211,
      "lon": 120.595289
    },
    {
      "city": "雲林縣",
      "town": "水林鄉",
      "name": "蔦松",
      "temp": 20.6,
      "at": 19.142100080396645,
      "lat": 23.516064,
      "lon": 120.221625
    },
    {
      "city": "臺南市",
      "town": "北門區",
      "name": "北門",
      "temp": 19.2,
      "at": 16.826806129915802,
      "lat": 23.269517,
      "lon": 120.117367
    },
    {
      "city": "雲林縣",
      "town": "口湖鄉",
      "name": "口湖工作站",
      "temp": 19.5,
      "at": 15.725549664333432,
      "lat": 23.591722,
      "lon": 120.172281
    },
    {
      "city": "屏東縣",
      "town": "東港鎮",
      "name": "東港工作站",
      "temp": 21.6,
      "at": 22.044170726594444,
      "lat": 22.481778,
      "lon": 120.458017
    },
    {
      "city": "屏東縣",
      "town": "車城鄉",
      "name": "恆春工作站",
      "temp": 22.4,
      "at": 13.541626805481734,
      "lat": 22.081478,
      "lon": 120.706406
    },
    {
      "city": "南投縣",
      "town": "仁愛鄉",
      "name": "萬大發電廠",
      "temp": 19.6,
      "at": 19.094442412037882,
      "lat": 23.980611,
      "lon": 121.131497
    },
    {
      "city": "新北市",
      "town": "新店區",
      "name": "新北",
      "temp": 18.1,
      "at": 16.226350367329076,
      "lat": 24.96099,
      "lon": 121.516977
    },
    {
      "city": "新北市",
      "town": "淡水區",
      "name": "淡水",
      "temp": 20.5,
      "at": 19.563809304953466,
      "lat": 25.166664,
      "lon": 121.440672
    },
    {
      "city": "臺北市",
      "town": "北投區",
      "name": "鞍部",
      "temp": 9.1,
      "at": 4.9503729240764525,
      "lat": 25.184365,
      "lon": 121.521495
    },
    {
      "city": "臺北市",
      "town": "中正區",
      "name": "臺北",
      "temp": 18.1,
      "at": 14.627715330596168,
      "lat": 25.039439,
      "lon": 121.506628
    },
    {
      "city": "臺北市",
      "town": "北投區",
      "name": "竹子湖",
      "temp": 13.0,
      "at": 10.426521037014016,
      "lat": 25.163858,
      "lon": 121.536313
    },
    {
      "city": "基隆市",
      "town": "仁愛區",
      "name": "基隆",
      "temp": 16.2,
      "at": 13.924724006063986,
      "lat": 25.135104,
      "lon": 121.732242
    },
    {
      "city": "基隆市",
      "town": "中正區",
      "name": "彭佳嶼",
      "temp": 15.0,
      "at": 7.5387059673645656,
      "lat": 25.629774,
      "lon": 122.071474
    },
    {
      "city": "花蓮縣",
      "town": "花蓮市",
      "name": "花蓮",
      "temp": 18.0,
      "at": 17.208199355197173,
      "lat": 23.976933,
      "lon": 121.605126
    },
    {
      "city": "桃園市",
      "town": "新屋區",
      "name": "新屋",
      "temp": 19.8,
      "at": 14.895089147059714,
      "lat": 25.008484,
      "lon": 121.039271
    },
    {
      "city": "宜蘭縣",
      "town": "宜蘭市",
      "name": "宜蘭",
      "temp": 15.9,
      "at": 15.280230734184837,
      "lat": 24.765773,
      "lon": 121.748322
    },
    {
      "city": "金門縣",
      "town": "金城鎮",
      "name": "金門",
      "temp": 17.3,
      "at": 13.125937440534514,
      "lat": 24.408942,
      "lon": 118.281127
    },
    {
      "city": "彰化縣",
      "town": "田中鎮",
      "name": "田中",
      "temp": 20.8,
      "at": 20.68210651854447,
      "lat": 23.875561,
      "lon": 120.573149
    },
    {
      "city": "苗栗縣",
      "town": "造橋鄉",
      "name": "後龍",
      "temp": 20.6,
      "at": 18.342501771223933,
      "lat": 24.650318,
      "lon": 120.823641
    },
    {
      "city": "雲林縣",
      "town": "古坑鄉",
      "name": "古坑",
      "temp": 21.0,
      "at": 20.512296413293313,
      "lat": 23.635401,
      "lon": 120.543769
    },
    {
      "city": "澎湖縣",
      "town": "望安鄉",
      "name": "東吉島",
      "temp": 19.2,
      "at": 11.443286305056256,
      "lat": 23.258999,
      "lon": 119.659533
    },
    {
      "city": "澎湖縣",
      "town": "馬公市",
      "name": "澎湖",
      "temp": 18.9,
      "at": 14.534378467173159,
      "lat": 23.56722,
      "lon": 119.554987
    },
    {
      "city": "臺南市",
      "town": "中西區",
      "name": "南區中心",
      "temp": 21.1,
      "at": 20.151383543852646,
      "lat": 22.995039,
      "lon": 120.196846
    },
    {
      "city": "臺南市",
      "town": "永康區",
      "name": "永康",
      "temp": 22.2,
      "at": 22.188357808663337,
      "lat": 23.040146,
      "lon": 120.228623
    },
    {
      "city": "高雄市",
      "town": "楠梓區",
      "name": "高雄",
      "temp": 23.4,
      "at": 24.378269202370888,
      "lat": 22.732201,
      "lon": 120.304459
    },
    {
      "city": "嘉義市",
      "town": "西區",
      "name": "嘉義",
      "temp": 20.9,
      "at": 20.846544061367663,
      "lat": 23.497684,
      "lon": 120.424796
    },
    {
      "city": "臺中市",
      "town": "北區",
      "name": "臺中",
      "temp": 22.4,
      "at": 22.794172763087953,
      "lat": 24.147494,
      "lon": 120.675919
    },
    {
      "city": "嘉義縣",
      "town": "阿里山鄉",
      "name": "阿里山",
      "temp": 10.1,
      "at": 7.487365269644625,
      "lat": 23.509984,
      "lon": 120.805129
    },
    {
      "city": "臺東縣",
      "town": "大武鄉",
      "name": "大武",
      "temp": 21.8,
      "at": 19.381228783859285,
      "lat": 22.357523,
      "lon": 120.895703
    },
    {
      "city": "南投縣",
      "town": "信義鄉",
      "name": "玉山",
      "temp": 5.6,
      "at": -1.7209584013714903,
      "lat": 23.488964,
      "lon": 120.951318
    },
    {
      "city": "新竹縣",
      "town": "竹北市",
      "name": "新竹",
      "temp": 20.5,
      "at": 18.49505725995507,
      "lat": 24.830335,
      "lon": 121.006343
    },
    {
      "city": "屏東縣",
      "town": "恆春鎮",
      "name": "恆春",
      "temp": 22.4,
      "at": 19.0082321953401,
      "lat": 22.0057,
      "lon": 120.738326
    },
    {
      "city": "臺東縣",
      "town": "成功鎮",
      "name": "成功",
      "temp": 19.7,
      "at": 16.27624028477029,
      "lat": 23.099296,
      "lon": 121.36534
    },
    {
      "city": "臺東縣",
      "town": "蘭嶼鄉",
      "name": "蘭嶼",
      "temp": 17.6,
      "at": 13.072168365249428,
      "lat": 22.038737,
      "lon": 121.55041
    },
    {
      "city": "南投縣",
      "town": "魚池鄉",
      "name": "日月潭",
      "temp": 19.6,
      "at": 19.280182814044196,
      "lat": 23.883099,
      "lon": 120.899911
    },
    {
      "city": "臺東縣",
      "town": "臺東市",
      "name": "臺東",
      "temp": 21.4,
      "at": 19.562389329245775,
      "lat": 22.754017,
      "lon": 121.146522
    },
    {
      "city": "連江縣",
      "town": "南竿鄉",
      "name": "馬祖",
      "temp": 10.3,
      "at": 6.109353098956149,
      "lat": 26.171145,
      "lon": 119.914855
    },
    {
      "city": "高雄市",
      "town": "旗津區",
      "name": "東沙島",
      "temp": 21.5,
      "at": 18.23177740682482,
      "lat": 20.70252,
      "lon": 116.722116
    },
    {
      "city": "新北市",
      "town": "樹林區",
      "name": "桃改樹林分場",
      "temp": 18.5,
      "at": 14.646899209974169,
      "lat": 24.946279,
      "lon": 121.378755
    },
    {
      "city": "桃園市",
      "town": "新屋區",
      "name": "桃園農改",
      "temp": 20.2,
      "at": 16.519448105022207,
      "lat": 24.952721,
      "lon": 121.022375
    },
    {
      "city": "新竹縣",
      "town": "五峰鄉",
      "name": "桃改五峰分場",
      "temp": 16.8,
      "at": 17.307614223792697,
      "lat": 24.613978,
      "lon": 121.148983
    },
    {
      "city": "新竹縣",
      "town": "新埔鎮",
      "name": "桃改新埔分場",
      "temp": 20.5,
      "at": 17.70630521495668,
      "lat": 24.836,
      "lon": 121.058
    },
    {
      "city": "彰化縣",
      "town": "大村鄉",
      "name": "臺中農改",
      "temp": 21.7,
      "at": 20.858875423907044,
      "lat": 24.004779,
      "lon": 120.526236
    },
    {
      "city": "南投縣",
      "town": "魚池鄉",
      "name": "中改埔里分場",
      "temp": 21.5,
      "at": 22.22624418477737,
      "lat": 23.904982,
      "lon": 120.955222
    },
    {
      "city": "雲林縣",
      "town": "斗南鎮",
      "name": "南改斗南分場",
      "temp": 21.7,
      "at": 21.9860459169895,
      "lat": 23.636304,
      "lon": 120.469202
    },
    {
      "city": "嘉義縣",
      "town": "義竹鄉",
      "name": "南改義竹分場",
      "temp": 21.6,
      "at": 20.815199421901305,
      "lat": 23.362432,
      "lon": 120.271244
    },
    {
      "city": "嘉義縣",
      "town": "鹿草鄉",
      "name": "南改鹿草分場",
      "temp": 21.2,
      "at": 19.53030069965226,
      "lat": 23.418608,
      "lon": 120.274941
    },
    {
      "city": "臺南市",
      "town": "新化區",
      "name": "臺南農改",
      "temp": 22.3,
      "at": 23.882544292271863,
      "lat": 23.062242,
      "lon": 120.334096
    },
    {
      "city": "臺南市",
      "town": "七股區",
      "name": "七股研究中心",
      "temp": 19.4,
      "at": 16.592619798092706,
      "lat": 23.083472,
      "lon": 120.054792
    },
    {
      "city": "屏東縣",
      "town": "長治鄉",
      "name": "高雄農改",
      "temp": 24.6,
      "at": 25.465552339913305,
      "lat": 22.711084,
      "lon": 120.517814
    },
    {
      "city": "臺東縣",
      "town": "卑南鄉",
      "name": "東改班鳩分場",
      "temp": 20.0,
      "at": 18.440925929172614,
      "lat": 22.831307,
      "lon": 121.069619
    },
    {
      "city": "臺東縣",
      "town": "卑南鄉",
      "name": "東改賓朗果園",
      "temp": 19.1,
      "at": 18.783860735264735,
      "lat": 22.815668,
      "lon": 121.063204
    },
    {
      "city": "花蓮縣",
      "town": "吉安鄉",
      "name": "花蓮農改",
      "temp": 17.4,
      "at": 17.04730540731744,
      "lat": 23.977028,
      "lon": 121.555752
    },
    {
      "city": "宜蘭縣",
      "town": "三星鄉",
      "name": "花改蘭陽分場",
      "temp": 15.2,
      "at": 15.829518807703856,
      "lat": 24.688121,
      "lon": 121.708402
    },
    {
      "city": "高雄市",
      "town": "旗山區",
      "name": "高改旗南分場",
      "temp": 23.3,
      "at": 23.217573196628873,
      "lat": 22.859612,
      "lon": 120.508583
    },
    {
      "city": "新北市",
      "town": "石碇區",
      "name": "茶改北部分場",
      "temp": 13.4,
      "at": 12.342723596816441,
      "lat": 24.957588,
      "lon": 121.623022
    },
    {
      "city": "桃園市",
      "town": "楊梅區",
      "name": "茶改場",
      "temp": 18.7,
      "at": 16.859583311666412,
      "lat": 24.910258,
      "lon": 121.17713
    },
    {
      "city": "南投縣",
      "town": "魚池鄉",
      "name": "茶改中部分場",
      "temp": 21.3,
      "at": 20.878681471094193,
      "lat": 23.877382,
      "lon": 120.905442
    },
    {
      "city": "南投縣",
      "town": "鹿谷鄉",
      "name": "茶改南部分場",
      "temp": 20.0,
      "at": 19.95967985297275,
      "lat": 23.76429,
      "lon": 120.732364
    },
    {
      "city": "臺東縣",
      "town": "鹿野鄉",
      "name": "茶改東部分場",
      "temp": 20.1,
      "at": 18.79395534711121,
      "lat": 22.909476,
      "lon": 121.12206
    },
    {
      "city": "臺北市",
      "town": "大安區",
      "name": "臺灣大學",
      "temp": 17.8,
      "at": 16.210204704703358,
      "lat": 25.01606,
      "lon": 121.531193
    },
    {
      "city": "臺北市",
      "town": "士林區",
      "name": "文化大學",
      "temp": 14.3,
      "at": 6.954937009839426,
      "lat": 25.137855,
      "lon": 121.531657
    },
    {
      "city": "臺中市",
      "town": "和平區",
      "name": "武陵",
      "temp": 13.8,
      "at": 9.716175535877925,
      "lat": 24.354609,
      "lon": 121.300112
    },
    {
      "city": "彰化縣",
      "town": "彰化市",
      "name": "彰師大",
      "temp": 20.6,
      "at": 19.811564492626925,
      "lat": 24.08314,
      "lon": 120.548508
    },
    {
      "city": "雲林縣",
      "town": "麥寮鄉",
      "name": "麥寮",
      "temp": 19.6,
      "at": 14.685594148492147,
      "lat": 23.800517,
      "lon": 120.209572
    },
    {
      "city": "花蓮縣",
      "town": "秀林鄉",
      "name": "合歡山",
      "temp": 2.0,
      "at": -7.255778772739368,
      "lat": 24.144972,
      "lon": 121.276071
    },
    {
      "city": "桃園市",
      "town": "中壢區",
      "name": "農工中心",
      "temp": 19.0,
      "at": 17.380035043324874,
      "lat": 24.987706,
      "lon": 121.231626
    },
    {
      "city": "雲林縣",
      "town": "臺西鄉",
      "name": "水試臺西試驗場",
      "temp": 19.7,
      "at": 17.278436665665456,
      "lat": 23.718974,
      "lon": 120.182399
    },
    {
      "city": "雲林縣",
      "town": "古坑鄉",
      "name": "古坑(花卉中心)",
      "temp": 21.8,
      "at": 21.761228783859284,
      "lat": 23.6353,
      "lon": 120.54428
    },
    {
      "city": "雲林縣",
      "town": "虎尾鎮",
      "name": "臺大雲林校區",
      "temp": 21.2,
      "at": 20.860300699652257,
      "lat": 23.732381,
      "lon": 120.415777
    },
    {
      "city": "臺南市",
      "town": "後壁區",
      "name": "臺南蘭花園區",
      "temp": 21.9,
      "at": 21.635407570289786,
      "lat": 23.342018,
      "lon": 120.371562
    },
    {
      "city": "苗栗縣",
      "town": "西湖鄉",
      "name": "畜試北區分所",
      "temp": 21.4,
      "at": 20.739677288911874,
      "lat": 24.529569,
      "lon": 120.762788
    },
    {
      "city": "臺南市",
      "town": "新化區",
      "name": "畜試所",
      "temp": 20.9,
      "at": 20.647896312326534,
      "lat": 23.060713,
      "lon": 120.328308
    },
    {
      "city": "屏東縣",
      "town": "恆春鎮",
      "name": "畜試南區分所",
      "temp": 21.2,
      "at": 18.53323838705911,
      "lat": 21.947348,
      "lon": 120.794139
    },
    {
      "city": "宜蘭縣",
      "town": "五結鄉",
      "name": "畜試東區分所",
      "temp": 14.6,
      "at": 15.248228454351914,
      "lat": 24.670842,
      "lon": 121.824362
    },
    {
      "city": "臺中市",
      "town": "梧棲區",
      "name": "梧棲",
      "temp": 18.3,
      "at": 13.892932501705722,
      "lat": 24.257753,
      "lon": 120.515211
    },
    {
      "city": "新北市",
      "town": "坪林區",
      "name": "四堵",
      "temp": 12.7,
      "at": 12.778703872466807,
      "lat": 24.894394,
      "lon": 121.737519
    },
    {
      "city": "新北市",
      "town": "烏來區",
      "name": "福山",
      "temp": 14.0,
      "at": 14.055036710390887,
      "lat": 24.778333,
      "lon": 121.494583
    },
    {
      "city": "新北市",
      "town": "平溪區",
      "name": "火燒寮",
      "temp": 13.3,
      "at": 12.816971416894685,
      "lat": 25.004411,
      "lon": 121.734572
    },
    {
      "city": "新北市",
      "town": "瑞芳區",
      "name": "瑞芳",
      "temp": 14.9,
      "at": 14.593795786377552,
      "lat": 25.114861,
      "lon": 121.792639
    },
    {
      "city": "新北市",
      "town": "貢寮區",
      "name": "福隆",
      "temp": 15.6,
      "at": 15.218838386577705,
      "lat": 25.019167,
      "lon": 121.934167
    },
    {
      "city": "新北市",
      "town": "石門區",
      "name": "富貴角",
      "temp": 14.6,
      "at": 12.434177686718154,
      "lat": 25.265556,
      "lon": 121.557278
    },
    {
      "city": "桃園市",
      "town": "中壢區",
      "name": "中央大學",
      "temp": 18.3,
      "at": 13.342063301432809,
      "lat": 24.969417,
      "lon": 121.176946
    },
    {
      "city": "桃園市",
      "town": "觀音區",
      "name": "觀音",
      "temp": 20.1,
      "at": 19.129071565238714,
      "lat": 25.028835,
      "lon": 121.145094
    },
    {
      "city": "新竹縣",
      "town": "關西鎮",
      "name": "關西工作站",
      "temp": 21.4,
      "at": 20.543560201669504,
      "lat": 24.759045,
      "lon": 121.176589
    },
    {
      "city": "新竹縣",
      "town": "寶山鄉",
      "name": "寶山農場",
      "temp": 22.9,
      "at": 22.53650578216077,
      "lat": 24.734205,
      "lon": 120.967953
    },
    {
      "city": "苗栗縣",
      "town": "竹南鎮",
      "name": "竹南",
      "temp": 21.6,
      "at": 20.545542320336928,
      "lat": 24.710737,
      "lon": 120.880772
    },
    {
      "city": "苗栗縣",
      "town": "南庄鄉",
      "name": "南庄",
      "temp": 19.5,
      "at": 20.163257445364696,
      "lat": 24.603539,
      "lon": 120.992023
    },
    {
      "city": "苗栗縣",
      "town": "大湖鄉",
      "name": "大湖",
      "temp": 21.5,
      "at": 21.808230272703923,
      "lat": 24.4167,
      "lon": 120.862694
    },
    {
      "city": "苗栗縣",
      "town": "三義鄉",
      "name": "三義",
      "temp": 18.8,
      "at": 18.187754890784007,
      "lat": 24.407236,
      "lon": 120.741644
    },
    {
      "city": "苗栗縣",
      "town": "苗栗市",
      "name": "八甲",
      "temp": 21.4,
      "at": 20.7535602016695,
      "lat": 24.537566,
      "lon": 120.787798
    },
    {
      "city": "苗栗縣",
      "town": "獅潭鄉",
      "name": "和興",
      "temp": 20.5,
      "at": 20.74006543994865,
      "lat": 24.507081,
      "lon": 120.914833
    },
    {
      "city": "苗栗縣",
      "town": "卓蘭鎮",
      "name": "新坪頂",
      "temp": 21.1,
      "at": 20.9790271514551,
      "lat": 24.303773,
      "lon": 120.849231
    },
    {
      "city": "臺中市",
      "town": "大肚區",
      "name": "大肚",
      "temp": 18.9,
      "at": 18.240609422713366,
      "lat": 24.154667,
      "lon": 120.564
    },
    {
      "city": "臺中市",
      "town": "和平區",
      "name": "梨山",
      "temp": 9.8,
      "at": 6.55392618927114,
      "lat": 24.245,
      "lon": 121.237667
    },
    {
      "city": "臺中市",
      "town": "大甲區",
      "name": "大甲",
      "temp": 21.9,
      "at": 22.11299711370866,
      "lat": 24.349917,
      "lon": 120.632361
    },
    {
      "city": "臺中市",
      "town": "和平區",
      "name": "摩天嶺",
      "temp": 19.1,
      "at": 17.588289197832474,
      "lat": 24.324225,
      "lon": 120.928649
    },
    {
      "city": "臺中市",
      "town": "太平區",
      "name": "中竹林",
      "temp": 20.2,
      "at": 19.981134181230633,
      "lat": 24.105556,
      "lon": 120.743333
    },
    {
      "city": "臺中市",
      "town": "和平區",
      "name": "烏石坑",
      "temp": 18.5,
      "at": 18.637455597875313,
      "lat": 24.275269,
      "lon": 120.939447
    },
    {
      "city": "臺中市",
      "town": "和平區",
      "name": "出雲",
      "temp": 21.9,
      "at": 20.04169410923017,
      "lat": 24.208236,
      "lon": 120.894632
    },
    {
      "city": "臺中市",
      "town": "新社區",
      "name": "頭櫃山",
      "temp": 17.9,
      "at": 17.85166974652775,
      "lat": 24.131608,
      "lon": 120.850769
    },
    {
      "city": "彰化縣",
      "town": "鹿港鎮",
      "name": "鹿港",
      "temp": 20.4,
      "at": 18.1066458142003,
      "lat": 24.076944,
      "lon": 120.422222
    },
    {
      "city": "彰化縣",
      "town": "北斗鎮",
      "name": "北斗",
      "temp": 23.0,
      "at": 23.222256618025522,
      "lat": 23.879222,
      "lon": 120.506528
    },
    {
      "city": "彰化縣",
      "town": "芳苑鄉",
      "name": "芳苑",
      "temp": 19.8,
      "at": 18.169255288136622,
      "lat": 23.924,
      "lon": 120.311861
    },