{
  "meta": {
    "updated_at": "2026-02-17 05:52:18",
    "source": "CWA Auto Stations",
    "count": 800
  },
  "data": [
    {
      "city": "花蓮縣",
      "town": "秀林鄉",
      "name": "崇德",
      "temp": 20.3,
      "at": 19.758261970170306,
      "lat": 24.167948,
      "lon": 121.649251
    },
    {
      "city": "臺東縣",
      "town": "卑南鄉",
      "name": "富山",
      "temp": 19.4,
      "at": 20.517430921117242,
      "lat": 22.82419,
      "lon": 121.182756
    },
    {
      "city": "臺東縣",
      "town": "蘭嶼鄉",
      "name": "東清國小",
      "temp": 23.5,
      "at": 24.296982312542923,
      "lat": 22.058965,
      "lon": 121.556901
    },
    {
      "city": "臺東縣",
      "town": "綠島鄉",
      "name": "牛頭山",
      "temp": 21.7,
      "at": 16.53103018516881,
      "lat": 22.678485,
      "lon": 121.498883
    },
    {
      "city": "新北市",
      "town": "八里區",
      "name": "硬漢嶺",
      "temp": 10.2,
      "at": 6.450178036534705,
      "lat": 25.137872,
      "lon": 121.41814
    },
    {
      "city": "花蓮縣",
      "town": "秀林鄉",
      "name": "秀林",
      "temp": 12.9,
      "at": 12.891022647301089,
      "lat": 24.304668,
      "lon": 121.722972
    },
    {
      "city": "花蓮縣",
      "town": "秀林鄉",
      "name": "和仁",
      "temp": 19.8,
      "at": 20.17138450897422,
      "lat": 24.243199,
      "lon": 121.704304
    },
    {
      "city": "花蓮縣",
      "town": "秀林鄉",
      "name": "立霧山",
      "temp": 12.8,
      "at": 13.459077844620715,
      "lat": 24.185061,
      "lon": 121.633735
    },
    {
      "city": "臺中市",
      "town": "和平區",
      "name": "鞍馬山工作站",
      "temp": 8.1,
      "at": 5.826227954578048,
      "lat": 24.2681,
      "lon": 120.9926
    },
    {
      "city": "臺中市",
      "town": "和平區",
      "name": "大雪山埡口",
      "temp": 7.3,
      "at": 2.0296246884416522,
      "lat": 24.2744,
      "lon": 121.0224
    },
    {
      "city": "臺中市",
      "town": "和平區",
      "name": "小雪山天池",
      "temp": 6.1,
      "at": 4.341811976087627,
      "lat": 24.2825,
      "lon": 121.0182
    },
    {
      "city": "臺中市",
      "town": "和平區",
      "name": "小雪山林道",
      "temp": 4.4,
      "at": -0.015846320739632436,
      "lat": 24.2968,
      "lon": 121.0283
    },
    {
      "city": "臺中市",
      "town": "和平區",
      "name": "大雪山",
      "temp": 8.5,
      "at": 5.562874073383302,
      "lat": 24.2562,
      "lon": 120.9991
    },
    {
      "city": "臺中市",
      "town": "和平區",
      "name": "出雲山苗圃",
      "temp": 13.8,
      "at": 12.943587996584377,
      "lat": 24.2328,
      "lon": 120.8965
    },
    {
      "city": "臺中市",
      "town": "和平區",
      "name": "八仙山苗圃",
      "temp": 14.8,
      "at": 14.234445111138093,
      "lat": 24.1944,
      "lon": 120.9932
    },
    {
      "city": "臺中市",
      "town": "和平區",
      "name": "中橫21.6k",
      "temp": 10.9,
      "at": 8.791914667152826,
      "lat": 24.2516,
      "lon": 121.1373
    },
    {
      "city": "苗栗縣",
      "town": "泰安鄉",
      "name": "雪見",
      "temp": 10.4,
      "at": 7.926272481737154,
      "lat": 24.4277,
      "lon": 121.0052
    },
    {
      "city": "苗栗縣",
      "town": "泰安鄉",
      "name": "松安",
      "temp": 14.4,
      "at": 10.583743010943074,
      "lat": 24.3996,
      "lon": 120.9778
    },
    {
      "city": "苗栗縣",
      "town": "泰安鄉",
      "name": "觀霧分站",
      "temp": 8.9,
      "at": 6.189901311815394,
      "lat": 24.5075,
      "lon": 121.1057
    },
    {
      "city": "新竹縣",
      "town": "五峰鄉",
      "name": "樂山林道6k",
      "temp": 7.7,
      "at": 3.8463088169592616,
      "lat": 24.5017,
      "lon": 121.0795
    },
    {
      "city": "新竹縣",
      "town": "五峰鄉",
      "name": "大坪苗圃",
      "temp": 8.6,
      "at": 7.320626656036925,
      "lat": 24.5379,
      "lon": 121.1026
    },
    {
      "city": "桃園市",
      "town": "復興區",
      "name": "東眼山",
      "temp": 9.6,
      "at": 8.401164002348573,
      "lat": 24.8301,
      "lon": 121.4006
    },
    {
      "city": "桃園市",
      "town": "復興區",
      "name": "四稜",
      "temp": 10.2,
      "at": 9.202163793611929,
      "lat": 24.6796,
      "lon": 121.4211
    },
    {
      "city": "宜蘭縣",
      "town": "大同鄉",
      "name": "明池",
      "temp": 10.0,
      "at": 9.224349667827415,
      "lat": 24.6506,
      "lon": 121.4673
    },
    {
      "city": "宜蘭縣",
      "town": "大同鄉",
      "name": "太平山中間站",
      "temp": 13.2,
      "at": 13.548085911932613,
      "lat": 24.5437,
      "lon": 121.5052
    },
    {
      "city": "宜蘭縣",
      "town": "大同鄉",
      "name": "翠峰林道6K",
      "temp": 7.5,
      "at": 6.467570914165339,
      "lat": 24.4995,
      "lon": 121.5604
    },
    {
      "city": "宜蘭縣",
      "town": "大同鄉",
      "name": "太平山莊",
      "temp": 7.9,
      "at": 5.48562859648001,
      "lat": 24.4959,
      "lon": 121.5281
    },
    {
      "city": "高雄市",
      "town": "大樹區",
      "name": "大樹",
      "temp": 18.6,
      "at": 18.70848455132458,
      "lat": 22.686423,
      "lon": 120.424748
    },
    {
      "city": "新北市",
      "town": "林口區",
      "name": "太平里",
      "temp": 14.2,
      "at": 12.463363265744125,
      "lat": 25.136709,
      "lon": 121.356668
    },
    {
      "city": "臺東縣",
      "town": "太麻里鄉",
      "name": "美和",
      "temp": 20.1,
      "at": 20.567676947708698,
      "lat": 22.683881,
      "lon": 121.052177
    },
    {
      "city": "臺東縣",
      "town": "臺東市",
      "name": "富岡",
      "temp": 21.1,
      "at": 21.728511391803526,
      "lat": 22.794274,
      "lon": 121.184602
    },
    {
      "city": "臺東縣",
      "town": "東河鄉",
      "name": "新蘭",
      "temp": 20.4,
      "at": 21.73997440833673,
      "lat": 22.871021,
      "lon": 121.215155
    },
    {
      "city": "臺東縣",
      "town": "東河鄉",
      "name": "興隆",
      "temp": 20.4,
      "at": 22.789974408336732,
      "lat": 22.915469,
      "lon": 121.249394
    },
    {
      "city": "臺東縣",
      "town": "成功鎮",
      "name": "叭嗡嗡",
      "temp": 20.8,
      "at": 21.087482212541197,
      "lat": 23.048871,
      "lon": 121.335138
    },
    {
      "city": "臺東縣",
      "town": "成功鎮",
      "name": "白守蓮",
      "temp": 21.4,
      "at": 18.776750107852557,
      "lat": 23.12858,
      "lon": 121.393824
    },
    {
      "city": "臺東縣",
      "town": "成功鎮",
      "name": "小港漁港",
      "temp": 20.8,
      "at": 20.75919062298528,
      "lat": 23.160368,
      "lon": 121.392338
    },
    {
      "city": "臺東縣",
      "town": "長濱鄉",
      "name": "長濱漁港",
      "temp": 20.0,
      "at": 16.718082239344522,
      "lat": 23.315454,
      "lon": 121.451891
    },
    {
      "city": "花蓮縣",
      "town": "花蓮市",
      "name": "花蓮漁港",
      "temp": 19.3,
      "at": 18.104660172042866,
      "lat": 23.997128,
      "lon": 121.63018
    },
    {
      "city": "花蓮縣",
      "town": "秀林鄉",
      "name": "加灣",
      "temp": 19.3,
      "at": 19.092053942745277,
      "lat": 24.083828,
      "lon": 121.600788
    },
    {
      "city": "花蓮縣",
      "town": "壽豐鄉",
      "name": "鹽寮",
      "temp": 19.6,
      "at": 16.511828151836003,
      "lat": 23.847418,
      "lon": 121.584524
    },
    {
      "city": "臺中市",
      "town": "大甲區",
      "name": "大甲溪埔",
      "temp": 15.0,
      "at": 10.873382459205708,
      "lat": 24.372375,
      "lon": 120.611895
    },
    {
      "city": "彰化縣",
      "town": "和美鎮",
      "name": "和美",
      "temp": 15.9,
      "at": 13.117171559891364,
      "lat": 24.106919,
      "lon": 120.483978
    },
    {
      "city": "屏東縣",
      "town": "滿州鄉",
      "name": "鼻頭",
      "temp": 22.4,
      "at": 18.2078645344903,
      "lat": 22.106107,
      "lon": 120.889862
    },
    {
      "city": "屏東縣",
      "town": "滿州鄉",
      "name": "興海",
      "temp": 22.9,
      "at": 21.119489348837277,
      "lat": 21.976985,
      "lon": 120.835907
    },
    {
      "city": "屏東縣",
      "town": "恆春鎮",
      "name": "後壁湖",
      "temp": 22.3,
      "at": 22.906168761369727,
      "lat": 21.94747,
      "lon": 120.737695
    },
    {
      "city": "屏東縣",
      "town": "恆春鎮",
      "name": "山海",
      "temp": 21.9,
      "at": 23.36504939661431,
      "lat": 21.989579,
      "lon": 120.701107
    },
    {
      "city": "屏東縣",
      "town": "車城鄉",
      "name": "竹坑",
      "temp": 23.4,
      "at": 24.987692269827853,
      "lat": 22.140248,
      "lon": 120.694128
    },
    {
      "city": "屏東縣",
      "town": "枋山鄉",
      "name": "加祿堂",
      "temp": 18.7,
      "at": 20.88235413308294,
      "lat": 22.338096,
      "lon": 120.613688
    },
    {
      "city": "臺南市",
      "town": "將軍區",
      "name": "鯤鯓國小",
      "temp": 17.2,
      "at": 14.050271622804921,
      "lat": 23.189624,
      "lon": 120.080813
    },
    {
      "city": "屏東縣",
      "town": "枋寮鄉",
      "name": "下寮",
      "temp": 19.3,
      "at": 20.81641656695975,
      "lat": 22.394648,
      "lon": 120.546743
    },
    {
      "city": "屏東縣",
      "town": "佳冬鄉",
      "name": "塭仔",
      "temp": 19.2,
      "at": 20.464847968890545,
      "lat": 22.418718,
      "lon": 120.511622
    },
    {
      "city": "高雄市",
      "town": "林園區",
      "name": "汕尾",
      "temp": 19.4,
      "at": 19.681587094618607,
      "lat": 22.479984,
      "lon": 120.407094
    },
    {
      "city": "高雄市",
      "town": "小港區",
      "name": "鳳鼻頭",
      "temp": 19.9,
      "at": 21.255720231766624,
      "lat": 22.510051,
      "lon": 120.351098
    },
    {
      "city": "高雄市",
      "town": "梓官區",
      "name": "蚵仔寮",
      "temp": 17.6,
      "at": 17.11721158243764,
      "lat": 22.727414,
      "lon": 120.244618
    },
    {
      "city": "高雄市",
      "town": "彌陀區",
      "name": "南寮",
      "temp": 18.1,
      "at": 16.473879043708813,
      "lat": 22.763381,
      "lon": 120.225866
    },
    {
      "city": "高雄市",
      "town": "彌陀區",
      "name": "文安",
      "temp": 18.5,
      "at": 18.010014982220568,
      "lat": 22.804288,
      "lon": 120.208308
    },
    {
      "city": "高雄市",
      "town": "茄萣區",
      "name": "興達",
      "temp": 18.1,
      "at": 18.365502609889827,
      "lat": 22.879517,
      "lon": 120.204681
    },
    {
      "city": "臺南市",
      "town": "安南區",
      "name": "城西",
      "temp": 17.4,
      "at": 14.257905011252468,
      "lat": 23.058558,
      "lon": 120.087492
    },
    {
      "city": "臺南市",
      "town": "安南區",
      "name": "四草",
      "temp": 17.6,
      "at": 14.682168365249428,
      "lat": 23.025295,
      "lon": 120.103558
    },
    {
      "city": "臺南市",
      "town": "北門區",
      "name": "蘆竹溝",
      "temp": 17.3,
      "at": 12.801645303795269,
      "lat": 23.236154,
      "lon": 120.088035
    },
    {
      "city": "臺南市",
      "town": "北門區",
      "name": "蚵寮",
      "temp": 17.2,
      "at": 13.635661829290257,
      "lat": 23.302745,
      "lon": 120.102281
    },
    {
      "city": "高雄市",
      "town": "前鎮區",
      "name": "前鎮",
      "temp": 19.4,
      "at": 20.014962400613154,
      "lat": 22.573925,
      "lon": 120.303144
    },
    {
      "city": "新北市",
      "town": "貢寮區",
      "name": "澳底",
      "temp": 15.7,
      "at": 12.926143239489821,
      "lat": 25.056993,
      "lon": 121.917036
    },
    {
      "city": "澎湖縣",
      "town": "七美鄉",
      "name": "七美",
      "temp": 18.2,
      "at": 11.222592516785669,
      "lat": 23.221053,
      "lon": 119.436809
    },
    {
      "city": "澎湖縣",
      "town": "望安鄉",
      "name": "望安",
      "temp": 17.3,
      "at": 8.871683566674232,
      "lat": 23.382282,
      "lon": 119.485981
    },
    {
      "city": "澎湖縣",
      "town": "湖西鄉",
      "name": "湖西",
      "temp": 17.7,
      "at": 9.281097703420574,
      "lat": 23.598035,
      "lon": 119.664639
    },
    {
      "city": "連江縣",
      "town": "北竿鄉",
      "name": "北竿",
      "temp": 9.5,
      "at": 4.3454996025919215,
      "lat": 26.222038,
      "lon": 119.966574
    },
    {
      "city": "金門縣",
      "town": "烈嶼鄉",
      "name": "九宮",
      "temp": 12.4,
      "at": 10.84192657078007,
      "lat": 24.425386,
      "lon": 118.232031
    },
    {
      "city": "屏東縣",
      "town": "新埤鄉",
      "name": "萬隆國小",
      "temp": 18.0,
      "at": 19.339223513964015,
      "lat": 22.509453,
      "lon": 120.579772
    },
    {
      "city": "苗栗縣",
      "town": "通霄鎮",
      "name": "白沙屯",
      "temp": 15.1,
      "at": 10.137193811727833,
      "lat": 24.551198,
      "lon": 120.688617
    },
    {
      "city": "屏東縣",
      "town": "內埔鄉",
      "name": "內埔",
      "temp": 18.1,
      "at": 19.200631911346786,
      "lat": 22.610267,
      "lon": 120.562662
    },
    {
      "city": "臺北市",
      "town": "士林區",
      "name": "科教館",
      "temp": 15.8,
      "at": 14.76802940486084,
      "lat": 25.098133,
      "lon": 121.508275
    },
    {
      "city": "宜蘭縣",
      "town": "頭城鎮",
      "name": "大溪漁港",
      "temp": 15.9,
      "at": 13.134622247980136,
      "lat": 24.943603,
      "lon": 121.894736
    },
    {
      "city": "宜蘭縣",
      "town": "頭城鎮",
      "name": "石城",
      "temp": 15.3,
      "at": 15.224219321486114,
      "lat": 24.982247,
      "lon": 121.942992
    },
    {
      "city": "基隆市",
      "town": "安樂區",
      "name": "大武崙",
      "temp": 15.1,
      "at": 12.729791157229432,
      "lat": 25.168464,
      "lon": 121.698758
    },
    {
      "city": "新北市",
      "town": "萬里區",
      "name": "野柳",
      "temp": 14.6,
      "at": 12.774039713310948,
      "lat": 25.208817,
      "lon": 121.681783
    },
    {
      "city": "新北市",
      "town": "淡水區",
      "name": "淡水觀海",
      "temp": 13.6,
      "at": 10.114641220101777,
      "lat": 25.186364,
      "lon": 121.400381
    },
    {
      "city": "桃園市",
      "town": "大園區",
      "name": "竹圍",
      "temp": 14.3,
      "at": 9.342210304375929,
      "lat": 25.114458,
      "lon": 121.231594
    },
    {
      "city": "桃園市",
      "town": "新屋區",
      "name": "中大臨海站",
      "temp": 13.8,
      "at": 12.585093226652965,
      "lat": 24.967883,
      "lon": 121.000364
    },
    {
      "city": "新北市",
      "town": "石門區",
      "name": "石門",
      "temp": 13.1,
      "at": 8.85615539756347,
      "lat": 25.275453,
      "lon": 121.592956
    },
    {
      "city": "桃園市",
      "town": "觀音區",
      "name": "觀音工業區",
      "temp": 14.1,
      "at": 9.602053789069789,
      "lat": 25.066525,
      "lon": 121.106631
    },
    {
      "city": "新竹市",
      "town": "北區",
      "name": "海天一線",
      "temp": 14.5,
      "at": 11.302741979418208,
      "lat": 24.833742,
      "lon": 120.906231
    },
    {
      "city": "新竹市",
      "town": "香山區",
      "name": "香山濕地",
      "temp": 14.5,
      "at": 9.747119609629275,
      "lat": 24.785386,
      "lon": 120.906781
    },
    {
      "city": "新北市",
      "town": "瑞芳區",
      "name": "水湳洞",
      "temp": 15.5,
      "at": 12.926919737770504,
      "lat": 25.125492,
      "lon": 121.854006
    },
    {
      "city": "基隆市",
      "town": "中正區",
      "name": "八斗子",
      "temp": 15.6,
      "at": 12.990803664732145,
      "lat": 25.146547,
      "lon": 121.783436
    },
    {
      "city": "新竹縣",
      "town": "新豐鄉",
      "name": "外湖",
      "temp": 13.8,
      "at": 12.05903138041154,
      "lat": 24.919492,
      "lon": 120.960497
    },
    {
      "city": "苗栗縣",
      "town": "後龍鎮",
      "name": "海埔",
      "temp": 15.3,
      "at": 9.885220640992086,
      "lat": 24.650519,
      "lon": 120.764242
    },
    {
      "city": "苗栗縣",
      "town": "通霄鎮",
      "name": "通霄漁港",
      "temp": 15.1,
      "at": 12.797193811727833,
      "lat": 24.500339,
      "lon": 120.665694
    },
    {
      "city": "臺中市",
      "town": "大甲區",
      "name": "松柏",
      "temp": 15.3,
      "at": 7.600721300745072,
      "lat": 24.430864,
      "lon": 120.609306
    },
    {
      "city": "臺中市",
      "town": "大安區",
      "name": "溫寮",
      "temp": 15.4,
      "at": 8.972282578341872,
      "lat": 24.373925,
      "lon": 120.574953
    },
    {
      "city": "苗栗縣",
      "town": "竹南鎮",
      "name": "龍鳳",
      "temp": 15.0,
      "at": 12.960327103384934,
      "lat": 24.701789,
      "lon": 120.850928
    },
    {
      "city": "宜蘭縣",
      "town": "礁溪鄉",
      "name": "淡江大學蘭陽校園",
      "temp": 14.5,
      "at": 14.180853828362867,
      "lat": 24.825033,
      "lon": 121.722172
    },
    {
      "city": "屏東縣",
      "town": "林邊鄉",
      "name": "林邊",
      "temp": 18.4,
      "at": 20.459029463610598,
      "lat": 22.465232,
      "lon": 120.52585
    },
    {
      "city": "新北市",
      "town": "淡水區",
      "name": "六塊厝",
      "temp": 14.0,
      "at": 10.626806598916662,
      "lat": 25.241776,
      "lon": 121.439863
    },
    {
      "city": "新北市",
      "town": "三芝區",
      "name": "田寮",
      "temp": 14.4,
      "at": 11.526656016675158,
      "lat": 25.271575,
      "lon": 121.480355
    },
    {
      "city": "桃園市",
      "town": "觀音區",
      "name": "新興坑尾",
      "temp": 13.5,
      "at": 8.098857147076565,
      "lat": 25.007827,
      "lon": 121.088851
    },
    {
      "city": "宜蘭縣",
      "town": "蘇澳鎮",
      "name": "蘇澳",
      "temp": 16.7,
      "at": 15.835919386489941,
      "lat": 24.59875,
      "lon": 121.848895
    },
    {
      "city": "宜蘭縣",
      "town": "壯圍鄉",
      "name": "壯圍",
      "temp": 16.9,
      "at": 13.591994951305125,
      "lat": 24.737723,
      "lon": 121.808046
    },
    {
      "city": "宜蘭縣",
      "town": "頭城鎮",
      "name": "北關",
      "temp": 16.8,
      "at": 15.851573615770878,
      "lat": 24.90902,
      "lon": 121.865211
    },
    {
      "city": "彰化縣",
      "town": "伸港鄉",
      "name": "防潮門",
      "temp": 16.0,
      "at": 11.818770510288715,
      "lat": 24.185242,
      "lon": 120.478972
    },
    {
      "city": "臺中市",
      "town": "龍井區",
      "name": "臺中電廠",
      "temp": 16.2,
      "at": 12.944307721649128,
      "lat": 24.216388,
      "lon": 120.482584
    },
    {
      "city": "彰化縣",
      "town": "福興鄉",
      "name": "福寶",
      "temp": 16.0,
      "at": 8.388770510288717,
      "lat": 24.046048,
      "lon": 120.373213
    },
    {
      "city": "彰化縣",
      "town": "大城鄉",
      "name": "三豐",
      "temp": 16.0,
      "at": 13.348641435694336,
      "lat": 23.883719,
      "lon": 120.281409
    },
    {
      "city": "雲林縣",
      "town": "口湖鄉",
      "name": "箔子寮",
      "temp": 16.8,
      "at": 13.471573615770879,
      "lat": 23.621487,
      "lon": 120.13192
    },
    {
      "city": "嘉義縣",
      "town": "布袋鎮",
      "name": "好美里",
      "temp": 16.8,
      "at": 13.43654823575724,
      "lat": 23.338176,
      "lon": 120.129936
    },
    {
      "city": "新北市",
      "town": "板橋區",
      "name": "板橋",
      "temp": 15.7,
      "at": 14.578793990657616,
      "lat": 25.012431,
      "lon": 121.440638
    },
    {
      "city": "連江縣",
      "town": "莒光鄉",
      "name": "東莒",
      "temp": 9.7,
      "at": 1.7625306022240936,
      "lat": 25.966883,
      "lon": 119.9724
    },
    {
      "city": "澎湖縣",
      "town": "西嶼鄉",
      "name": "西嶼",
      "temp": 17.3,
      "at": 10.00164530379527,
      "lat": 23.564311,
      "lon": 119.460328
    },
    {
      "city": "澎湖縣",
      "town": "望安鄉",
      "name": "花嶼",
      "temp": 17.8,
      "at": 14.390606525878852,
      "lat": 23.401778,
      "lon": 119.314667
    },
    {
      "city": "金門縣",
      "town": "金沙鎮",
      "name": "金沙",
      "temp": 12.1,
      "at": 8.949945771845595,
      "lat": 24.489931,
      "lon": 118.400617
    },
    {
      "city": "金門縣",
      "town": "金寧鄉",
      "name": "金寧",
      "temp": 12.3,
      "at": 9.061026630387628,
      "lat": 24.459339,
      "lon": 118.320831
    },
    {
      "city": "金門縣",
      "town": "烏坵鄉",
      "name": "烏坵",
      "temp": 10.7,
      "at": -0.6847658590550143,
      "lat": 24.996081,
      "lon": 119.441347
    },
    {
      "city": "臺北市",
      "town": "松山區",
      "name": "松山",
      "temp": 15.3,
      "at": 15.599719981239097,
      "lat": 25.050492,
      "lon": 121.542203
    },
    {
      "city": "苗栗縣",
      "town": "後龍鎮",
      "name": "高鐵苗栗",
      "temp": 15.0,
      "at": 14.669586628957234,
      "lat": 24.609,
      "lon": 120.817906
    },
    {
      "city": "雲林縣",
      "town": "虎尾鎮",
      "name": "高鐵雲林",
      "temp": 16.3,
      "at": 15.990299958070636,
      "lat": 23.739206,
      "lon": 120.409817
    },
    {
      "city": "桃園市",
      "town": "龜山區",
      "name": "國一五楊N44K",
      "temp": 12.4,
      "at": 11.64137610863489,
      "lat": 25.065633,
      "lon": 121.332769
    },
    {
      "city": "基隆市",
      "town": "中正區",
      "name": "基隆嶼",
      "temp": 14.3,
      "at": 11.178530623683717,
      "lat": 25.1932,
      "lon": 121.775678
    },
    {
      "city": "臺東縣",
      "town": "蘭嶼鄉",
      "name": "蘭嶼高中",
      "temp": 22.8,
      "at": 25.480444761083,
      "lat": 22.050931,
      "lon": 121.504119
    },
    {
      "city": "臺東縣",
      "town": "蘭嶼鄉",
      "name": "蘭嶼燈塔",
      "temp": 21.4,
      "at": 19.124993799216963,
      "lat": 22.083031,
      "lon": 121.495094
    },
    {
      "city": "新北市",
      "town": "石門區",
      "name": "白沙灣",
      "temp": 14.7,
      "at": 8.782600941337922,
      "lat": 25.284903,
      "lon": 121.510814
    },
    {
      "city": "高雄市",
      "town": "甲仙區",
      "name": "小林",
      "temp": 15.4,
      "at": 16.778932651797128,
      "lat": 23.150164,
      "lon": 120.625189
    },
    {
      "city": "桃園市",
      "town": "大溪區",
      "name": "大溪永福",
      "temp": 14.4,
      "at": 14.762628349834792,
      "lat": 24.894711,
      "lon": 121.316761
    },
    {
      "city": "宜蘭縣",
      "town": "大同鄉",
      "name": "玉蘭",
      "temp": 13.6,
      "at": 13.367237912187232,
      "lat": 24.677222,
      "lon": 121.578889
    },
    {
      "city": "宜蘭縣",
      "town": "五結鄉",
      "name": "五結",
      "temp": 16.8,
      "at": 17.300558387762692,
      "lat": 24.688722,
      "lon": 121.790222
    },
    {
      "city": "宜蘭縣",
      "town": "大同鄉",
      "name": "太平山",
      "temp": 5.9,
      "at": 4.820950382317783,
      "lat": 24.507222,
      "lon": 121.5175
    },
    {
      "city": "宜蘭縣",
      "town": "大同鄉",
      "name": "南山",
      "temp": 10.8,
      "at": 9.73743475802481,
      "lat": 24.439167,
      "lon": 121.373333
    },
    {
      "city": "宜蘭縣",
      "town": "員山鄉",
      "name": "雙連埤",
      "temp": 13.2,
      "at": 14.19796373609853,
      "lat": 24.754722,
      "lon": 121.633056
    },
    {
      "city": "宜蘭縣",
      "town": "頭城鎮",
      "name": "頭城",
      "temp": 17.1,
      "at": 15.693028006994716,
      "lat": 24.855031,
      "lon": 121.822586
    },
    {
      "city": "宜蘭縣",
      "town": "礁溪鄉",
      "name": "大礁溪",
      "temp": 13.7,
      "at": 14.81164281768573,
      "lat": 24.792836,
      "lon": 121.666839
    },
    {
      "city": "宜蘭縣",
      "town": "三星鄉",
      "name": "三星",
      "temp": 15.5,
      "at": 17.00887225371646,
      "lat": 24.669917,
      "lon": 121.644819
    },
    {
      "city": "宜蘭縣",
      "town": "員山鄉",
      "name": "內城",
      "temp": 16.6,
      "at": 18.75788230756309,
      "lat": 24.719928,
      "lon": 121.679461
    },
    {
      "city": "宜蘭縣",
      "town": "冬山鄉",
      "name": "冬山",
      "temp": 17.0,
      "at": 16.666617974256845,
      "lat": 24.635528,
      "lon": 121.7855
    },
    {
      "city": "宜蘭縣",
      "town": "礁溪鄉",
      "name": "礁溪",
      "temp": 17.6,
      "at": 18.278342735170067,
      "lat": 24.819336,
      "lon": 121.757397
    },
    {
      "city": "宜蘭縣",
      "town": "頭城鎮",
      "name": "龜山島",
      "temp": 12.6,
      "at": 8.785736196346273,
      "lat": 24.843392,
      "lon": 121.944947
    },
    {
      "city": "新北市",
      "town": "貢寮區",
      "name": "三貂角",
      "temp": 13.9,
      "at": 8.813809920102347,
      "lat": 25.009444,
      "lon": 121.993889
    },
    {
      "city": "宜蘭縣",
      "town": "羅東鎮",
      "name": "羅東",
      "temp": 16.8,
      "at": 18.105533007749056,
      "lat": 24.683636,
      "lon": 121.741144
    },
    {
      "city": "宜蘭縣",
      "town": "頭城鎮",
      "name": "鶯子嶺",
      "temp": 9.6,
      "at": 6.45871250244643,
      "lat": 24.899333,
      "lon": 121.784231
    },
    {
      "city": "宜蘭縣",
      "town": "壯圍鄉",
      "name": "大福",
      "temp": 16.6,
      "at": 14.986066511162093,
      "lat": 24.802436,
      "lon": 121.805683
    },
    {
      "city": "宜蘭縣",
      "town": "頭城鎮",
      "name": "坪林石牌",
      "temp": 12.2,
      "at": 11.084407654577127,
      "lat": 24.866578,
      "lon": 121.76575
    },
    {
      "city": "花蓮縣",
      "town": "秀林鄉",
      "name": "天祥",
      "temp": 16.0,
      "at": 17.807479764344894,
      "lat": 24.181389,
      "lon": 121.4875
    },
    {
      "city": "花蓮縣",
      "town": "壽豐鄉",
      "name": "東華",
      "temp": 18.6,
      "at": 21.305096081050657,
      "lat": 23.897056,
      "lon": 121.541694
    },
    {
      "city": "花蓮縣",
      "town": "壽豐鄉",
      "name": "鯉魚潭",
      "temp": 16.9,
      "at": 18.202738432882583,
      "lat": 23.937444,
      "lon": 121.500806
    },
    {
      "city": "花蓮縣",
      "town": "秀林鄉",
      "name": "水源",
      "temp": 14.8,
      "at": 14.873947927071782,
      "lat": 23.993718,
      "lon": 121.529043
    },
    {
      "city": "花蓮縣",
      "town": "鳳林鎮",
      "name": "鳳林山",
      "temp": 14.9,
      "at": 15.14974473297194,
      "lat": 23.737072,
      "lon": 121.411994
    },
    {
      "city": "花蓮縣",
      "town": "光復鄉",
      "name": "光復",
      "temp": 17.7,
      "at": 19.614531974999473,
      "lat": 23.662497,
      "lon": 121.416839
    },
    {
      "city": "花蓮縣",
      "town": "萬榮鄉",
      "name": "西林",
      "temp": 17.6,
      "at": 19.047298016814057,
      "lat": 23.813667,
      "lon": 121.433194
    },
    {
      "city": "花蓮縣",
      "town": "壽豐鄉",
      "name": "月眉山",
      "temp": 15.0,
      "at": 15.915744069653773,
      "lat": 23.811736,
      "lon": 121.531686
    },
    {
      "city": "花蓮縣",
      "town": "壽豐鄉",
      "name": "大坑",
      "temp": 15.6,
      "at": 16.17604798322213,
      "lat": 23.882433,
      "lon": 121.573839
    },
    {
      "city": "花蓮縣",
      "town": "豐濱鄉",
      "name": "加路蘭山",
      "temp": 13.9,
      "at": 12.540731876394172,
      "lat": 23.684706,
      "lon": 121.519219
    },
    {
      "city": "花蓮縣",
      "town": "壽豐鄉",
      "name": "水璉",
      "temp": 17.3,
      "at": 19.136779223871628,
      "lat": 23.798889,
      "lon": 121.534167
    },
    {
      "city": "花蓮縣",
      "town": "豐濱鄉",
      "name": "豐濱",
      "temp": 17.9,
      "at": 17.037087183159688,
      "lat": 23.585708,
      "lon": 121.506678
    },
    {
      "city": "花蓮縣",
      "town": "富里鄉",
      "name": "明里",
      "temp": 17.8,
      "at": 19.404507208819663,
      "lat": 23.210556,
      "lon": 121.254167
    },
    {
      "city": "花蓮縣",
      "town": "玉里鎮",
      "name": "玉里",
      "temp": 18.5,
      "at": 19.47990370464034,
      "lat": 23.323306,
      "lon": 121.331556
    },
    {
      "city": "花蓮縣",
      "town": "瑞穗鄉",
      "name": "舞鶴",
      "temp": 16.9,
      "at": 17.579343142751128,
      "lat": 23.469722,
      "lon": 121.365833
    },
    {
      "city": "花蓮縣",
      "town": "卓溪鄉",
      "name": "佳心",
      "temp": 14.3,
      "at": 15.506929027144785,
      "lat": 23.347464,
      "lon": 121.205061
    },
    {
      "city": "花蓮縣",
      "town": "光復鄉",
      "name": "富源",
      "temp": 16.6,
      "at": 18.190083138952616,
      "lat": 23.58975,
      "lon": 121.370389
    },
    {
      "city": "花蓮縣",
      "town": "吉安鄉",
      "name": "吉安光華",
      "temp": 19.0,
      "at": 16.087377721544836,
      "lat": 23.932733,
      "lon": 121.587003
    },
    {
      "city": "花蓮縣",
      "town": "鳳林鎮",
      "name": "鳳林",
      "temp": 18.1,
      "at": 19.20874974225185,
      "lat": 23.747917,
      "lon": 121.445278
    },
    {
      "city": "花蓮縣",
      "town": "卓溪鄉",
      "name": "卓溪",
      "temp": 18.5,
      "at": 19.549458594319425,
      "lat": 23.346133,
      "lon": 121.294748
    },
    {
      "city": "花蓮縣",
      "town": "新城鄉",
      "name": "新城",
      "temp": 19.1,
      "at": 16.51286149729059,
      "lat": 24.042289,
      "lon": 121.596724
    },
    {
      "city": "花蓮縣",
      "town": "秀林鄉",
      "name": "富世",
      "temp": 19.2,
      "at": 21.28540744346919,
      "lat": 24.149236,
      "lon": 121.621542
    },
    {
      "city": "花蓮縣",
      "town": "鳳林鎮",
      "name": "萬榮",
      "temp": 18.1,
      "at": 19.833879043708812,
      "lat": 23.711022,
      "lon": 121.411969
    },
    {
      "city": "花蓮縣",
      "town": "瑞穗鄉",
      "name": "瑞穗",
      "temp": 18.4,
      "at": 20.318703457964393,
      "lat": 23.525708,
      "lon": 121.382086
    },
    {
      "city": "花蓮縣",
      "town": "卓溪鄉",
      "name": "瑞穗林道",
      "temp": 12.7,
      "at": 13.278942831980793,
      "lat": 23.494642,
      "lon": 121.298764
    },
    {
      "city": "花蓮縣",
      "town": "壽豐鄉",
      "name": "蕃薯寮",
      "temp": 16.1,
      "at": 15.564623217938564,
      "lat": 23.740156,
      "lon": 121.531975
    },
    {
      "city": "花蓮縣",
      "town": "玉里鎮",
      "name": "德武",
      "temp": 17.6,
      "at": 20.02355882111111,
      "lat": 23.476069,
      "lon": 121.402597
    },
    {
      "city": "花蓮縣",
      "town": "玉里鎮",
      "name": "赤柯山",
      "temp": 13.6,
      "at": 14.029834604272686,
      "lat": 23.370733,
      "lon": 121.374825
    },
    {
      "city": "花蓮縣",
      "town": "富里鄉",
      "name": "東里",
      "temp": 18.5,
      "at": 19.900126259800796,
      "lat": 23.270336,
      "lon": 121.297364
    },
    {
      "city": "花蓮縣",
      "town": "秀林鄉",
      "name": "清水斷崖",
      "temp": 19.0,
      "at": 20.29904730848858,
      "lat": 24.2201,
      "lon": 121.680972
    },
    {
      "city": "花蓮縣",
      "town": "卓溪鄉",
      "name": "清水林道",
      "temp": 13.3,
      "at": 13.928197390389897,
      "lat": 23.273047,
      "lon": 121.180172
    },
    {
      "city": "花蓮縣",
      "town": "玉里鎮",
      "name": "安通山",
      "temp": 15.6,
      "at": 16.036047983222133,
      "lat": 23.292536,
      "lon": 121.340419
    },
    {
      "city": "花蓮縣",
      "town": "豐濱鄉",
      "name": "靜浦",
      "temp": 18.0,
      "at": 19.744863993509693,
      "lat": 23.456944,
      "lon": 121.486667
    },
    {
      "city": "臺東縣",
      "town": "長濱鄉",
      "name": "長濱",
      "temp": 18.1,
      "at": 19.835502609889826,
      "lat": 23.288611,
      "lon": 121.403889
    },
    {
      "city": "臺東縣",
      "town": "東河鄉",
      "name": "東河",
      "temp": 19.7,
      "at": 21.928320379693716,
      "lat": 22.973611,
      "lon": 121.298333
    },
    {
      "city": "臺東縣",
      "town": "綠島鄉",
      "name": "綠島",
      "temp": 21.0,
      "at": 17.588620812268058,
      "lat": 22.669025,
      "lon": 121.467267
    },
    {
      "city": "臺東縣",
      "town": "海端鄉",
      "name": "下馬",
      "temp": 13.4,
      "at": 13.467170165222651,
      "lat": 23.152222,
      "lon": 121.062222
    },
    {
      "city": "臺東縣",
      "town": "海端鄉",
      "name": "向陽",
      "temp": 6.7,
      "at": 5.869848693268583,
      "lat": 23.25,
      "lon": 120.978056
    },
    {
      "city": "臺東縣",
      "town": "海端鄉",
      "name": "紅石",
      "temp": 11.5,
      "at": 11.900122387555456,
      "lat": 23.070902,
      "lon": 121.11777
    },
    {
      "city": "臺東縣",
      "town": "池上鄉",
      "name": "池上",
      "temp": 17.4,
      "at": 18.701350921366323,
      "lat": 23.121389,
      "lon": 121.201667
    },
    {
      "city": "臺東縣",
      "town": "鹿野鄉",
      "name": "鹿野",
      "temp": 17.0,
      "at": 17.222192575315937,
      "lat": 22.919517,
      "lon": 121.114908
    },
    {
      "city": "臺東縣",
      "town": "達仁鄉",
      "name": "土坂",
      "temp": 19.1,
      "at": 22.305791102897107,
      "lat": 22.454908,
      "lon": 120.879528
    },
    {
      "city": "臺東縣",
      "town": "太麻里鄉",
      "name": "大溪山",
      "temp": 17.5,
      "at": 19.821084110376898,
      "lat": 22.48,
      "lon": 120.935278
    },
    {
      "city": "臺東縣",
      "town": "達仁鄉",
      "name": "南田",
      "temp": 22.3,
      "at": 23.601721504717545,
      "lat": 22.291944,
      "lon": 120.881944
    },
    {
      "city": "臺東縣",
      "town": "太麻里鄉",
      "name": "金崙",
      "temp": 19.1,
      "at": 21.95021956546484,
      "lat": 22.54,
      "lon": 120.958889
    },
    {
      "city": "臺東縣",
      "town": "太麻里鄉",
      "name": "太麻里",
      "temp": 17.2,
      "at": 19.402540177407552,
      "lat": 22.610825,
      "lon": 120.977275
    },
    {
      "city": "臺東縣",
      "town": "卑南鄉",
      "name": "知本",
      "temp": 16.4,
      "at": 18.5415522378318,
      "lat": 22.686667,
      "lon": 120.997583
    },
    {
      "city": "花蓮縣",
      "town": "富里鄉",
      "name": "富里",
      "temp": 17.6,
      "at": 18.645993995328794,
      "lat": 23.173442,
      "lon": 121.241286
    },
    {
      "city": "桃園市",
      "town": "中壢區",
      "name": "中壢",
      "temp": 13.7,
      "at": 11.513682504609537,
      "lat": 24.979428,
      "lon": 121.248156
    },
    {
      "city": "臺南市",
      "town": "柳營區",
      "name": "柳營",
      "temp": 17.6,
      "at": 16.019646756655327,
      "lat": 23.255089,
      "lon": 120.367158
    },
    {
      "city": "新竹縣",
      "town": "關西鎮",
      "name": "關西",
      "temp": 14.4,
      "at": 15.370545349313694,
      "lat": 24.799421,
      "lon": 121.165033
    },
    {
      "city": "嘉義縣",
      "town": "阿里山鄉",
      "name": "新美",
      "temp": 16.6,
      "at": 17.824869836720197,
      "lat": 23.339792,
      "lon": 120.675231
    },
    {
      "city": "彰化縣",
      "town": "永靖鄉",
      "name": "永靖",
      "temp": 16.4,
      "at": 15.76465731264376,
      "lat": 23.926458,
      "lon": 120.539392
    },
    {
      "city": "彰化縣",
      "town": "竹塘鄉",
      "name": "竹塘",
      "temp": 15.8,
      "at": 13.733586775531265,
      "lat": 23.85,
      "lon": 120.378628
    },
    {
      "city": "雲林縣",
      "town": "東勢鄉",
      "name": "雲林東勢",
      "temp": 16.1,
      "at": 15.553100132292876,
      "lat": 23.675939,
      "lon": 120.2476
    },
    {
      "city": "屏東縣",
      "town": "車城鄉",
      "name": "車城",
      "temp": 21.6,
      "at": 20.388227755896484,
      "lat": 22.075833,
      "lon": 120.708056
    },
    {
      "city": "屏東縣",
      "town": "春日鄉",
      "name": "大漢山",
      "temp": 11.0,
      "at": 7.964504267572373,
      "lat": 22.405861,
      "lon": 120.745083
    },
    {
      "city": "屏東縣",
      "town": "枋山鄉",
      "name": "枋山",
      "temp": 19.7,
      "at": 22.348320379693718,
      "lat": 22.248639,
      "lon": 120.653058
    },
    {
      "city": "屏東縣",
      "town": "枋寮鄉",
      "name": "枋寮",
      "temp": 19.0,
      "at": 20.117054317153553,
      "lat": 22.369511,
      "lon": 120.582611
    },
    {
      "city": "屏東縣",
      "town": "枋山鄉",
      "name": "楓港",
      "temp": 22.0,
      "at": 23.17876115645079,
      "lat": 22.191928,
      "lon": 120.684131
    },
    {
      "city": "屏東縣",
      "town": "滿州鄉",
      "name": "檳榔",
      "temp": 19.4,
      "at": 20.052367962125423,
      "lat": 22.077883,
      "lon": 120.828758
    },
    {
      "city": "屏東縣",
      "town": "牡丹鄉",
      "name": "牡丹",
      "temp": 19.2,
      "at": 20.814847968890543,
      "lat": 22.131817,
      "lon": 120.784589
    },
    {
      "city": "屏東縣",
      "town": "滿州鄉",
      "name": "佳樂水",
      "temp": 22.2,
      "at": 23.07831130909863,
      "lat": 21.995386,
      "lon": 120.853619
    },
    {
      "city": "屏東縣",
      "town": "恆春鎮",
      "name": "墾丁",
      "temp": 19.7,
      "at": 21.61161495103647,
      "lat": 21.968561,
      "lon": 120.802258
    },
    {
      "city": "屏東縣",
      "town": "牡丹鄉",
      "name": "旭海",
      "temp": 20.2,
      "at": 18.639172157533306,
      "lat": 22.207208,
      "lon": 120.879586
    },
    {
      "city": "屏東縣",
      "town": "恆春鎮",
      "name": "貓鼻頭",
      "temp": 21.8,
      "at": 24.094406079067507,
      "lat": 21.923578,
      "lon": 120.727792
    },
    {
      "city": "屏東縣",
      "town": "恆春鎮",
      "name": "墾雷",
      "temp": 22.2,
      "at": 23.028686982259266,
      "lat": 21.90265,
      "lon": 120.847244
    },
    {
      "city": "屏東縣",
      "town": "牡丹鄉",
      "name": "四林格山",
      "temp": 17.4,
      "at": 13.083073876423256,
      "lat": 22.078792,
      "lon": 120.794419
    },
    {
      "city": "屏東縣",
      "town": "恆春鎮",
      "name": "大坪頂",
      "temp": 20.3,
      "at": 21.441125591497382,
      "lat": 22.026433,
      "lon": 120.685536
    },
    {
      "city": "屏東縣",
      "town": "恆春鎮",
      "name": "龍磐",
      "temp": 21.4,
      "at": 19.05557923542883,
      "lat": 21.933481,
      "lon": 120.830933
    },
    {
      "city": "屏東縣",
      "town": "獅子鄉",
      "name": "獅子",
      "temp": 21.9,
      "at": 22.879121031349403,
      "lat": 22.204106,
      "lon": 120.69721
    },
    {
      "city": "宜蘭縣",
      "town": "南澳鄉",
      "name": "東澳",
      "temp": 16.3,
      "at": 17.424404501619303,
      "lat": 24.523767,
      "lon": 121.824986
    },
    {
      "city": "宜蘭縣",
      "town": "南澳鄉",
      "name": "南澳",
      "temp": 18.0,
      "at": 17.482045275002463,
      "lat": 24.451153,
      "lon": 121.802036
    },
    {
      "city": "花蓮縣",
      "town": "秀林鄉",
      "name": "和中",
      "temp": 17.3,
      "at": 17.70662617235579,
      "lat": 24.268567,
      "lon": 121.732861
    },
    {
      "city": "宜蘭縣",
      "town": "大同鄉",
      "name": "翠峰湖",
      "temp": 6.6,
      "at": 5.672377062329321,
      "lat": 24.51265,
      "lon": 121.599858
    },
    {
      "city": "花蓮縣",
      "town": "秀林鄉",
      "name": "和平林道",
      "temp": 14.7,
      "at": 16.153269155961038,
      "lat": 24.345722,
      "lon": 121.648142
    },
    {
      "city": "花蓮縣",
      "town": "秀林鄉",
      "name": "和平",
      "temp": 18.4,
      "at": 10.034571559596069,
      "lat": 24.308961,
      "lon": 121.761903
    },
    {
      "city": "宜蘭縣",
      "town": "南澳鄉",
      "name": "樟樹山",
      "temp": 13.5,
      "at": 11.961754662742106,
      "lat": 24.415731,
      "lon": 121.775067
    },
    {
      "city": "宜蘭縣",
      "town": "頭城鎮",
      "name": "桃源谷",
      "temp": 11.9,
      "at": 9.12970097121455,
      "lat": 24.964408,
      "lon": 121.880658
    },
    {
      "city": "宜蘭縣",
      "town": "南澳鄉",
      "name": "西帽山",
      "temp": 11.2,
      "at": 9.902243423443549,
      "lat": 24.557164,
      "lon": 121.794436
    },
    {
      "city": "宜蘭縣",
      "town": "南澳鄉",
      "name": "西德山",
      "temp": 9.9,
      "at": 6.488732219693917,
      "lat": 24.562447,
      "lon": 121.744417
    },
    {
      "city": "新北市",
      "town": "烏來區",
      "name": "福山植物園",
      "temp": 12.7,
      "at": 13.537315991899792,
      "lat": 24.762506,
      "lon": 121.573147
    },
    {
      "city": "宜蘭縣",
      "town": "大同鄉",
      "name": "鴛鴦湖",
      "temp": 8.4,
      "at": 8.032471167644307,
      "lat": 24.592053,
      "lon": 121.404039
    },
    {
      "city": "宜蘭縣",
      "town": "大同鄉",
      "name": "白嶺",
      "temp": 9.4,
      "at": 9.286147739035902,
      "lat": 24.529611,
      "lon": 121.510844
    },
    {
      "city": "宜蘭縣",
      "town": "大同鄉",
      "name": "土場",
      "temp": 14.6,
      "at": 15.714039713310946,
      "lat": 24.578356,
      "lon": 121.487153
    },
    {
      "city": "宜蘭縣",
      "town": "員山鄉",
      "name": "員山",
      "temp": 17.4,
      "at": 18.056182056195535,
      "lat": 24.746147,
      "lon": 121.714269
    },
    {
      "city": "桃園市",
      "town": "蘆竹區",
      "name": "蘆竹",
      "temp": 14.3,
      "at": 12.9448509429915,
      "lat": 25.086111,
      "lon": 121.2575
    },
    {
      "city": "新竹縣",
      "town": "橫山鄉",
      "name": "橫山",
      "temp": 14.3,
      "at": 14.032210304375926,
      "lat": 24.712925,
      "lon": 121.108733
    },
    {
      "city": "新竹縣",
      "town": "新豐鄉",
      "name": "新豐",
      "temp": 13.0,
      "at": 11.903151296267518,
      "lat": 24.872436,
      "lon": 120.969
    },
    {
      "city": "新竹縣",
      "town": "五峰鄉",
      "name": "雪霸",
      "temp": 10.9,
      "at": 9.563449458179669,
      "lat": 24.528722,
      "lon": 121.107917
    },
    {
      "city": "新竹縣",
      "town": "竹東鎮",
      "name": "竹東",
      "temp": 14.4,
      "at": 14.142490015632958,
      "lat": 24.76925,
      "lon": 121.049861
    },
    {
      "city": "桃園市",
      "town": "平鎮區",
      "name": "平鎮",
      "temp": 13.0,
      "at": 11.783819783304844,
      "lat": 24.899444,
      "lon": 121.206389
    },
    {
      "city": "桃園市",
      "town": "大溪區",
      "name": "大溪",
      "temp": 13.6,
      "at": 12.672044528016322,
      "lat": 24.884722,
      "lon": 121.256944
    },
    {
      "city": "苗栗縣",
      "town": "頭份市",
      "name": "頭份",
      "temp": 15.0,
      "at": 14.289539899902245,
      "lat": 24.69,
      "lon": 120.904167
    },
    {
      "city": "新竹縣",
      "town": "寶山鄉",
      "name": "寶山",
      "temp": 14.2,
      "at": 15.000029603483203,
      "lat": 24.736722,
      "lon": 121.016769
    },
    {
      "city": "苗栗縣",
      "town": "獅潭鄉",
      "name": "獅潭",
      "temp": 14.2,
      "at": 13.130030590265974,
      "lat": 24.541028,
      "lon": 120.911972
    },
    {
      "city": "桃園市",
      "town": "楊梅區",
      "name": "楊梅",
      "temp": 13.2,
      "at": 10.73814699984966,
      "lat": 24.914139,
      "lon": 121.134833
    },
    {
      "city": "新竹縣",
      "town": "湖口鄉",
      "name": "湖口",
      "temp": 13.4,
      "at": 9.66780538928068,
      "lat": 24.906556,
      "lon": 121.035417
    },
    {
      "city": "桃園市",
      "town": "龍潭區",
      "name": "龍潭",
      "temp": 12.7,
      "at": 11.410569672061799,
      "lat": 24.871833,
      "lon": 121.213194
    },
    {
      "city": "新竹市",
      "town": "東區",
      "name": "新竹市東區",
      "temp": 13.7,
      "at": 12.423682504609538,
      "lat": 24.800436,
      "lon": 120.978742
    },
    {
      "city": "苗栗縣",
      "town": "三灣鄉",
      "name": "大河",
      "temp": 14.0,
      "at": 14.073569145364257,
      "lat": 24.619833,
      "lon": 120.94055
    },
    {
      "city": "臺中市",
      "town": "和平區",
      "name": "桃山",
      "temp": 1.1,
      "at": -3.9730507150732004,
      "lat": 24.434519,
      "lon": 121.295628
    },
    {
      "city": "臺中市",
      "town": "和平區",
      "name": "雪山東峰",
      "temp": 2.6,
      "at": -2.162856391232841,
      "lat": 24.390581,
      "lon": 121.263286
    },
    {
      "city": "臺中市",
      "town": "和平區",
      "name": "雪山圈谷",
      "temp": -0.9,
      "at": -4.553340482701326,
      "lat": 24.390375,
      "lon": 121.228197
    },
    {
      "city": "桃園市",
      "town": "龜山區",
      "name": "龜山",
      "temp": 13.1,
      "at": 12.00857286916608,
      "lat": 25.030231,
      "lon": 121.378336
    },
    {
      "city": "臺中市",
      "town": "和平區",
      "name": "審馬陣",
      "temp": 2.3,
      "at": -0.9419625609445257,
      "lat": 24.383461,
      "lon": 121.412122
    },
    {
      "city": "臺中市",
      "town": "和平區",
      "name": "南湖圈谷",
      "temp": -0.8,
      "at": -11.101525125152092,
      "lat": 24.365503,
      "lon": 121.436489
    },
    {
      "city": "苗栗縣",
      "town": "苗栗市",
      "name": "苗栗",
      "temp": 14.7,
      "at": 13.07209978037059,
      "lat": 24.566667,
      "lon": 120.816444
    },
    {
      "city": "苗栗縣",
      "town": "銅鑼鄉",
      "name": "銅鑼",
      "temp": 15.9,
      "at": 15.672072936068908,
      "lat": 24.491528,
      "lon": 120.782639
    },
    {
      "city": "苗栗縣",
      "town": "西湖鄉",
      "name": "西湖",
      "temp": 14.6,
      "at": 11.39566223122901,
      "lat": 24.564417,
      "lon": 120.740278
    },
    {
      "city": "臺中市",
      "town": "大安區",
      "name": "大安",
      "temp": 15.1,
      "at": 10.837193811727833,
      "lat": 24.347444,
      "lon": 120.579972
    },
    {
      "city": "臺中市",
      "town": "后里區",
      "name": "后里",
      "temp": 15.0,
      "at": 14.248799425474544,
      "lat": 24.312111,
      "lon": 120.7215
    },
    {
      "city": "臺中市",
      "town": "豐原區",
      "name": "豐原",
      "temp": 17.3,
      "at": 18.58674096099267,
      "lat": 24.256306,
      "lon": 120.712333
    },
    {
      "city": "臺中市",
      "town": "潭子區",
      "name": "潭子",
      "temp": 15.3,
      "at": 15.357970970868578,
      "lat": 24.21475,
      "lon": 120.695833
    },
    {
      "city": "臺中市",
      "town": "清水區",
      "name": "清水",
      "temp": 15.4,
      "at": 11.582754027900519,
      "lat": 24.314028,
      "lon": 120.554083
    },
    {
      "city": "臺中市",
      "town": "外埔區",
      "name": "外埔",
      "temp": 15.5,
      "at": 13.218931608784015,
      "lat": 24.349556,
      "lon": 120.697472
    },
    {
      "city": "臺中市",
      "town": "龍井區",
      "name": "龍井",
      "temp": 15.8,
      "at": 13.254475301397179,
      "lat": 24.186278,
      "lon": 120.520833
    },
    {
      "city": "彰化縣",
      "town": "伸港鄉",
      "name": "伸港",
      "temp": 15.5,
      "at": 11.598990963851568,
      "lat": 24.150528,
      "lon": 120.476167
    },
    {
      "city": "苗栗縣",
      "town": "苑裡鎮",
      "name": "苑裡",
      "temp": 15.1,
      "at": 12.810674342627514,
      "lat": 24.441458,
      "lon": 120.644883
    },
    {
      "city": "臺中市",
      "town": "石岡區",
      "name": "石岡",
      "temp": 15.3,
      "at": 15.217970970868578,
      "lat": 24.277822,
      "lon": 120.769478
    },
    {
      "city": "臺中市",
      "town": "和平區",
      "name": "中坑",
      "temp": 15.2,
      "at": 15.352498588470905,
      "lat": 24.250283,
      "lon": 120.895153
    },
    {
      "city": "南投縣",
      "town": "魚池鄉",
      "name": "魚池",
      "temp": 13.7,
      "at": 14.118580771812134,
      "lat": 23.897478,
      "lon": 120.933219
    },
    {
      "city": "南投縣",
      "town": "國姓鄉",
      "name": "國姓",
      "temp": 16.1,
      "at": 16.103353979900493,
      "lat": 24.039567,
      "lon": 120.846925
    },
    {
      "city": "南投縣",
      "town": "仁愛鄉",
      "name": "仁愛",
      "temp": 11.1,
      "at": 8.728500189492571,
      "lat": 24.023903,
      "lon": 121.124056
    },
    {
      "city": "南投縣",
      "town": "水里鄉",
      "name": "水里",
      "temp": 17.0,
      "at": 18.270415857678433,
      "lat": 23.814322,
      "lon": 120.841658
    },
    {
      "city": "南投縣",
      "town": "集集鎮",
      "name": "集集",
      "temp": 16.6,
      "at": 18.096878150615456,
      "lat": 23.829972,
      "lon": 120.793328
    },
    {
      "city": "南投縣",
      "town": "名間鄉",
      "name": "名間",
      "temp": 16.0,
      "at": 16.258254211911186,
      "lat": 23.838817,
      "lon": 120.693306
    },
    {
      "city": "南投縣",
      "town": "仁愛鄉",
      "name": "萬大林道",
      "temp": 11.9,
      "at": 11.434069747835204,
      "lat": 23.930008,
      "lon": 121.083267
    },
    {
      "city": "南投縣",
      "town": "仁愛鄉",
      "name": "梅峰",
      "temp": 6.8,
      "at": 5.1449222706741615,
      "lat": 24.087056,
      "lon": 121.165414
    },
    {
      "city": "南投縣",
      "town": "信義鄉",
      "name": "玉山風口",
      "temp": -2.7,
      "at": -7.320979237110979,
      "lat": 23.472294,
      "lon": 120.947853
    },
    {
      "city": "南投縣",
      "town": "仁愛鄉",
      "name": "小奇萊",
      "temp": 1.2,
      "at": -4.658696277667456,
      "lat": 24.13355,
      "lon": 121.287556
    },
    {
      "city": "南投縣",
      "town": "仁愛鄉",
      "name": "奇萊稜線",
      "temp": -0.3,
      "at": -7.438841270936235,
      "lat": 24.111019,
      "lon": 121.318297
    },
    {
      "city": "臺中市",
      "town": "大里區",
      "name": "大里",
      "temp": 17.3,
      "at": 17.93156877803735,
      "lat": 24.094389,
      "lon": 120.692194
    },
    {
      "city": "臺中市",
      "town": "烏日區",
      "name": "烏日",
      "temp": 16.1,
      "at": 14.71132319903958,
      "lat": 24.108833,
      "lon": 120.615917
    },
    {
      "city": "臺中市",
      "town": "西屯區",
      "name": "西屯",
      "temp": 15.5,
      "at": 15.284967221824548,
      "lat": 24.182028,
      "lon": 120.632861
    },
    {
      "city": "臺中市",
      "town": "南屯區",
      "name": "南屯",
      "temp": 16.5,
      "at": 16.859987981213603,
      "lat": 24.138861,
      "lon": 120.630111
    },
    {
      "city": "彰化縣",
      "town": "福興鄉",
      "name": "福興",
      "temp": 16.5,
      "at": 15.888180897102597,
      "lat": 24.042972,
      "lon": 120.429528
    },
    {
      "city": "彰化縣",
      "town": "秀水鄉",
      "name": "秀水",
      "temp": 16.3,
      "at": 14.904404501619304,
      "lat": 24.035917,
      "lon": 120.495722
    },
    {
      "city": "彰化縣",
      "town": "埔鹽鄉",
      "name": "埔鹽",
      "temp": 16.4,
      "at": 14.610319402157032,
      "lat": 24.002167,
      "lon": 120.423583
    },
    {
      "city": "彰化縣",
      "town": "埔心鄉",
      "name": "埔心",
      "temp": 17.3,
      "at": 18.02674096099267,
      "lat": 23.948694,
      "lon": 120.517611
    },
    {
      "city": "彰化縣",
      "town": "田尾鄉",
      "name": "田尾",
      "temp": 16.6,
      "at": 17.35027565644688,
      "lat": 23.903417,
      "lon": 120.501389
    },
    {
      "city": "彰化縣",
      "town": "埤頭鄉",
      "name": "埤頭",
      "temp": 16.0,
      "at": 15.127221615156127,
      "lat": 23.867806,
      "lon": 120.444722
    },
    {
      "city": "彰化縣",
      "town": "社頭鄉",
      "name": "社頭",
      "temp": 17.6,
      "at": 18.51721158243764,
      "lat": 23.899417,
      "lon": 120.578083
    },
    {
      "city": "彰化縣",
      "town": "二水鄉",
      "name": "二水",
      "temp": 18.0,
      "at": 18.78948031428853,
      "lat": 23.812778,
      "lon": 120.609028
    },
    {
      "city": "苗栗縣",
      "town": "造橋鄉",
      "name": "造橋",
      "temp": 14.9,
      "at": 14.494377917685586,
      "lat": 24.63875,
      "lon": 120.856583
    },
    {
      "city": "新竹縣",
      "town": "尖石鄉",
      "name": "梅花",
      "temp": 12.9,
      "at": 13.443991967882056,
      "lat": 24.680119,
      "lon": 121.200361
    },
    {
      "city": "新北市",
      "town": "坪林區",
      "name": "坪林",
      "temp": 12.8,
      "at": 12.53693317394347,
      "lat": 24.939975,
      "lon": 121.701531
    },
    {
      "city": "新北市",
      "town": "雙溪區",
      "name": "泰平",
      "temp": 12.9,
      "at": 13.801022647301089,
      "lat": 24.973056,
      "lon": 121.815278
    },
    {
      "city": "新北市",
      "town": "汐止區",
      "name": "五指山",
      "temp": 9.8,
      "at": 3.771901585694854,
      "lat": 25.133889,
      "lon": 121.600278
    },
    {
      "city": "新北市",
      "town": "汐止區",
      "name": "汐止",
      "temp": 15.1,
      "at": 14.52283009543007,
      "lat": 25.068667,
      "lon": 121.650556
    },
    {
      "city": "新北市",
      "town": "三峽區",
      "name": "三峽",
      "temp": 16.8,
      "at": 17.769543159754512,
      "lat": 24.940806,
      "lon": 121.3615
    },
    {
      "city": "臺北市",
      "town": "信義區",
      "name": "信義",
      "temp": 15.4,
      "at": 15.515136165510857,
      "lat": 25.039606,
      "lon": 121.556372
    },
    {
      "city": "臺北市",
      "town": "文山區",
      "name": "文山",
      "temp": 15.6,
      "at": 14.939164144564362,
      "lat": 25.004083,
      "lon": 121.567528
    },
    {
      "city": "新北市",
      "town": "新莊區",
      "name": "新莊",
      "temp": 15.0,
      "at": 15.759539899902244,
      "lat": 25.05325,
      "lon": 121.438528
    },
    {
      "city": "新北市",
      "town": "樹林區",
      "name": "山佳",
      "temp": 16.4,
      "at": 16.860228058805255,
      "lat": 24.976719,
      "lon": 121.393789
    },
    {
      "city": "新北市",
      "town": "烏來區",
      "name": "桶後",
      "temp": 14.5,
      "at": 15.44836434920714,
      "lat": 24.850056,
      "lon": 121.589639
    },
    {
      "city": "新北市",
      "town": "雙溪區",
      "name": "雙溪",
      "temp": 16.7,
      "at": 18.521500033834073,
      "lat": 25.037861,
      "lon": 121.856056
    },
    {
      "city": "新北市",
      "town": "瑞芳區",
      "name": "鼻頭角",
      "temp": 16.0,
      "at": 11.358254211911188,
      "lat": 25.130833,
      "lon": 121.915278
    },
    {
      "city": "新北市",
      "town": "萬里區",
      "name": "大坪",
      "temp": 12.1,
      "at": 10.06752633302251,
      "lat": 25.167694,
      "lon": 121.62475
    },
    {
      "city": "新北市",
      "town": "金山區",
      "name": "三和",
      "temp": 13.2,
      "at": 13.228045186654587,
      "lat": 25.234933,
      "lon": 121.586997
    },
    {
      "city": "新北市",
      "town": "金山區",
      "name": "金山",
      "temp": 14.1,
      "at": 14.977001799458236,
      "lat": 25.225278,
      "lon": 121.635556
    },
    {
      "city": "新北市",
      "town": "石碇區",
      "name": "石碇",
      "temp": 14.0,
      "at": 14.372101580337624,
      "lat": 24.995758,
      "lon": 121.654639
    },
    {
      "city": "桃園市",
      "town": "復興區",
      "name": "復興",
      "temp": 13.1,
      "at": 13.46960892842434,
      "lat": 24.822,
      "lon": 121.344094
    },
    {
      "city": "桃園市",
      "town": "八德區",
      "name": "八德",
      "temp": 14.3,
      "at": 14.888530623683714,
      "lat": 24.930528,
      "lon": 121.275
    },
    {
      "city": "新北市",
      "town": "中和區",
      "name": "中和",
      "temp": 15.8,
      "at": 15.317140878994927,
      "lat": 24.993403,
      "lon": 121.483569
    },
    {
      "city": "基隆市",
      "town": "暖暖區",
      "name": "暖暖",
      "temp": 15.3,
      "at": 14.816969651362605,
      "lat": 25.097533,
      "lon": 121.732069
    },
    {
      "city": "臺北市",
      "town": "士林區",
      "name": "天母",
      "temp": 16.3,
      "at": 16.482090870973305,
      "lat": 25.119253,
      "lon": 121.528939
    },
    {
      "city": "臺北市",
      "town": "士林區",
      "name": "社子",
      "temp": 15.6,
      "at": 16.187524624396584,
      "lat": 25.111389,
      "lon": 121.461389
    },
    {
      "city": "臺北市",
      "town": "北投區",
      "name": "大屯山",
      "temp": 8.1,
      "at": 5.699266608433394,
      "lat": 25.177333,
      "lon": 121.514167
    },
    {
      "city": "新北市",
      "town": "八里區",
      "name": "八里",
      "temp": 14.4,
      "at": 13.492766684036624,
      "lat": 25.15225,
      "lon": 121.395306
    },
    {
      "city": "新北市",
      "town": "蘆洲區",
      "name": "蘆洲",
      "temp": 15.9,
      "at": 16.844622247980134,
      "lat": 25.088528,
      "lon": 121.464056
    },
    {
      "city": "新北市",
      "town": "土城區",
      "name": "土城",
      "temp": 14.7,
      "at": 13.577016253542698,
      "lat": 24.974944,
      "lon": 121.436917
    },
    {
      "city": "新北市",
      "town": "鶯歌區",
      "name": "鶯歌",
      "temp": 15.9,
      "at": 16.86207293606891,
      "lat": 24.953,
      "lon": 121.33725
    },
    {
      "city": "新北市",
      "town": "永和區",
      "name": "永和",
      "temp": 16.0,
      "at": 16.059286808666247,
      "lat": 25.013028,
      "lon": 121.499889
    },
    {
      "city": "新北市",
      "town": "瑞芳區",
      "name": "五分山",
      "temp": 13.6,
      "at": 9.918536258229958,
      "lat": 25.073047,
      "lon": 121.772586
    },
    {
      "city": "臺北市",
      "town": "士林區",
      "name": "平等",
      "temp": 12.4,
      "at": 10.620825646489713,
      "lat": 25.130925,
      "lon": 121.568856
    },
    {
      "city": "新北市",
      "town": "林口區",
      "name": "林口",
      "temp": 12.6,
      "at": 11.025736196346273,
      "lat": 25.073953,
      "lon": 121.372611
    },
    {
      "city": "新北市",
      "town": "深坑區",
      "name": "深坑",
      "temp": 15.4,
      "at": 14.390843339848825,
      "lat": 25.004489,
      "lon": 121.620106
    },
    {
      "city": "基隆市",
      "town": "七堵區",
      "name": "七堵",
      "temp": 16.4,
      "at": 15.793059103561891,
      "lat": 25.096608,
      "lon": 121.708897
    },
    {
      "city": "新北市",
      "town": "五股區",
      "name": "五股",
      "temp": 13.7,
      "at": 13.466744550483131,
      "lat": 25.076228,
      "lon": 121.419053
    },
    {
      "city": "新北市",
      "town": "三重區",
      "name": "三重",
      "temp": 16.2,
      "at": 16.383252522861923,
      "lat": 25.059108,
      "lon": 121.4924
    },
    {
      "city": "臺北市",
      "town": "北投區",
      "name": "石牌",
      "temp": 17.7,
      "at": 17.850984147894305,
      "lat": 25.117336,
      "lon": 121.504825
    },
    {
      "city": "臺東縣",
      "town": "金峰鄉",
      "name": "金峰嘉蘭",
      "temp": 18.6,
      "at": 21.302341276998128,
      "lat": 22.596589,
      "lon": 120.952772
    },
    {
      "city": "臺東縣",
      "town": "延平鄉",
      "name": "延平",
      "temp": 18.2,
      "at": 20.73662543438487,
      "lat": 22.904381,
      "lon": 121.075983
    },
    {
      "city": "臺東縣",
      "town": "長濱鄉",
      "name": "石寧山",
      "temp": 18.8,
      "at": 19.899381473096476,
      "lat": 23.225581,
      "lon": 121.398542
    },
    {
      "city": "臺東縣",
      "town": "東河鄉",
      "name": "七塊厝",
      "temp": 16.6,
      "at": 18.03467731922593,
      "lat": 22.957525,
      "lon": 121.221089
    },
    {
      "city": "臺東縣",
      "town": "臺東市",
      "name": "知本(水試所)",
      "temp": 19.9,
      "at": 21.931152844388432,
      "lat": 22.704053,
      "lon": 121.074603
    },
    {
      "city": "臺東縣",
      "town": "太麻里鄉",
      "name": "香蘭",
      "temp": 20.5,
      "at": 22.505089979929398,
      "lat": 22.589372,
      "lon": 120.985322
    },
    {
      "city": "臺東縣",
      "town": "大武鄉",
      "name": "加津林",
      "temp": 20.9,
      "at": 23.81494133150393,
      "lat": 22.418014,
      "lon": 120.9189
    },
    {
      "city": "臺東縣",
      "town": "達仁鄉",
      "name": "勝林山",
      "temp": 15.1,
      "at": 16.75194691003199,
      "lat": 22.432239,
      "lon": 120.885742
    },
    {
      "city": "臺東縣",
      "town": "大武鄉",
      "name": "山豬窟",
      "temp": 18.0,
      "at": 18.847172153899113,
      "lat": 22.320422,
      "lon": 120.849339
    },
    {
      "city": "臺東縣",
      "town": "太麻里鄉",
      "name": "歷坵",
      "temp": 17.6,
      "at": 20.027298016814058,
      "lat": 22.522769,
      "lon": 120.883803
    },
    {
      "city": "臺東縣",
      "town": "卑南鄉",
      "name": "檳榔四格山",
      "temp": 16.2,
      "at": 17.843891437234266,
      "lat": 22.811789,
      "lon": 121.101247
    },
    {
      "city": "臺東縣",
      "town": "太麻里鄉",
      "name": "金崙山",
      "temp": 15.0,
      "at": 15.985744069653773,
      "lat": 22.569219,
      "lon": 120.951617
    },
    {
      "city": "臺東縣",
      "town": "成功鎮",
      "name": "都歷",
      "temp": 19.9,
      "at": 22.038700978229993,
      "lat": 23.022142,
      "lon": 121.315558
    },
    {
      "city": "臺東縣",
      "town": "達仁鄉",
      "name": "達仁林場",
      "temp": 17.4,
      "at": 19.243073876423257,
      "lat": 22.266147,
      "lon": 120.815942
    },
    {
      "city": "屏東縣",
      "town": "牡丹鄉",
      "name": "牡丹池山",
      "temp": 16.6,
      "at": 14.830083138952617,
      "lat": 22.170192,
      "lon": 120.8332
    },
    {
      "city": "屏東縣",
      "town": "牡丹鄉",
      "name": "高士",
      "temp": 18.1,
      "at": 17.515761212803746,
      "lat": 22.123631,
      "lon": 120.828758
    },
    {
      "city": "屏東縣",
      "town": "來義鄉",
      "name": "白鷺",
      "temp": 17.2,
      "at": 18.94488141631958,
      "lat": 22.456067,
      "lon": 120.658178
    },
    {
      "city": "屏東縣",
      "town": "獅子鄉",
      "name": "內獅",
      "temp": 19.3,
      "at": 22.669688535120606,
      "lat": 22.306856,
      "lon": 120.634956
    },
    {
      "city": "屏東縣",
      "town": "獅子鄉",
      "name": "丹路",
      "temp": 20.9,
      "at": 22.725225095886977,
      "lat": 22.206281,
      "lon": 120.742964
    },
    {
      "city": "屏東縣",
      "town": "滿州鄉",
      "name": "九棚",
      "temp": 21.3,
      "at": 15.27319327494174,
      "lat": 22.143756,
      "lon": 120.886331
    },
    {
      "city": "屏東縣",
      "town": "滿州鄉",
      "name": "滿州",
      "temp": 21.6,
      "at": 20.04279913285196,
      "lat": 22.026208,
      "lon": 120.831875
    },
    {
      "city": "屏東縣",
      "town": "車城鄉",
      "name": "保力",
      "temp": 21.1,
      "at": 22.827936961393704,
      "lat": 22.072925,
      "lon": 120.756094
    },
    {
      "city": "屏東縣",
      "town": "滿州鄉",
      "name": "南仁湖",
      "temp": 19.3,
      "at": 18.178597879066988,
      "lat": 22.086486,
      "lon": 120.855333
    },
    {
      "city": "南投縣",
      "town": "仁愛鄉",
      "name": "合歡山頂",
      "temp": 0.2,
      "at": -5.276327656847798,
      "lat": 24.144778,
      "lon": 121.264083
    },
    {
      "city": "臺中市",
      "town": "北屯區",
      "name": "大坑",
      "temp": 17.5,
      "at": 18.816793222729544,
      "lat": 24.174889,
      "lon": 120.714139
    },
    {
      "city": "彰化縣",
      "town": "溪湖鎮",
      "name": "溪湖",
      "temp": 16.9,
      "at": 16.705018500647853,
      "lat": 23.95175,
      "lon": 120.471056
    },
    {
      "city": "彰化縣",
      "town": "員林市",
      "name": "員林",
      "temp": 17.7,
      "at": 18.387739135525848,
      "lat": 23.948333,
      "lon": 120.577528
    },
    {
      "city": "南投縣",
      "town": "草屯鎮",
      "name": "草屯",
      "temp": 17.1,
      "at": 17.880419863887763,
      "lat": 23.975444,
      "lon": 120.672194
    },
    {
      "city": "彰化縣",
      "town": "芬園鄉",
      "name": "芬園",
      "temp": 15.7,
      "at": 16.826022638555582,
      "lat": 24.017222,
      "lon": 120.613056
    },
    {
      "city": "臺中市",
      "town": "東勢區",
      "name": "東勢",
      "temp": 15.9,
      "at": 16.333602523215642,
      "lat": 24.248194,
      "lon": 120.824917
    },
    {
      "city": "南投縣",
      "town": "竹山鎮",
      "name": "竹山",
      "temp": 16.9,
      "at": 17.8289714019624,
      "lat": 23.764722,
      "lon": 120.677778
    },
    {
      "city": "苗栗縣",
      "town": "泰安鄉",
      "name": "馬都安",
      "temp": 11.3,
      "at": 11.667252544393989,
      "lat": 24.453056,
      "lon": 120.921944
    },
    {
      "city": "苗栗縣",
      "town": "頭屋鄉",
      "name": "明德",
      "temp": 15.2,
      "at": 13.571984638472575,
      "lat": 24.58525,
      "lon": 120.877222
    },
    {
      "city": "苗栗縣",
      "town": "通霄鎮",
      "name": "通霄",
      "temp": 15.1,
      "at": 14.057193811727831,
      "lat": 24.473639,
      "lon": 120.696444
    },
    {
      "city": "臺中市",
      "town": "神岡區",
      "name": "神岡",
      "temp": 14.3,
      "at": 13.364850942991499,
      "lat": 24.274222,
      "lon": 120.650306
    },
    {
      "city": "苗栗縣",
      "town": "卓蘭鎮",
      "name": "卓蘭",
      "temp": 14.7,
      "at": 14.687851521821589,
      "lat": 24.314319,
      "lon": 120.816192
    },
    {
      "city": "臺中市",
      "town": "新社區",
      "name": "新社",
      "temp": 13.5,
      "at": 13.845618016962828,
      "lat": 24.201583,
      "lon": 120.8075
    },
    {
      "city": "南投縣",
      "town": "埔里鎮",
      "name": "埔里",
      "temp": 15.1,
      "at": 16.13283009543007,
      "lat": 23.973944,
      "lon": 120.944278
    },
    {
      "city": "南投縣",
      "town": "仁愛鄉",
      "name": "昆陽",
      "temp": 1.8,
      "at": -3.3784545922361655,
      "lat": 24.123139,
      "lon": 121.265361
    },
    {
      "city": "南投縣",
      "town": "仁愛鄉",
      "name": "廬山",
      "temp": 12.3,
      "at": 10.359972983199803,
      "lat": 24.035,
      "lon": 121.173333
    },
    {
      "city": "臺中市",
      "town": "大雅區",
      "name": "大雅",
      "temp": 14.6,
      "at": 12.290391811576,
      "lat": 24.217056,
      "lon": 120.616239
    },
    {
      "city": "南投縣",
      "town": "南投市",
      "name": "南投",
      "temp": 17.1,
      "at": 17.326649721946595,
      "lat": 23.913208,
      "lon": 120.679183
    },
    {
      "city": "彰化縣",
      "town": "花壇鄉",
      "name": "花壇",
      "temp": 17.8,
      "at": 17.940307057055037,
      "lat": 24.032075,
      "lon": 120.541314
    },
    {
      "city": "彰化縣",
      "town": "線西鄉",
      "name": "線西",
      "temp": 16.1,
      "at": 13.231577046647196,
      "lat": 24.141081,
      "lon": 120.435381
    },
    {
      "city": "臺中市",
      "town": "霧峰區",
      "name": "霧峰",
      "temp": 17.3,
      "at": 18.14156877803735,
      "lat": 24.043658,
      "lon": 120.691323
    },
    {
      "city": "雲林縣",
      "town": "虎尾鎮",
      "name": "虎尾",
      "temp": 16.7,
      "at": 17.48630648471936,
      "lat": 23.720939,
      "lon": 120.433911
    },
    {
      "city": "雲林縣",
      "town": "口湖鄉",
      "name": "宜梧",
      "temp": 16.5,
      "at": 15.241795065324613,
      "lat": 23.538014,
      "lon": 120.1612
    },
    {
      "city": "嘉義縣",
      "town": "義竹鄉",
      "name": "東後寮",
      "temp": 16.7,
      "at": 15.33111293560465,
      "lat": 23.371644,
      "lon": 120.239936
    },
    {
      "city": "臺南市",
      "town": "東山區",
      "name": "東河",
      "temp": 17.5,
      "at": 16.095103970430028,
      "lat": 23.298339,
      "lon": 120.377492
    },
    {
      "city": "臺南市",
      "town": "佳里區",
      "name": "佳里",
      "temp": 17.0,
      "at": 15.552820090835251,
      "lat": 23.175,
      "lon": 120.136667
    },
    {
      "city": "彰化縣",
      "town": "二林鎮",
      "name": "二林",
      "temp": 15.8,
      "at": 13.436478568603938,
      "lat": 23.905067,
      "lon": 120.367928
    },
    {
      "city": "臺南市",
      "town": "白河區",
      "name": "白河",
      "temp": 17.2,
      "at": 16.371052035775595,
      "lat": 23.349228,
      "lon": 120.406328
    },
    {
      "city": "嘉義縣",
      "town": "番路鄉",
      "name": "番路",
      "temp": 16.0,
      "at": 16.85786698812804,
      "lat": 23.466408,
      "lon": 120.546028
    },
    {
      "city": "臺南市",
      "town": "新營區",
      "name": "新營",
      "temp": 17.3,
      "at": 17.07662617235579,
      "lat": 23.312447,
      "lon": 120.308586
    },
    {
      "city": "臺南市",
      "town": "將軍區",
      "name": "將軍",
      "temp": 17.0,
      "at": 14.834213741100026,
      "lat": 23.216733,
      "lon": 120.127656
    },
    {
      "city": "雲林縣",
      "town": "褒忠鄉",
      "name": "褒忠",
      "temp": 15.9,
      "at": 14.36666169750912,
      "lat": 23.692672,
      "lon": 120.295503
    },
    {
      "city": "嘉義縣",
      "town": "溪口鄉",
      "name": "溪口",
      "temp": 16.7,
      "at": 15.92812906281787,
      "lat": 23.605872,
      "lon": 120.395439
    },
    {
      "city": "雲林縣",
      "town": "二崙鄉",
      "name": "二崙",
      "temp": 16.0,
      "at": 13.428770510288714,
      "lat": 23.77455,
      "lon": 120.400811
    },
    {
      "city": "嘉義縣",
      "town": "中埔鄉",
      "name": "中埔",
      "temp": 16.5,
      "at": 16.600830485879648,
      "lat": 23.427144,
      "lon": 120.514797
    },
    {
      "city": "臺南市",
      "town": "鹽水區",
      "name": "鹽水",
      "temp": 17.2,
      "at": 16.31722265523161,
      "lat": 23.274339,
      "lon": 120.239506
    },
    {
      "city": "臺南市",
      "town": "學甲區",
      "name": "學甲",
      "temp": 17.0,
      "at": 15.349022207413661,
      "lat": 23.2321,
      "lon": 120.174072
    },
    {
      "city": "臺南市",
      "town": "後壁區",
      "name": "後壁",
      "temp": 17.1,
      "at": 15.961433435732687,
      "lat": 23.368094,
      "lon": 120.354211
    },
    {
      "city": "雲林縣",
      "town": "西螺鎮",
      "name": "西螺",
      "temp": 16.3,
      "at": 15.597221550409138,
      "lat": 23.80215,
      "lon": 120.459253
    },
    {
      "city": "雲林縣",
      "town": "土庫鎮",
      "name": "土庫",
      "temp": 16.3,
      "at": 15.326195414521969,
      "lat": 23.680772,
      "lon": 120.387436
    },
    {
      "city": "嘉義縣",
      "town": "大林鎮",
      "name": "大林",
      "temp": 16.9,
      "at": 16.88859966117367,
      "lat": 23.602361,
      "lon": 120.450281
    },
    {
      "city": "嘉義縣",
      "town": "東石鄉",
      "name": "東石",
      "temp": 16.5,
      "at": 14.278180897102597,
      "lat": 23.460653,
      "lon": 120.145722
    },
    {
      "city": "嘉義縣",
      "town": "水上鄉",
      "name": "水上",
      "temp": 17.0,
      "at": 16.590415857678433,
      "lat": 23.421475,
      "lon": 120.380792
    },
    {
      "city": "嘉義市",
      "town": "東區",
      "name": "嘉義市東區",
      "temp": 17.5,
      "at": 17.19432710117883,
      "lat": 23.459414,
      "lon": 120.452408
    },
    {
      "city": "臺南市",
      "town": "白河區",
      "name": "關子嶺",
      "temp": 15.3,
      "at": 16.61771734222715,
      "lat": 23.332933,
      "lon": 120.499931
    },
    {
      "city": "臺南市",
      "town": "歸仁區",
      "name": "媽廟",
      "temp": 18.3,
      "at": 19.202279902024124,
      "lat": 22.993514,
      "lon": 120.285431
    },
    {
      "city": "臺南市",
      "town": "龍崎區",
      "name": "崎頂",
      "temp": 17.2,
      "at": 18.503320590378227,
      "lat": 22.961306,
      "lon": 120.361194
    },
    {
      "city": "臺南市",
      "town": "新市區",
      "name": "新市",
      "temp": 18.2,
      "at": 19.277366182706306,
      "lat": 23.063556,
      "lon": 120.290417
    },
    {
      "city": "臺南市",
      "town": "南化區",
      "name": "北寮",
      "temp": 18.1,
      "at": 19.480631911346787,
      "lat": 23.081611,
      "lon": 120.486944
    },
    {
      "city": "高雄市",
      "town": "桃源區",
      "name": "復興",
      "temp": 16.4,
      "at": 16.96324179026544,
      "lat": 23.224167,
      "lon": 120.797778
    },
    {
      "city": "臺南市",
      "town": "六甲區",
      "name": "王爺宮",
      "temp": 16.9,
      "at": 18.369157272356762,
      "lat": 23.223828,
      "lon": 120.392758
    },
    {
      "city": "臺南市",
      "town": "大內區",
      "name": "大內",
      "temp": 17.4,
      "at": 18.164197227545163,
      "lat": 23.120611,
      "lon": 120.35275
    },
    {
      "city": "高雄市",
      "town": "阿蓮區",
      "name": "阿蓮",
      "temp": 16.9,
      "at": 16.912366692093855,
      "lat": 22.884944,
      "lon": 120.319528
    },
    {
      "city": "臺南市",
      "town": "北區",
      "name": "臺南市北區",
      "temp": 17.9,
      "at": 17.392040801311698,
      "lat": 23.012167,
      "lon": 120.186333
    },
    {
      "city": "臺南市",
      "town": "南區",
      "name": "臺南市南區",
      "temp": 17.6,
      "at": 17.53721158243764,
      "lat": 22.963028,
      "lon": 120.180417
    },
    {
      "city": "臺南市",
      "town": "安平區",
      "name": "安平",
      "temp": 17.7,
      "at": 16.91441841947321,
      "lat": 22.994972,
      "lon": 120.144111
    },
    {
      "city": "臺南市",
      "town": "麻豆區",
      "name": "麻豆",
      "temp": 18.2,
      "at": 18.15020568382535,
      "lat": 23.185056,
      "lon": 120.2405
    },
    {
      "city": "臺南市",
      "town": "安定區",
      "name": "安定",
      "temp": 17.7,
      "at": 17.45449412315739,
      "lat": 23.104417,
      "lon": 120.219972
    },
    {
      "city": "臺南市",
      "town": "山上區",
      "name": "山上",
      "temp": 17.8,
      "at": 19.483206981172728,
      "lat": 23.077444,
      "lon": 120.355194
    },
    {
      "city": "臺南市",
      "town": "官田區",
      "name": "官田",
      "temp": 18.0,
      "at": 18.414863993509694,
      "lat": 23.195028,
      "lon": 120.307528
    },
    {
      "city": "臺南市",
      "town": "西港區",
      "name": "西港",
      "temp": 17.1,
      "at": 17.793028006994717,
      "lat": 23.127417,
      "lon": 120.195083
    },
    {
      "city": "臺南市",
      "town": "仁德區",
      "name": "仁德",
      "temp": 18.3,
      "at": 18.363801701978637,
      "lat": 22.970111,
      "lon": 120.249778
    },
    {
      "city": "嘉義縣",
      "town": "大埔鄉",
      "name": "表湖",
      "temp": 16.8,
      "at": 17.748578691773602,
      "lat": 23.243628,
      "lon": 120.633564
    },
    {
      "city": "屏東縣",
      "town": "泰武鄉",
      "name": "舊泰武",
      "temp": 16.5,
      "at": 17.997094242878713,
      "lat": 22.58995,
      "lon": 120.656922
    },
    {
      "city": "高雄市",
      "town": "茂林區",
      "name": "萬山",
      "temp": 18.1,
      "at": 19.692255477527798,
      "lat": 22.907694,
      "lon": 120.68
    },
    {
      "city": "高雄市",
      "town": "六龜區",
      "name": "六龜",
      "temp": 18.7,
      "at": 21.160368022694065,
      "lat": 22.99975,
      "lon": 120.625528
    },
    {
      "city": "屏東縣",
      "town": "里港鄉",
      "name": "里港",
      "temp": 18.0,
      "at": 19.12717215389911,
      "lat": 22.780972,
      "lon": 120.486528
    },
    {
      "city": "高雄市",
      "town": "左營區",
      "name": "左營",
      "temp": 17.9,
      "at": 17.462040801311698,
      "lat": 22.676689,
      "lon": 120.27685
    },
    {
      "city": "屏東縣",
      "town": "東港鎮",
      "name": "東港",
      "temp": 19.6,
      "at": 20.79199268561518,
      "lat": 22.464244,
      "lon": 120.432703
    },
    {
      "city": "屏東縣",
      "town": "竹田鄉",
      "name": "竹田",
      "temp": 19.2,
      "at": 21.451328144031,
      "lat": 22.586642,
      "lon": 120.535392
    },
    {
      "city": "屏東縣",
      "town": "萬丹鄉",
      "name": "萬丹",
      "temp": 18.8,
      "at": 20.66506875732659,
      "lat": 22.590256,
      "lon": 120.477031
    },
    {
      "city": "屏東縣",
      "town": "霧臺鄉",
      "name": "阿禮",
      "temp": 16.7,
      "at": 15.121774219014892,
      "lat": 22.744444,
      "lon": 120.735556
    },
    {
      "city": "高雄市",
      "town": "大樹區",
      "name": "溪埔",
      "temp": 19.2,
      "at": 21.571887618609644,
      "lat": 22.740278,
      "lon": 120.438611
    },
    {
      "city": "高雄市",
      "town": "燕巢區",
      "name": "阿公店",
      "temp": 18.8,
      "at": 19.41369418886636,
      "lat": 22.805944,
      "lon": 120.347444
    },
    {
      "city": "高雄市",
      "town": "內門區",
      "name": "內門",
      "temp": 16.4,
      "at": 17.53447462594021,
      "lat": 22.976944,
      "lon": 120.458333
    },
    {
      "city": "高雄市",
      "town": "田寮區",
      "name": "古亭坑",
      "temp": 17.6,
      "at": 19.139733191031745,
      "lat": 22.895,
      "lon": 120.393889
    },
    {
      "city": "屏東縣",
      "town": "琉球鄉",
      "name": "琉球嶼",
      "temp": 20.2,
      "at": 21.929172157533305,
      "lat": 22.334025,
      "lon": 120.354194
    },
    {
      "city": "高雄市",
      "town": "鳳山區",
      "name": "鳳山",
      "temp": 18.6,
      "at": 19.690688394566607,
      "lat": 22.648611,
      "lon": 120.348056
    },
    {
      "city": "屏東縣",
      "town": "鹽埔鄉",
      "name": "鹽埔",
      "temp": 17.9,
      "at": 19.13708718315969,
      "lat": 22.741342,
      "lon": 120.522697
    },
    {
      "city": "高雄市",
      "town": "小港區",
      "name": "鳳森",
      "temp": 18.8,
      "at": 19.683631185403296,
      "lat": 22.546944,
      "lon": 120.3845
    },
    {
      "city": "屏東縣",
      "town": "萬巒鄉",
      "name": "赤山",
      "temp": 18.8,
      "at": 21.523757192329416,
      "lat": 22.594139,
      "lon": 120.60625
    },
    {
      "city": "屏東縣",
      "town": "潮州鎮",
      "name": "潮州",
      "temp": 19.3,
      "at": 21.302719681608547,
      "lat": 22.536139,
      "lon": 120.531972
    },
    {
      "city": "高雄市",
      "town": "新興區",
      "name": "新興",
      "temp": 18.4,
      "at": 18.642289520072637,
      "lat": 22.629111,
      "lon": 120.290583
    },
    {
      "city": "高雄市",
      "town": "湖內區",
      "name": "湖內",
      "temp": 17.7,
      "at": 17.8144562713153,
      "lat": 22.888889,
      "lon": 120.236444
    },
    {
      "city": "高雄市",
      "town": "永安區",
      "name": "永安",
      "temp": 17.5,
      "at": 17.886016353478347,
      "lat": 22.824944,
      "lon": 120.228806
    },
    {
      "city": "高雄市",
      "town": "大社區",
      "name": "大社",
      "temp": 18.3,
      "at": 19.06151900204687,
      "lat": 22.731944,
      "lon": 120.338583
    },
    {
      "city": "高雄市",
      "town": "梓官區",
      "name": "梓官",
      "temp": 17.8,
      "at": 17.324806677643476,
      "lat": 22.762444,
      "lon": 120.25925
    },
    {
      "city": "高雄市",
      "town": "路竹區",
      "name": "路竹",
      "temp": 18.2,
      "at": 18.921399100305507,
      "lat": 22.856639,
      "lon": 120.251361
    },
    {
      "city": "高雄市",
      "town": "茄萣區",
      "name": "茄萣",
      "temp": 18.1,
      "at": 18.15712617607084,
      "lat": 22.908444,
      "lon": 120.174583
    },
    {
      "city": "高雄市",
      "town": "岡山區",
      "name": "岡山",
      "temp": 18.4,
      "at": 19.551311503134027,
      "lat": 22.798844,
      "lon": 120.286889
    },
    {
      "city": "高雄市",
      "town": "彌陀區",
      "name": "彌陀",
      "temp": 17.9,
      "at": 18.52194803761571,
      "lat": 22.785583,
      "lon": 120.238278
    },
    {
      "city": "高雄市",
      "town": "橋頭區",
      "name": "橋頭",
      "temp": 18.1,
      "at": 18.37199687461388,
      "lat": 22.759583,
      "lon": 120.297694
    },
    {
      "city": "高雄市",
      "town": "仁武區",
      "name": "仁武",
      "temp": 18.1,
      "at": 18.435502609889827,
      "lat": 22.702861,
      "lon": 120.339667
    },
    {
      "city": "高雄市",
      "town": "三民區",
      "name": "三民",
      "temp": 18.9,
      "at": 20.177722478460772,
      "lat": 22.646917,
      "lon": 120.303278
    },
    {
      "city": "高雄市",
      "town": "鼓山區",
      "name": "鼓山",
      "temp": 18.2,
      "at": 18.574979349745988,
      "lat": 22.625139,
      "lon": 120.2675
    },
    {
      "city": "高雄市",
      "town": "苓雅區",
      "name": "苓雅",
      "temp": 19.6,
      "at": 19.962157219394363,
      "lat": 22.624528,
      "lon": 120.322583
    },
    {
      "city": "高雄市",
      "town": "旗山區",
      "name": "旗山",
      "temp": 18.8,
      "at": 19.267943901173183,
      "lat": 22.890389,
      "lon": 120.475528
    },
    {
      "city": "屏東縣",
      "town": "長治鄉",
      "name": "長治",
      "temp": 18.3,
      "at": 20.036953602183328,
      "lat": 22.694833,
      "lon": 120.534611
    },
    {
      "city": "屏東縣",
      "town": "麟洛鄉",
      "name": "麟洛",
      "temp": 20.0,
      "at": 22.38773070191615,
      "lat": 22.652556,
      "lon": 120.519139
    },
    {
      "city": "屏東縣",
      "town": "南州鄉",
      "name": "南州",
      "temp": 19.8,
      "at": 21.445642950649404,
      "lat": 22.487694,
      "lon": 120.494694
    },
    {
      "city": "屏東縣",
      "town": "佳冬鄉",
      "name": "佳冬",
      "temp": 18.6,
      "at": 19.83179031618762,
      "lat": 22.421194,
      "lon": 120.544222
    },
    {
      "city": "屏東縣",
      "town": "高樹鄉",
      "name": "高樹",
      "temp": 18.4,
      "at": 19.97391954830366,
      "lat": 22.828222,
      "lon": 120.592722
    },
    {
      "city": "高雄市",
      "town": "大寮區",
      "name": "大寮",
      "temp": 19.2,
      "at": 19.678647531039417,
      "lat": 22.607389,
      "lon": 120.387667
    },
    {
      "city": "屏東縣",
      "town": "新園鄉",
      "name": "新園",
      "temp": 19.3,
      "at": 20.38162902555493,
      "lat": 22.545194,
      "lon": 120.4535
    },
    {
      "city": "屏東縣",
      "town": "崁頂鄉",
      "name": "崁頂",
      "temp": 19.7,
      "at": 22.037164046260266,
      "lat": 22.516639,
      "lon": 120.498972
    },
    {
      "city": "高雄市",
      "town": "林園區",
      "name": "林園",
      "temp": 20.4,
      "at": 21.809974408336732,
      "lat": 22.509583,
      "lon": 120.386556
    },
    {
      "city": "彰化縣",
      "town": "溪州鄉",
      "name": "溪州",
      "temp": 16.3,
      "at": 15.67619541452197,
      "lat": 23.853347,
      "lon": 120.490944
    },
    {
      "city": "雲林縣",
      "town": "斗南鎮",
      "name": "斗南",
      "temp": 16.5,
      "at": 14.735409233546626,
      "lat": 23.680478,
      "lon": 120.470231
    },
    {
      "city": "雲林縣",
      "town": "斗六市",
      "name": "斗六",
      "temp": 16.8,
      "at": 16.208578691773603,
      "lat": 23.722303,
      "lon": 120.532972
    },
    {
      "city": "嘉義縣",
      "town": "朴子市",
      "name": "朴子",
      "temp": 15.8,
      "at": 14.83180972379943,
      "lat": 23.436364,
      "lon": 120.230928
    },
    {
      "city": "雲林縣",
      "town": "北港鎮",
      "name": "北港",
      "temp": 16.3,
      "at": 14.547221550409137,
      "lat": 23.575803,
      "lon": 120.283672
    },
    {
      "city": "嘉義縣",
      "town": "太保市",
      "name": "太保",
      "temp": 16.6,
      "at": 15.85707066810972,
      "lat": 23.456792,
      "lon": 120.323303
    },
    {
      "city": "雲林縣",
      "town": "林內鄉",
      "name": "林內",
      "temp": 17.0,
      "at": 17.366617974256844,
      "lat": 23.750436,
      "lon": 120.601508
    },
    {
      "city": "彰化縣",
      "town": "大城鄉",
      "name": "大城",
      "temp": 15.8,
      "at": 14.503586775531264,
      "lat": 23.854225,
      "lon": 120.312789
    },
    {
      "city": "嘉義縣",
      "town": "民雄鄉",
      "name": "民雄",
      "temp": 16.9,
      "at": 16.81859966117367,
      "lat": 23.553497,
      "lon": 120.420331
    },
    {
      "city": "雲林縣",
      "town": "大埤鄉",
      "name": "大埤",
      "temp": 16.5,
      "at": 14.611795065324614,
      "lat": 23.647817,
      "lon": 120.4234
    },
    {
      "city": "雲林縣",
      "town": "莿桐鄉",
      "name": "莿桐",
      "temp": 16.4,
      "at": 15.503150446913665,
      "lat": 23.762947,
      "lon": 120.494247
    },
    {
      "city": "雲林縣",
      "town": "臺西鄉",
      "name": "臺西",
      "temp": 16.2,
      "at": 14.283668807276783,
      "lat": 23.703283,
      "lon": 120.189422
    },
    {
      "city": "雲林縣",
      "town": "水林鄉",
      "name": "水林",
      "temp": 16.3,
      "at": 17.067221550409137,
      "lat": 23.574658,
      "lon": 120.237839
    },
    {
      "city": "雲林縣",
      "town": "元長鄉",
      "name": "元長",
      "temp": 16.2,
      "at": 15.123668807276786,
      "lat": 23.651544,
      "lon": 120.306892
    },
    {
      "city": "嘉義縣",
      "town": "布袋鎮",
      "name": "布袋",
      "temp": 16.6,
      "at": 14.130468173941143,
      "lat": 23.382611,
      "lon": 120.159667
    },
    {
      "city": "嘉義縣",
      "town": "鹿草鄉",
      "name": "鹿草",
      "temp": 17.0,
      "at": 16.62142644057048,
      "lat": 23.413075,
      "lon": 120.300231
    },
    {
      "city": "嘉義縣",
      "town": "新港鄉",
      "name": "新港",
      "temp": 16.6,
      "at": 15.864869836720196,
      "lat": 23.555011,
      "lon": 120.3376
    },
    {
      "city": "嘉義縣",
      "town": "梅山鄉",
      "name": "梅山",
      "temp": 16.5,
      "at": 16.53902340176864,
      "lat": 23.587147,
      "lon": 120.547464
    },
    {
      "city": "嘉義縣",
      "town": "阿里山鄉",
      "name": "達邦",
      "temp": 14.5,
      "at": 14.088322265830062,
      "lat": 23.455769,
      "lon": 120.741403
    },
    {
      "city": "臺南市",
      "town": "白河區",
      "name": "鹿寮",
      "temp": 17.1,
      "at": 17.979838864470654,
      "lat": 23.387811,
      "lon": 120.469225
    },
    {
      "city": "嘉義縣",
      "town": "阿里山鄉",
      "name": "茶山",
      "temp": 16.0,
      "at": 17.158125137316805,
      "lat": 23.300847,
      "lon": 120.656664
    },
    {
      "city": "雲林縣",
      "town": "古坑鄉",
      "name": "棋山",
      "temp": 17.1,
      "at": 17.775636150101672,
      "lat": 23.688211,
      "lon": 120.595289
    },
    {
      "city": "雲林縣",
      "town": "水林鄉",
      "name": "蔦松",
      "temp": 16.3,
      "at": 15.387221550409137,
      "lat": 23.516064,
      "lon": 120.221625
    },
    {
      "city": "臺南市",
      "town": "北門區",
      "name": "北門",
      "temp": 16.8,
      "at": 13.919543159754511,
      "lat": 23.269517,
      "lon": 120.117367
    },
    {
      "city": "雲林縣",
      "town": "口湖鄉",
      "name": "口湖工作站",
      "temp": 16.0,
      "at": 13.5088995848831,
      "lat": 23.591722,
      "lon": 120.172281
    },
    {
      "city": "屏東縣",
      "town": "東港鎮",
      "name": "東港工作站",
      "temp": 19.4,
      "at": 21.073274747615883,
      "lat": 22.481778,
      "lon": 120.458017
    },
    {
      "city": "屏東縣",
      "town": "車城鄉",
      "name": "恆春工作站",
      "temp": 22.3,
      "at": 20.358662433902317,
      "lat": 22.081478,
      "lon": 120.706406
    },
    {
      "city": "南投縣",
      "town": "仁愛鄉",
      "name": "萬大發電廠",
      "temp": 11.1,
      "at": 10.493829161794224,
      "lat": 23.980611,
      "lon": 121.131497
    },
    {
      "city": "新北市",
      "town": "新店區",
      "name": "新北",
      "temp": 14.7,
      "at": 14.312600941337923,
      "lat": 24.96099,
      "lon": 121.516977
    },
    {
      "city": "新北市",
      "town": "淡水區",
      "name": "淡水",
      "temp": 14.1,
      "at": 11.91205378906979,
      "lat": 25.166664,
      "lon": 121.440672
    },
    {
      "city": "臺北市",
      "town": "北投區",
      "name": "鞍部",
      "temp": 9.1,
      "at": 7.858457499067125,
      "lat": 25.184365,
      "lon": 121.521495
    },
    {
      "city": "臺北市",
      "town": "中正區",
      "name": "臺北",
      "temp": 16.0,
      "at": 15.359286808666248,
      "lat": 25.039439,
      "lon": 121.506628
    },
    {
      "city": "臺北市",
      "town": "北投區",
      "name": "陽明山",
      "temp": 10.6,
      "at": 6.260476848019566,
      "lat": 25.163858,
      "lon": 121.536313
    },
    {
      "city": "基隆市",
      "town": "仁愛區",
      "name": "基隆",
      "temp": 15.0,
      "at": 12.764169662688396,
      "lat": 25.135104,
      "lon": 121.732242
    },
    {
      "city": "基隆市",
      "town": "中正區",
      "name": "彭佳嶼",
      "temp": 14.7,
      "at": 8.817016253542699,
      "lat": 25.629774,
      "lon": 122.071474
    },
    {
      "city": "花蓮縣",
      "town": "花蓮市",
      "name": "花蓮",
      "temp": 19.6,
      "at": 16.771499084277643,
      "lat": 23.976933,
      "lon": 121.605126
    },
    {
      "city": "桃園市",
      "town": "新屋區",
      "name": "新屋",
      "temp": 14.1,
      "at": 7.712053789069788,
      "lat": 25.008484,
      "lon": 121.039271
    },
    {
      "city": "宜蘭縣",
      "town": "宜蘭市",
      "name": "宜蘭",
      "temp": 17.3,
      "at": 16.041568778037348,
      "lat": 24.765773,
      "lon": 121.748322
    },
    {
      "city": "金門縣",
      "town": "金城鎮",
      "name": "金門",
      "temp": 12.6,
      "at": 9.456531595113555,
      "lat": 24.408942,
      "lon": 118.281127
    },
    {
      "city": "彰化縣",
      "town": "田中鎮",
      "name": "田中",
      "temp": 16.9,
      "at": 16.615204371042214,
      "lat": 23.875561,
      "lon": 120.573149
    },
    {
      "city": "苗栗縣",
      "town": "造橋鄉",
      "name": "後龍",
      "temp": 14.9,
      "at": 11.988580470355865,
      "lat": 24.650318,
      "lon": 120.823641
    },
    {
      "city": "雲林縣",
      "town": "古坑鄉",
      "name": "古坑",
      "temp": 16.9,
      "at": 16.45539024143658,
      "lat": 23.635401,
      "lon": 120.543769
    },
    {
      "city": "澎湖縣",
      "town": "望安鄉",
      "name": "東吉島",
      "temp": 18.8,
      "at": 11.283631185403298,
      "lat": 23.258999,
      "lon": 119.659533
    },
    {
      "city": "澎湖縣",
      "town": "馬公市",
      "name": "澎湖",
      "temp": 17.8,
      "at": 15.09350644999654,
      "lat": 23.56722,
      "lon": 119.554987
    },
    {
      "city": "臺南市",
      "town": "中西區",
      "name": "臺南",
      "temp": 17.9,
      "at": 16.34947122853971,
      "lat": 22.995039,
      "lon": 120.196846
    },
    {
      "city": "臺南市",
      "town": "永康區",
      "name": "永康",
      "temp": 18.1,
      "at": 17.463620440794895,
      "lat": 23.040146,
      "lon": 120.228623
    },
    {
      "city": "高雄市",
      "town": "楠梓區",
      "name": "高雄",
      "temp": 17.9,
      "at": 19.002040801311697,
      "lat": 22.732201,
      "lon": 120.304459
    },
    {
      "city": "嘉義市",
      "town": "西區",
      "name": "嘉義",
      "temp": 17.0,
      "at": 15.890415857678434,
      "lat": 23.497684,
      "lon": 120.424796
    },
    {
      "city": "臺中市",
      "town": "北區",
      "name": "臺中",
      "temp": 16.6,
      "at": 16.020468173941143,
      "lat": 24.147494,
      "lon": 120.675919
    },
    {
      "city": "嘉義縣",
      "town": "阿里山鄉",
      "name": "阿里山",
      "temp": 5.2,
      "at": 2.6809971028833255,
      "lat": 23.509984,
      "lon": 120.805129
    },
    {
      "city": "臺東縣",
      "town": "大武鄉",
      "name": "大武",
      "temp": 21.9,
      "at": 23.10560312266563,
      "lat": 22.357523,
      "lon": 120.895703
    },
    {
      "city": "南投縣",
      "town": "信義鄉",
      "name": "玉山",
      "temp": -2.1,
      "at": -8.730056186772538,
      "lat": 23.488964,
      "lon": 120.951318
    },
    {
      "city": "新竹縣",
      "town": "竹北市",
      "name": "新竹",
      "temp": 14.5,
      "at": 12.943986718996072,
      "lat": 24.830335,
      "lon": 121.006343
    },
    {
      "city": "屏東縣",
      "town": "恆春鎮",
      "name": "恆春",
      "temp": 22.6,
      "at": 21.748166024431303,
      "lat": 22.0057,
      "lon": 120.738326
    },
    {
      "city": "臺東縣",
      "town": "成功鎮",
      "name": "成功",
      "temp": 20.5,
      "at": 19.21945782243501,
      "lat": 23.099296,
      "lon": 121.36534
    },
    {
      "city": "臺東縣",
      "town": "蘭嶼鄉",
      "name": "蘭嶼",
      "temp": 19.8,
      "at": 20.717772171487,
      "lat": 22.038737,
      "lon": 121.55041
    },
    {
      "city": "南投縣",
      "town": "魚池鄉",
      "name": "日月潭",
      "temp": 14.8,
      "at": 15.468674175823168,
      "lat": 23.883099,
      "lon": 120.899911
    },
    {
      "city": "臺東縣",
      "town": "臺東市",
      "name": "臺東",
      "temp": 20.7,
      "at": 22.208347302771337,
      "lat": 22.754017,
      "lon": 121.146522
    },
    {
      "city": "連江縣",
      "town": "南竿鄉",
      "name": "馬祖",
      "temp": 8.7,
      "at": 4.355087886233967,
      "lat": 26.171145,
      "lon": 119.914855
    },
    {
      "city": "高雄市",
      "town": "旗津區",
      "name": "東沙島",
      "temp": 22.8,
      "at": 26.929106485959853,
      "lat": 20.70252,
      "lon": 116.722116
    },
    {
      "city": "高雄市",
      "town": "旗津區",
      "name": "南沙島",
      "temp": 26.5,
      "at": 30.238696316781613,
      "lat": 10.372116,
      "lon": 114.356938
    },
    {
      "city": "新北市",
      "town": "樹林區",
      "name": "桃改樹林分場",
      "temp": 15.2,
      "at": 13.37068338462565,
      "lat": 24.946279,
      "lon": 121.378755
    },
    {
      "city": "桃園市",
      "town": "新屋區",
      "name": "桃園農改",
      "temp": 13.9,
      "at": 10.809195282574464,
      "lat": 24.952721,
      "lon": 121.022375
    },
    {
      "city": "新竹縣",
      "town": "五峰鄉",
      "name": "桃改五峰分場",
      "temp": 10.6,
      "at": 10.488917978462496,
      "lat": 24.613978,
      "lon": 121.148983
    },
    {
      "city": "新竹縣",
      "town": "新埔鎮",
      "name": "桃改新埔分場",
      "temp": 14.1,
      "at": 10.737105778681338,
      "lat": 24.836,
      "lon": 121.058
    },
    {
      "city": "彰化縣",
      "town": "大村鄉",
      "name": "臺中農改",
      "temp": 16.0,
      "at": 14.149028659477484,
      "lat": 24.004779,
      "lon": 120.526236
    },
    {
      "city": "南投縣",
      "town": "魚池鄉",
      "name": "中改埔里分場",
      "temp": 12.0,
      "at": 12.573830759292505,
      "lat": 23.904982,
      "lon": 120.955222
    },
    {
      "city": "雲林縣",
      "town": "斗南鎮",
      "name": "南改斗南分場",
      "temp": 17.2,
      "at": 17.431832448746267,
      "lat": 23.636304,
      "lon": 120.469202
    },
    {
      "city": "嘉義縣",
      "town": "義竹鄉",
      "name": "南改義竹分場",
      "temp": 16.8,
      "at": 15.158578691773602,
      "lat": 23.362432,
      "lon": 120.271244
    },
    {
      "city": "嘉義縣",
      "town": "鹿草鄉",
      "name": "南改鹿草分場",
      "temp": 16.8,
      "at": 14.58456853976815,
      "lat": 23.418608,
      "lon": 120.274941
    },
    {
      "city": "臺南市",
      "town": "新化區",
      "name": "臺南農改",
      "temp": 17.5,
      "at": 19.557705605777862,
      "lat": 23.062242,
      "lon": 120.334096
    },
    {
      "city": "臺南市",
      "town": "七股區",
      "name": "七股研究中心",
      "temp": 18.0,
      "at": 15.299737114613045,
      "lat": 23.083472,
      "lon": 120.054792
    },
    {
      "city": "屏東縣",
      "town": "長治鄉",
      "name": "高雄農改",
      "temp": 19.2,
      "at": 20.798647531039418,
      "lat": 22.711084,
      "lon": 120.517814
    },
    {
      "city": "臺東縣",
      "town": "卑南鄉",
      "name": "東改班鳩分場",
      "temp": 18.3,
      "at": 19.272279902024124,
      "lat": 22.831307,
      "lon": 121.069619
    },
    {
      "city": "花蓮縣",
      "town": "吉安鄉",
      "name": "花蓮農改",
      "temp": 19.3,
      "at": 19.165750828096485,
      "lat": 23.977028,
      "lon": 121.555752
    },
    {
      "city": "宜蘭縣",
      "town": "三星鄉",
      "name": "花改蘭陽分場",
      "temp": 17.0,
      "at": 17.506617974256844,
      "lat": 24.688121,
      "lon": 121.708402
    },
    {
      "city": "高雄市",
      "town": "旗山區",
      "name": "高改旗南分場",
      "temp": 18.1,
      "at": 18.499008345165773,
      "lat": 22.859612,
      "lon": 120.508583
    },
    {
      "city": "新北市",
      "town": "石碇區",
      "name": "茶改北部分場",
      "temp": 12.4,
      "at": 11.040825646489713,
      "lat": 24.957588,
      "lon": 121.623022
    },
    {
      "city": "桃園市",
      "town": "楊梅區",
      "name": "茶改場",
      "temp": 12.8,
      "at": 12.418242395497266,
      "lat": 24.910258,
      "lon": 121.17713
    },
    {
      "city": "南投縣",
      "town": "魚池鄉",
      "name": "茶改中部分場",
      "temp": 13.3,
      "at": 13.877890897016094,
      "lat": 23.877382,
      "lon": 120.905442
    },
    {
      "city": "南投縣",
      "town": "鹿谷鄉",
      "name": "茶改南部分場",
      "temp": 15.0,
      "at": 15.929586628957235,
      "lat": 23.76429,
      "lon": 120.732364
    },
    {
      "city": "臺東縣",
      "town": "鹿野鄉",
      "name": "茶改東部分場",
      "temp": 18.7,
      "at": 19.266395801916303,
      "lat": 22.909476,
      "lon": 121.12206
    },
    {
      "city": "臺北市",
      "town": "大安區",
      "name": "臺灣大學",
      "temp": 15.5,
      "at": 15.54301470587859,
      "lat": 25.01606,
      "lon": 121.531193
    },
    {
      "city": "臺北市",
      "town": "士林區",
      "name": "文化大學",
      "temp": 12.2,
      "at": 6.81309786779739,
      "lat": 25.137855,
      "lon": 121.531657
    },
    {
      "city": "臺中市",
      "town": "和平區",
      "name": "武陵",
      "temp": 5.5,
      "at": 4.039548445259047,
      "lat": 24.354609,
      "lon": 121.300112
    },
    {
      "city": "彰化縣",
      "town": "彰化市",
      "name": "彰師大",
      "temp": 16.2,
      "at": 16.336863379138496,
      "lat": 24.08314,
      "lon": 120.548508
    },
    {
      "city": "雲林縣",
      "town": "麥寮鄉",
      "name": "麥寮",
      "temp": 16.6,
      "at": 12.637070668109722,
      "lat": 23.800517,
      "lon": 120.209572
    },
    {
      "city": "花蓮縣",
      "town": "秀林鄉",
      "name": "合歡山",
      "temp": 0.9,
      "at": -4.858757184887752,
      "lat": 24.144972,
      "lon": 121.276071
    },
    {
      "city": "桃園市",
      "town": "中壢區",
      "name": "農工中心",
      "temp": 13.7,
      "at": 12.718580771812135,
      "lat": 24.987706,
      "lon": 121.231626
    },
    {
      "city": "雲林縣",
      "town": "臺西鄉",
      "name": "水試臺西試驗場",
      "temp": 16.7,
      "at": 16.447080681178207,
      "lat": 23.718974,
      "lon": 120.182399
    },
    {
      "city": "雲林縣",
      "town": "古坑鄉",
      "name": "古坑(花卉中心)",
      "temp": 16.8,
      "at": 16.52355331175997,
      "lat": 23.6353,
      "lon": 120.54428
    },
    {
      "city": "雲林縣",
      "town": "虎尾鎮",
      "name": "雲林臺大",
      "temp": 16.2,
      "at": 15.664946636021469,
      "lat": 23.732381,
      "lon": 120.415777
    },
    {
      "city": "臺南市",
      "town": "後壁區",
      "name": "蘭花園區",
      "temp": 17.5,
      "at": 16.840171727328585,
      "lat": 23.342018,
      "lon": 120.371562
    },
    {
      "city": "苗栗縣",
      "town": "西湖鄉",
      "name": "畜試北區分所",
      "temp": 14.4,
      "at": 13.264434681952228,
      "lat": 24.529569,
      "lon": 120.762788
    },
    {
      "city": "臺南市",
      "town": "新化區",
      "name": "畜試所",
      "temp": 17.2,
      "at": 17.44793038389289,
      "lat": 23.060713,
      "lon": 120.328308
    },
    {
      "city": "屏東縣",
      "town": "恆春鎮",
      "name": "畜試南區分所",
      "temp": 21.6,
      "at": 20.93331348050539,
      "lat": 21.947348,
      "lon": 120.794139
    },
    {
      "city": "宜蘭縣",
      "town": "五結鄉",
      "name": "畜試東區分所",
      "temp": 17.1,
      "at": 15.874041578839641,
      "lat": 24.670842,
      "lon": 121.824362
    },
    {
      "city": "臺中市",
      "town": "梧棲區",
      "name": "梧棲",
      "temp": 15.5,
      "at": 11.596919737770506,
      "lat": 24.257753,
      "lon": 120.515211
    },
    {
      "city": "新北市",
      "town": "坪林區",
      "name": "四堵",
      "temp": 13.2,
      "at": 13.937984098737541,
      "lat": 24.894394,
      "lon": 121.737519
    },
    {
      "city": "新北市",
      "town": "烏來區",
      "name": "福山",
      "temp": 13.6,
      "at": 14.314641220101777,
      "lat": 24.778333,
      "lon": 121.494583
    },
    {
      "city": "新北市",
      "town": "平溪區",
      "name": "火燒寮",
      "temp": 13.3,
      "at": 13.810036350632714,
      "lat": 25.004411,
      "lon": 121.734572
    },
    {
      "city": "新北市",
      "town": "瑞芳區",
      "name": "瑞芳",
      "temp": 13.9,
      "at": 13.836117238866287,
      "lat": 25.114861,
      "lon": 121.792639
    },
    {
      "city": "新北市",
      "town": "貢寮區",
      "name": "福隆",
      "temp": 15.2,
      "at": 15.12082006155078,
      "lat": 25.019167,
      "lon": 121.934167
    },
    {
      "city": "新北市",
      "town": "石門區",
      "name": "富貴角",
      "temp": 12.2,
      "at": 10.944407654577127,
      "lat": 25.265556,
      "lon": 121.557278
    },
    {
      "city": "桃園市",
      "town": "中壢區",
      "name": "中央大學",
      "temp": 13.6,
      "at": 11.202044528016323,
      "lat": 24.969417,
      "lon": 121.176946
    },
    {
      "city": "桃園市",
      "town": "觀音區",
      "name": "觀音",
      "temp": 13.7,
      "at": 12.523479039014731,
      "lat": 25.028835,
      "lon": 121.145094
    },
    {
      "city": "新竹縣",
      "town": "關西鎮",
      "name": "關西工作站",
      "temp": 14.8,
      "at": 14.488674175823167,
      "lat": 24.759045,
      "lon": 121.176589
    },
    {
      "city": "新竹縣",
      "town": "寶山鄉",
      "name": "寶山農場",
      "temp": 14.5,
      "at": 14.429609088785003,
      "lat": 24.734205,
      "lon": 120.967953
    },
    {
      "city": "苗栗縣",
      "town": "竹南鎮",
      "name": "竹南",
      "temp": 14.9,
      "at": 12.63278302302615,
      "lat": 24.710737,
      "lon": 120.880772
    },
    {
      "city": "苗栗縣",
      "town": "南庄鄉",
      "name": "南庄",
      "temp": 14.3,
      "at": 13.418530623683715,
      "lat": 24.603539,
      "lon": 120.992023
    },
    {
      "city": "苗栗縣",
      "town": "大湖鄉",
      "name": "大湖",
      "temp": 13.8,
      "at": 13.967062303532256,
      "lat": 24.4167,
      "lon": 120.862694
    },
    {
      "city": "苗栗縣",
      "town": "後龍鎮",
      "name": "龍溪",
      "temp": 14.0,
      "at": 9.942979182522334,
      "lat": 24.608056,
      "lon": 120.775556
    },
    {
      "city": "苗栗縣",
      "town": "三義鄉",
      "name": "三義",
      "temp": 11.6,
      "at": 8.109757477759475,
      "lat": 24.407236,
      "lon": 120.741644
    },
    {
      "city": "苗栗縣",
      "town": "苗栗市",
      "name": "八甲",
      "temp": 13.7,
      "at": 11.403479039014732,
      "lat": 24.537566,
      "lon": 120.787798
    },
    {
      "city": "苗栗縣",
      "town": "獅潭鄉",
      "name": "和興",
      "temp": 11.9,
      "at": 10.45970097121455,
      "lat": 24.507081,
      "lon": 120.914833
    },
    {
      "city": "苗栗縣",
      "town": "卓蘭鎮",
      "name": "新坪頂",
      "temp": 12.4,
      "at": 11.205688030953418,
      "lat": 24.303773,
      "lon": 120.849231
    },
    {
      "city": "臺中市",
      "town": "大肚區",
      "name": "大肚",
      "temp": 13.9,
      "at": 12.769195282574465,
      "lat": 24.154667,
      "lon": 120.564
    },
    {
      "city": "臺中市",
      "town": "和平區",
      "name": "梨山",
      "temp": 8.8,
      "at": 5.335889021248413,
      "lat": 24.245,
      "lon": 121.237667
    },
    {
      "city": "臺中市",
      "town": "大甲區",
      "name": "大甲",
      "temp": 14.9,
      "at": 15.025972812345024,
      "lat": 24.349917,
      "lon": 120.632361
    },
    {
      "city": "臺中市",
      "town": "和平區",
      "name": "摩天嶺",
      "temp": 14.9,
      "at": 14.274226418420916,
      "lat": 24.324225,
      "lon": 120.928649
    },