{
  "meta": {
    "updated_at": "2026-07-23 05:05:14",
    "source": "CWA Auto Stations",
    "count": 851
  },
  "data": [
    {
      "city": "高雄市",
      "town": "內門區",
      "name": "內門",
      "temp": 25.4,
      "at": 31.01257479204226,
      "lat": 22.976944,
      "lon": 120.458333
    },
    {
      "city": "臺南市",
      "town": "南區",
      "name": "臺南市南區",
      "temp": 28.5,
      "at": 35.8096227753004,
      "lat": 22.963028,
      "lon": 120.180417
    },
    {
      "city": "屏東縣",
      "town": "潮州鎮",
      "name": "潮州",
      "temp": 27.9,
      "at": 34.127158897732244,
      "lat": 22.536139,
      "lon": 120.531972
    },
    {
      "city": "宜蘭縣",
      "town": "南澳鄉",
      "name": "東澳",
      "temp": 24.9,
      "at": 30.846119883456346,
      "lat": 24.523767,
      "lon": 121.824986
    },
    {
      "city": "臺南市",
      "town": "後壁區",
      "name": "後壁",
      "temp": 27.2,
      "at": 33.411335097828804,
      "lat": 23.368094,
      "lon": 120.354211
    },
    {
      "city": "嘉義市",
      "town": "東區",
      "name": "嘉義市東區",
      "temp": 26.9,
      "at": 33.34719321099852,
      "lat": 23.459414,
      "lon": 120.452408
    },
    {
      "city": "新北市",
      "town": "汐止區",
      "name": "汐止",
      "temp": 28.1,
      "at": 35.060424991461545,
      "lat": 25.068667,
      "lon": 121.650556
    },
    {
      "city": "臺東縣",
      "town": "成功鎮",
      "name": "小港漁港",
      "temp": 26.7,
      "at": 31.280603012933966,
      "lat": 23.160368,
      "lon": 121.392338
    },
    {
      "city": "臺東縣",
      "town": "鹿野鄉",
      "name": "鹿野",
      "temp": 24.7,
      "at": 30.630693658333307,
      "lat": 22.919517,
      "lon": 121.114908
    },
    {
      "city": "彰化縣",
      "town": "田尾鄉",
      "name": "田尾",
      "temp": 27.2,
      "at": 34.11733515730618,
      "lat": 23.903417,
      "lon": 120.501389
    },
    {
      "city": "苗栗縣",
      "town": "頭屋鄉",
      "name": "明德",
      "temp": 26.0,
      "at": 32.28455327464696,
      "lat": 24.58525,
      "lon": 120.877222
    },
    {
      "city": "桃園市",
      "town": "大溪區",
      "name": "大溪",
      "temp": 25.3,
      "at": 29.302249659557646,
      "lat": 24.884722,
      "lon": 121.256944
    },
    {
      "city": "屏東縣",
      "town": "內埔鄉",
      "name": "內埔",
      "temp": 26.7,
      "at": 32.35108215276964,
      "lat": 22.610267,
      "lon": 120.562662
    },
    {
      "city": "新北市",
      "town": "林口區",
      "name": "太平里",
      "temp": 28.1,
      "at": 33.83970960797211,
      "lat": 25.136709,
      "lon": 121.356668
    },
    {
      "city": "宜蘭縣",
      "town": "大同鄉",
      "name": "太平山莊",
      "temp": 16.4,
      "at": 16.90447462594021,
      "lat": 24.4959,
      "lon": 121.5281
    },
    {
      "city": "花蓮縣",
      "town": "秀林鄉",
      "name": "和中",
      "temp": 24.7,
      "at": 30.253558802920935,
      "lat": 24.268567,
      "lon": 121.732861
    },
    {
      "city": "臺中市",
      "town": "大甲區",
      "name": "松柏",
      "temp": 27.3,
      "at": 32.276463473706826,
      "lat": 24.430864,
      "lon": 120.609306
    },
    {
      "city": "苗栗縣",
      "town": "卓蘭鎮",
      "name": "卓蘭",
      "temp": 25.2,
      "at": 31.219665162610838,
      "lat": 24.314319,
      "lon": 120.816192
    },
    {
      "city": "嘉義縣",
      "town": "太保市",
      "name": "太保",
      "temp": 26.9,
      "at": 32.83399335858551,
      "lat": 23.456792,
      "lon": 120.323303
    },
    {
      "city": "彰化縣",
      "town": "溪湖鎮",
      "name": "溪湖",
      "temp": 28.3,
      "at": 34.80118476227675,
      "lat": 23.95175,
      "lon": 120.471056
    },
    {
      "city": "宜蘭縣",
      "town": "大同鄉",
      "name": "鴛鴦湖",
      "temp": 16.7,
      "at": 18.189677455735563,
      "lat": 24.592053,
      "lon": 121.404039
    },
    {
      "city": "桃園市",
      "town": "大溪區",
      "name": "大溪永福",
      "temp": 24.6,
      "at": 30.36987082651254,
      "lat": 24.894711,
      "lon": 121.316761
    },
    {
      "city": "宜蘭縣",
      "town": "大同鄉",
      "name": "玉蘭",
      "temp": 23.3,
      "at": 27.750667892542843,
      "lat": 24.677222,
      "lon": 121.578889
    },
    {
      "city": "臺東縣",
      "town": "東河鄉",
      "name": "東河",
      "temp": 26.1,
      "at": 31.325423383572776,
      "lat": 22.973611,
      "lon": 121.298333
    },
    {
      "city": "屏東縣",
      "town": "獅子鄉",
      "name": "獅子",
      "temp": 26.2,
      "at": 32.36850621919816,
      "lat": 22.204106,
      "lon": 120.69721
    },
    {
      "city": "高雄市",
      "town": "旗山區",
      "name": "旗山",
      "temp": 27.5,
      "at": 33.16657935413995,
      "lat": 22.890389,
      "lon": 120.475528
    },
    {
      "city": "高雄市",
      "town": "彌陀區",
      "name": "彌陀",
      "temp": 27.5,
      "at": 33.18581407420731,
      "lat": 22.785583,
      "lon": 120.238278
    },
    {
      "city": "彰化縣",
      "town": "埔鹽鄉",
      "name": "埔鹽",
      "temp": 28.3,
      "at": 35.1807456572988,
      "lat": 24.002167,
      "lon": 120.423583
    },
    {
      "city": "臺東縣",
      "town": "太麻里鄉",
      "name": "金崙山",
      "temp": 21.2,
      "at": 24.996251249379032,
      "lat": 22.569219,
      "lon": 120.951617
    },
    {
      "city": "高雄市",
      "town": "六龜區",
      "name": "花菓",
      "temp": 21.1,
      "at": 24.372075315778968,
      "lat": 23.03655,
      "lon": 120.67607
    },
    {
      "city": "宜蘭縣",
      "town": "壯圍鄉",
      "name": "大福",
      "temp": 25.9,
      "at": 32.01406009915867,
      "lat": 24.802436,
      "lon": 121.805683
    },
    {
      "city": "新北市",
      "town": "土城區",
      "name": "土城",
      "temp": 24.7,
      "at": 29.91404566237111,
      "lat": 24.974944,
      "lon": 121.436917
    },
    {
      "city": "臺南市",
      "town": "新化區",
      "name": "虎頭埤",
      "temp": 25.4,
      "at": 29.952197677656578,
      "lat": 23.023139,
      "lon": 120.339806
    },
    {
      "city": "新竹縣",
      "town": "竹東鎮",
      "name": "竹東",
      "temp": 26.2,
      "at": 31.795213202874898,
      "lat": 24.76925,
      "lon": 121.049861
    },
    {
      "city": "嘉義縣",
      "town": "竹崎鄉",
      "name": "水社寮",
      "temp": 20.1,
      "at": 23.09953774800744,
      "lat": 23.50594,
      "lon": 120.65223
    },
    {
      "city": "臺南市",
      "town": "安南區",
      "name": "城西",
      "temp": 28.6,
      "at": 34.93778553990173,
      "lat": 23.058558,
      "lon": 120.087492
    },
    {
      "city": "屏東縣",
      "town": "林邊鄉",
      "name": "林邊",
      "temp": 26.6,
      "at": 33.388200834136136,
      "lat": 22.465232,
      "lon": 120.52585
    },
    {
      "city": "屏東縣",
      "town": "車城鄉",
      "name": "保力",
      "temp": 24.9,
      "at": 30.91054154526703,
      "lat": 22.072925,
      "lon": 120.756094
    },
    {
      "city": "桃園市",
      "town": "平鎮區",
      "name": "平鎮",
      "temp": 25.8,
      "at": 31.089447840988285,
      "lat": 24.899444,
      "lon": 121.206389
    },
    {
      "city": "花蓮縣",
      "town": "秀林鄉",
      "name": "新白楊",
      "temp": 16.0,
      "at": 17.028254211911186,
      "lat": 24.19999,
      "lon": 121.424797
    },
    {
      "city": "臺南市",
      "town": "北門區",
      "name": "蘆竹溝",
      "temp": 27.7,
      "at": 33.558582948696284,
      "lat": 23.236154,
      "lon": 120.088035
    },
    {
      "city": "新北市",
      "town": "瑞芳區",
      "name": "水湳洞",
      "temp": 28.0,
      "at": 32.60111837577861,
      "lat": 25.125492,
      "lon": 121.854006
    },
    {
      "city": "宜蘭縣",
      "town": "大同鄉",
      "name": "太平山",
      "temp": 16.2,
      "at": 17.55005795100021,
      "lat": 24.507222,
      "lon": 121.5175
    },
    {
      "city": "花蓮縣",
      "town": "新城鄉",
      "name": "新城",
      "temp": 26.5,
      "at": 31.647017133444322,
      "lat": 24.042289,
      "lon": 121.596724
    },
    {
      "city": "屏東縣",
      "town": "滿州鄉",
      "name": "佳樂水",
      "temp": 27.7,
      "at": 33.87421848828538,
      "lat": 21.995386,
      "lon": 120.853619
    },
    {
      "city": "宜蘭縣",
      "town": "員山鄉",
      "name": "員山",
      "temp": 25.7,
      "at": 31.803811766558972,
      "lat": 24.746147,
      "lon": 121.714269
    },
    {
      "city": "新竹縣",
      "town": "五峰鄉",
      "name": "雪霸",
      "temp": 16.2,
      "at": 18.203252522861924,
      "lat": 24.528722,
      "lon": 121.107917
    },
    {
      "city": "嘉義縣",
      "town": "梅山鄉",
      "name": "梅山",
      "temp": 26.5,
      "at": 32.29480325566919,
      "lat": 23.587147,
      "lon": 120.547464
    },
    {
      "city": "花蓮縣",
      "town": "鳳林鎮",
      "name": "萬榮",
      "temp": 24.6,
      "at": 30.064562363184024,
      "lat": 23.711022,
      "lon": 121.411969
    },
    {
      "city": "嘉義縣",
      "town": "六腳鄉",
      "name": "六腳",
      "temp": 27.5,
      "at": 33.96810991400524,
      "lat": 23.494611,
      "lon": 120.2825
    },
    {
      "city": "花蓮縣",
      "town": "玉里鎮",
      "name": "赤柯山",
      "temp": 21.6,
      "at": 25.25719906058962,
      "lat": 23.370733,
      "lon": 121.374825
    },
    {
      "city": "高雄市",
      "town": "鼓山區",
      "name": "鼓山",
      "temp": 28.6,
      "at": 35.18156804979268,
      "lat": 22.625139,
      "lon": 120.2675
    },
    {
      "city": "屏東縣",
      "town": "里港鄉",
      "name": "里港",
      "temp": 27.6,
      "at": 34.075419958102415,
      "lat": 22.780972,
      "lon": 120.486528
    },
    {
      "city": "花蓮縣",
      "town": "秀林鄉",
      "name": "水源",
      "temp": 23.2,
      "at": 27.995758186816744,
      "lat": 23.993718,
      "lon": 121.529043
    },
    {
      "city": "新竹縣",
      "town": "橫山鄉",
      "name": "橫山",
      "temp": 23.4,
      "at": 28.775941246223127,
      "lat": 24.712925,
      "lon": 121.108733
    },
    {
      "city": "雲林縣",
      "town": "虎尾鎮",
      "name": "高鐵雲林",
      "temp": 26.5,
      "at": 33.09205468345621,
      "lat": 23.739206,
      "lon": 120.409817
    },
    {
      "city": "高雄市",
      "town": "甲仙區",
      "name": "五指寮林道3.5K",
      "temp": 23.2,
      "at": 27.59933008242118,
      "lat": 23.13855,
      "lon": 120.63219
    },
    {
      "city": "新北市",
      "town": "石門區",
      "name": "白沙灣",
      "temp": 26.0,
      "at": 31.216313057700084,
      "lat": 25.284903,
      "lon": 121.510814
    },
    {
      "city": "臺東縣",
      "town": "東河鄉",
      "name": "七塊厝",
      "temp": 23.9,
      "at": 29.171583421955525,
      "lat": 22.957525,
      "lon": 121.221089
    },
    {
      "city": "高雄市",
      "town": "阿蓮區",
      "name": "阿蓮",
      "temp": 27.7,
      "at": 34.136400718490826,
      "lat": 22.884944,
      "lon": 120.319528
    },
    {
      "city": "臺東縣",
      "town": "蘭嶼鄉",
      "name": "蘭嶼高中",
      "temp": 27.2,
      "at": 32.50733515730618,
      "lat": 22.050931,
      "lon": 121.504119
    },
    {
      "city": "臺東縣",
      "town": "海端鄉",
      "name": "下馬",
      "temp": 20.6,
      "at": 22.838484862951038,
      "lat": 23.152222,
      "lon": 121.062222
    },
    {
      "city": "臺東縣",
      "town": "成功鎮",
      "name": "白守蓮",
      "temp": 27.2,
      "at": 31.104668232904217,
      "lat": 23.12858,
      "lon": 121.393824
    },
    {
      "city": "宜蘭縣",
      "town": "大同鄉",
      "name": "翠峰湖",
      "temp": 13.5,
      "at": 13.686583855518005,
      "lat": 24.51265,
      "lon": 121.599858
    },
    {
      "city": "臺東縣",
      "town": "達仁鄉",
      "name": "勝林山",
      "temp": 22.0,
      "at": 26.317008018002397,
      "lat": 22.432239,
      "lon": 120.885742
    },
    {
      "city": "臺中市",
      "town": "豐原區",
      "name": "豐原",
      "temp": 28.3,
      "at": 33.86162386725469,
      "lat": 24.256306,
      "lon": 120.712333
    },
    {
      "city": "臺中市",
      "town": "龍井區",
      "name": "臺中電廠",
      "temp": 27.2,
      "at": 33.08266841133634,
      "lat": 24.216388,
      "lon": 120.482584
    },
    {
      "city": "雲林縣",
      "town": "西螺鎮",
      "name": "西螺",
      "temp": 26.6,
      "at": 32.91081328200262,
      "lat": 23.80215,
      "lon": 120.459253
    },
    {
      "city": "臺東縣",
      "town": "大武鄉",
      "name": "山豬窟",
      "temp": 24.6,
      "at": 29.663409802064884,
      "lat": 22.320422,
      "lon": 120.849339
    },
    {
      "city": "新北市",
      "town": "淡水區",
      "name": "淡水觀海",
      "temp": 27.8,
      "at": 33.21327388972141,
      "lat": 25.186364,
      "lon": 121.400381
    },
    {
      "city": "臺東縣",
      "town": "大武鄉",
      "name": "加津林",
      "temp": 27.7,
      "at": 33.61203625807992,
      "lat": 22.418014,
      "lon": 120.9189
    },
    {
      "city": "臺南市",
      "town": "東山區",
      "name": "東河",
      "temp": 26.2,
      "at": 31.095213202874895,
      "lat": 23.298339,
      "lon": 120.377492
    },
    {
      "city": "屏東縣",
      "town": "車城鄉",
      "name": "竹坑",
      "temp": 26.9,
      "at": 33.18399335858551,
      "lat": 22.140248,
      "lon": 120.694128
    },
    {
      "city": "高雄市",
      "town": "林園區",
      "name": "汕尾",
      "temp": 28.2,
      "at": 34.12093001414694,
      "lat": 22.479984,
      "lon": 120.407094
    },
    {
      "city": "桃園市",
      "town": "新屋區",
      "name": "中大臨海站",
      "temp": 26.7,
      "at": 32.696800862523155,
      "lat": 24.967883,
      "lon": 121.000364
    },
    {
      "city": "臺東縣",
      "town": "達仁鄉",
      "name": "南田",
      "temp": 27.0,
      "at": 32.552965439187474,
      "lat": 22.291944,
      "lon": 120.881944
    },
    {
      "city": "新北市",
      "town": "新店區",
      "name": "屈尺",
      "temp": 26.6,
      "at": 32.47820083413614,
      "lat": 24.923619,
      "lon": 121.536533
    },
    {
      "city": "高雄市",
      "town": "岡山區",
      "name": "岡山",
      "temp": 28.4,
      "at": 35.36305729852928,
      "lat": 22.798844,
      "lon": 120.286889
    },
    {
      "city": "桃園市",
      "town": "觀音區",
      "name": "觀音工業區",
      "temp": 28.5,
      "at": 34.7616479236137,
      "lat": 25.066525,
      "lon": 121.106631
    },
    {
      "city": "屏東縣",
      "town": "獅子鄉",
      "name": "內獅",
      "temp": 26.9,
      "at": 32.29699298961804,
      "lat": 22.306856,
      "lon": 120.634956
    },
    {
      "city": "花蓮縣",
      "town": "卓溪鄉",
      "name": "瑞穗林道",
      "temp": 19.3,
      "at": 22.153810337662165,
      "lat": 23.494642,
      "lon": 121.298764
    },
    {
      "city": "臺東縣",
      "town": "海端鄉",
      "name": "向陽",
      "temp": 12.5,
      "at": 12.259160436136352,
      "lat": 23.25,
      "lon": 120.978056
    },
    {
      "city": "臺東縣",
      "town": "長濱鄉",
      "name": "石寧山",
      "temp": 25.0,
      "at": 29.888587421251415,
      "lat": 23.225581,
      "lon": 121.398542
    },
    {
      "city": "高雄市",
      "town": "橋頭區",
      "name": "橋頭",
      "temp": 28.3,
      "at": 34.95726595563948,
      "lat": 22.759583,
      "lon": 120.297694
    },
    {
      "city": "花蓮縣",
      "town": "壽豐鄉",
      "name": "蕃薯寮",
      "temp": 23.9,
      "at": 28.204370266859385,
      "lat": 23.740156,
      "lon": 121.531975
    },
    {
      "city": "屏東縣",
      "town": "枋寮鄉",
      "name": "枋寮",
      "temp": 27.4,
      "at": 33.97565896889751,
      "lat": 22.369511,
      "lon": 120.582611
    },
    {
      "city": "花蓮縣",
      "town": "壽豐鄉",
      "name": "月眉山",
      "temp": 23.5,
      "at": 28.01671268359646,
      "lat": 23.811736,
      "lon": 121.531686
    },
    {
      "city": "屏東縣",
      "town": "枋山鄉",
      "name": "枋山",
      "temp": 25.6,
      "at": 28.756171241010236,
      "lat": 22.249572,
      "lon": 120.652748
    },
    {
      "city": "屏東縣",
      "town": "崁頂鄉",
      "name": "崁頂",
      "temp": 28.6,
      "at": 34.80661139631395,
      "lat": 22.516639,
      "lon": 120.498972
    },
    {
      "city": "臺東縣",
      "town": "蘭嶼鄉",
      "name": "蘭嶼燈塔",
      "temp": 26.4,
      "at": 32.39669653772635,
      "lat": 22.083031,
      "lon": 121.495094
    },
    {
      "city": "花蓮縣",
      "town": "壽豐鄉",
      "name": "水璉",
      "temp": 24.6,
      "at": 30.57340980206488,
      "lat": 23.798889,
      "lon": 121.534167
    },
    {
      "city": "南投縣",
      "town": "仁愛鄉",
      "name": "奧萬大",
      "temp": 19.0,
      "at": 21.30705431715355,
      "lat": 23.95473,
      "lon": 121.170332
    },
    {
      "city": "臺南市",
      "town": "學甲區",
      "name": "學甲",
      "temp": 27.5,
      "at": 34.03810991400524,
      "lat": 23.2321,
      "lon": 120.174072
    },
    {
      "city": "新北市",
      "town": "八里區",
      "name": "八里",
      "temp": 28.4,
      "at": 34.12226395308811,
      "lat": 25.15225,
      "lon": 121.395306
    },
    {
      "city": "嘉義縣",
      "town": "阿里山鄉",
      "name": "新美",
      "temp": 22.9,
      "at": 27.905442483367757,
      "lat": 23.339792,
      "lon": 120.675231
    },
    {
      "city": "臺東縣",
      "town": "海端鄉",
      "name": "紅石",
      "temp": 15.9,
      "at": 17.089523624157682,
      "lat": 23.070902,
      "lon": 121.11777
    },
    {
      "city": "苗栗縣",
      "town": "泰安鄉",
      "name": "馬都安",
      "temp": 22.1,
      "at": 26.766588315327667,
      "lat": 24.453056,
      "lon": 120.921944
    },
    {
      "city": "臺東縣",
      "town": "長濱鄉",
      "name": "樟原南溪",
      "temp": 23.3,
      "at": 27.56239250357452,
      "lat": 23.40411,
      "lon": 121.41507
    },
    {
      "city": "臺東縣",
      "town": "東河鄉",
      "name": "新蘭",
      "temp": 27.4,
      "at": 32.53534803654051,
      "lat": 22.871021,
      "lon": 121.215155
    },
    {
      "city": "臺東縣",
      "town": "成功鎮",
      "name": "叭嗡嗡",
      "temp": 27.9,
      "at": 33.72354526364128,
      "lat": 23.048871,
      "lon": 121.335138
    },
    {
      "city": "新北市",
      "town": "金山區",
      "name": "三和",
      "temp": 25.5,
      "at": 30.896953631178285,
      "lat": 25.234933,
      "lon": 121.586997
    },
    {
      "city": "臺南市",
      "town": "六甲區",
      "name": "王爺宮",
      "temp": 27.3,
      "at": 33.84072741731827,
      "lat": 23.223828,
      "lon": 120.392758
    },
    {
      "city": "臺南市",
      "town": "龍崎區",
      "name": "崎頂",
      "temp": 27.1,
      "at": 33.71768246099247,
      "lat": 22.961306,
      "lon": 120.361194
    },
    {
      "city": "臺東縣",
      "town": "成功鎮",
      "name": "都歷",
      "temp": 27.5,
      "at": 32.75351823440938,
      "lat": 23.022142,
      "lon": 121.315558
    },
    {
      "city": "苗栗縣",
      "town": "獅潭鄉",
      "name": "獅潭",
      "temp": 24.2,
      "at": 29.330381464688728,
      "lat": 24.541028,
      "lon": 120.911972
    },
    {
      "city": "基隆市",
      "town": "中正區",
      "name": "八斗子",
      "temp": 28.2,
      "at": 33.39462512400055,
      "lat": 25.146547,
      "lon": 121.783436
    },
    {
      "city": "桃園市",
      "town": "龜山區",
      "name": "龜山",
      "temp": 25.9,
      "at": 31.034512048135724,
      "lat": 25.030231,
      "lon": 121.378336
    },
    {
      "city": "臺中市",
      "town": "和平區",
      "name": "南湖圈谷",
      "temp": 9.5,
      "at": 6.177570415245896,
      "lat": 24.365503,
      "lon": 121.436489
    },
    {
      "city": "高雄市",
      "town": "梓官區",
      "name": "蚵仔寮",
      "temp": 27.6,
      "at": 32.69806017777077,
      "lat": 22.727414,
      "lon": 120.244618
    },
    {
      "city": "高雄市",
      "town": "永安區",
      "name": "永安",
      "temp": 27.5,
      "at": 33.66887519393788,
      "lat": 22.824944,
      "lon": 120.228806
    },
    {
      "city": "高雄市",
      "town": "路竹區",
      "name": "路竹",
      "temp": 28.7,
      "at": 35.45427823716827,
      "lat": 22.856639,
      "lon": 120.251361
    },
    {
      "city": "新北市",
      "town": "烏來區",
      "name": "福山植物園",
      "temp": 19.4,
      "at": 22.815617350136332,
      "lat": 24.762506,
      "lon": 121.573147
    },
    {
      "city": "臺南市",
      "town": "南化區",
      "name": "北寮",
      "temp": 25.8,
      "at": 32.05089930089251,
      "lat": 23.081611,
      "lon": 120.486944
    },
    {
      "city": "高雄市",
      "town": "大社區",
      "name": "大社",
      "temp": 28.4,
      "at": 34.758544914117515,
      "lat": 22.731944,
      "lon": 120.338583
    },
    {
      "city": "苗栗縣",
      "town": "頭份市",
      "name": "頭份",
      "temp": 27.1,
      "at": 32.77781121315956,
      "lat": 24.69,
      "lon": 120.904167
    },
    {
      "city": "臺南市",
      "town": "白河區",
      "name": "鹿寮",
      "temp": 25.5,
      "at": 31.20486133020396,
      "lat": 23.387811,
      "lon": 120.469225
    },
    {
      "city": "臺南市",
      "town": "北門區",
      "name": "北門",
      "temp": 27.5,
      "at": 33.5727015936011,
      "lat": 23.269517,
      "lon": 120.117367
    },
    {
      "city": "嘉義縣",
      "town": "溪口鄉",
      "name": "溪口",
      "temp": 26.9,
      "at": 32.90399335858551,
      "lat": 23.605872,
      "lon": 120.395439
    },
    {
      "city": "花蓮縣",
      "town": "玉里鎮",
      "name": "德武",
      "temp": 24.1,
      "at": 29.3846267550025,
      "lat": 23.476069,
      "lon": 121.402597
    },
    {
      "city": "花蓮縣",
      "town": "玉里鎮",
      "name": "安通山",
      "temp": 22.9,
      "at": 27.581657942890864,
      "lat": 23.292536,
      "lon": 121.340419
    },
    {
      "city": "高雄市",
      "town": "湖內區",
      "name": "湖內",
      "temp": 26.5,
      "at": 32.698161622343775,
      "lat": 22.888889,
      "lon": 120.236444
    },
    {
      "city": "臺南市",
      "town": "將軍區",
      "name": "將軍",
      "temp": 27.2,
      "at": 33.46600184379863,
      "lat": 23.216733,
      "lon": 120.127656
    },
    {
      "city": "臺中市",
      "town": "和平區",
      "name": "大雪山埡口",
      "temp": 13.7,
      "at": 13.381846283280534,
      "lat": 24.2744,
      "lon": 121.0224
    },
    {
      "city": "臺南市",
      "town": "官田區",
      "name": "官田",
      "temp": 27.1,
      "at": 34.0574249566583,
      "lat": 23.195028,
      "lon": 120.307528
    },
    {
      "city": "雲林縣",
      "town": "斗南鎮",
      "name": "斗南",
      "temp": 27.2,
      "at": 33.98333521678355,
      "lat": 23.680478,
      "lon": 120.470231
    },
    {
      "city": "苗栗縣",
      "town": "通霄鎮",
      "name": "通霄",
      "temp": 25.6,
      "at": 31.300186987310028,
      "lat": 24.473639,
      "lon": 120.696444
    },
    {
      "city": "臺北市",
      "town": "士林區",
      "name": "科教館",
      "temp": 27.3,
      "at": 35.23626604012718,
      "lat": 25.098133,
      "lon": 121.508275
    },
    {
      "city": "雲林縣",
      "town": "水林鄉",
      "name": "蔦松",
      "temp": 27.1,
      "at": 33.83565671055906,
      "lat": 23.516064,
      "lon": 120.221625
    },
    {
      "city": "花蓮縣",
      "town": "卓溪鄉",
      "name": "清水林道",
      "temp": 20.9,
      "at": 24.115759339174886,
      "lat": 23.273047,
      "lon": 121.180172
    },
    {
      "city": "新竹縣",
      "town": "新豐鄉",
      "name": "新豐",
      "temp": 25.7,
      "at": 31.47788235473449,
      "lat": 24.872436,
      "lon": 120.969
    },
    {
      "city": "嘉義縣",
      "town": "阿里山鄉",
      "name": "二萬平",
      "temp": 14.9,
      "at": 15.459162601663902,
      "lat": 23.51016,
      "lon": 120.78199
    },
    {
      "city": "新北市",
      "town": "雙溪區",
      "name": "雙溪",
      "temp": 26.2,
      "at": 32.64850621919816,
      "lat": 25.037861,
      "lon": 121.856056
    },
    {
      "city": "雲林縣",
      "town": "林內鄉",
      "name": "林內",
      "temp": 25.7,
      "at": 30.956525492009312,
      "lat": 23.750436,
      "lon": 120.601508
    },
    {
      "city": "臺北市",
      "town": "士林區",
      "name": "平等",
      "temp": 24.5,
      "at": 29.63638504188622,
      "lat": 25.130925,
      "lon": 121.568856
    },
    {
      "city": "臺南市",
      "town": "關廟區",
      "name": "關廟",
      "temp": 28.3,
      "at": 34.14422535895812,
      "lat": 22.964861,
      "lon": 120.319722
    },
    {
      "city": "桃園市",
      "town": "中壢區",
      "name": "中壢",
      "temp": 28.2,
      "at": 33.63410834512245,
      "lat": 24.979428,
      "lon": 121.248156
    },
    {
      "city": "臺南市",
      "town": "新營區",
      "name": "新營",
      "temp": 27.9,
      "at": 34.02438616591418,
      "lat": 23.312447,
      "lon": 120.308586
    },
    {
      "city": "新北市",
      "town": "貢寮區",
      "name": "澳底",
      "temp": 26.6,
      "at": 31.97537787402488,
      "lat": 25.056993,
      "lon": 121.917036
    },
    {
      "city": "臺東縣",
      "town": "金峰鄉",
      "name": "金峰嘉蘭",
      "temp": 25.2,
      "at": 30.622314364578685,
      "lat": 22.596589,
      "lon": 120.952772
    },
    {
      "city": "臺南市",
      "town": "安平區",
      "name": "安平",
      "temp": 27.8,
      "at": 33.31748165425184,
      "lat": 22.994972,
      "lon": 120.144111
    },
    {
      "city": "臺東縣",
      "town": "太麻里鄉",
      "name": "美和",
      "temp": 27.9,
      "at": 33.97077253182321,
      "lat": 22.683881,
      "lon": 121.052177
    },
    {
      "city": "彰化縣",
      "town": "線西鄉",
      "name": "線西",
      "temp": 27.9,
      "at": 33.84715889773224,
      "lat": 24.141081,
      "lon": 120.435381
    },
    {
      "city": "新竹縣",
      "town": "五峰鄉",
      "name": "大坪苗圃",
      "temp": 18.9,
      "at": 21.239029611840156,
      "lat": 24.5379,
      "lon": 121.1026
    },
    {
      "city": "臺中市",
      "town": "神岡區",
      "name": "神岡",
      "temp": 26.7,
      "at": 31.815842582851808,
      "lat": 24.274222,
      "lon": 120.650306
    },
    {
      "city": "新北市",
      "town": "汐止區",
      "name": "五指山",
      "temp": 24.4,
      "at": 28.133329126913345,
      "lat": 25.133889,
      "lon": 121.600278
    },
    {
      "city": "高雄市",
      "town": "桃源區",
      "name": "美瓏山",
      "temp": 19.2,
      "at": 21.79808805646077,
      "lat": 23.12148,
      "lon": 120.73922
    },
    {
      "city": "雲林縣",
      "town": "口湖鄉",
      "name": "箔子寮",
      "temp": 28.1,
      "at": 33.63524614558919,
      "lat": 23.621487,
      "lon": 120.13192
    },
    {
      "city": "屏東縣",
      "town": "三地門鄉",
      "name": "上德文",
      "temp": 21.2,
      "at": 23.97048863693492,
      "lat": 22.76515,
      "lon": 120.696523
    },
    {
      "city": "新竹市",
      "town": "北區",
      "name": "海天一線",
      "temp": 26.8,
      "at": 32.36853888011219,
      "lat": 24.833742,
      "lon": 120.906231
    },
    {
      "city": "花蓮縣",
      "town": "秀林鄉",
      "name": "立霧山",
      "temp": 20.6,
      "at": 22.03794927518132,
      "lat": 24.185061,
      "lon": 121.633735
    },
    {
      "city": "臺東縣",
      "town": "臺東市",
      "name": "知本(水試所)",
      "temp": 26.5,
      "at": 33.43373386679351,
      "lat": 22.704053,
      "lon": 121.074603
    },
    {
      "city": "屏東縣",
      "town": "佳冬鄉",
      "name": "塭仔",
      "temp": 27.9,
      "at": 32.80909072727741,
      "lat": 22.418718,
      "lon": 120.511622
    },
    {
      "city": "彰化縣",
      "town": "秀水鄉",
      "name": "秀水",
      "temp": 29.0,
      "at": 36.462274688486296,
      "lat": 24.035917,
      "lon": 120.495722
    },
    {
      "city": "花蓮縣",
      "town": "壽豐鄉",
      "name": "鯉魚潭",
      "temp": 23.2,
      "at": 28.557189560443348,
      "lat": 23.937444,
      "lon": 121.500806
    },
    {
      "city": "花蓮縣",
      "town": "瑞穗鄉",
      "name": "瑞穗",
      "temp": 24.4,
      "at": 29.94445184537468,
      "lat": 23.525708,
      "lon": 121.382086
    },
    {
      "city": "南投縣",
      "town": "仁愛鄉",
      "name": "廬山",
      "temp": 17.8,
      "at": 19.76610690529041,
      "lat": 24.035,
      "lon": 121.173333
    },
    {
      "city": "臺南市",
      "town": "左鎮區",
      "name": "左鎮",
      "temp": 27.0,
      "at": 33.90753610818061,
      "lat": 23.058528,
      "lon": 120.400444
    },
    {
      "city": "嘉義縣",
      "town": "竹崎鄉",
      "name": "交力坪",
      "temp": 21.2,
      "at": 24.26335114942871,
      "lat": 23.53344,
      "lon": 120.63544
    },
    {
      "city": "雲林縣",
      "town": "土庫鎮",
      "name": "土庫",
      "temp": 27.1,
      "at": 32.8517339618593,
      "lat": 23.680772,
      "lon": 120.387436
    },
    {
      "city": "高雄市",
      "town": "茄萣區",
      "name": "茄萣",
      "temp": 27.7,
      "at": 34.32858294869628,
      "lat": 22.908444,
      "lon": 120.174583
    },
    {
      "city": "屏東縣",
      "town": "霧臺鄉",
      "name": "阿禮",
      "temp": 20.9,
      "at": 22.61170258629828,
      "lat": 22.744444,
      "lon": 120.735556
    },
    {
      "city": "宜蘭縣",
      "town": "員山鄉",
      "name": "雙連埤",
      "temp": 21.4,
      "at": 25.130525450247475,
      "lat": 24.754722,
      "lon": 121.633056
    },
    {
      "city": "屏東縣",
      "town": "車城鄉",
      "name": "車城",
      "temp": 25.1,
      "at": 30.77999924198354,
      "lat": 22.075833,
      "lon": 120.708056
    },
    {
      "city": "新北市",
      "town": "五股區",
      "name": "五股",
      "temp": 27.2,
      "at": 33.2713350978288,
      "lat": 25.076228,
      "lon": 121.419053
    },
    {
      "city": "澎湖縣",
      "town": "七美鄉",
      "name": "七美",
      "temp": 26.2,
      "at": 31.752304223861955,
      "lat": 23.221053,
      "lon": 119.436809
    },
    {
      "city": "臺中市",
      "town": "南屯區",
      "name": "南屯",
      "temp": 27.5,
      "at": 32.45428351434202,
      "lat": 24.138861,
      "lon": 120.630111
    },
    {
      "city": "臺北市",
      "town": "北投區",
      "name": "石牌",
      "temp": 29.7,
      "at": 35.900556925557936,
      "lat": 25.117336,
      "lon": 121.504825
    },
    {
      "city": "屏東縣",
      "town": "琉球鄉",
      "name": "琉球嶼",
      "temp": 27.0,
      "at": 33.09025077368404,
      "lat": 22.334025,
      "lon": 120.354194
    },
    {
      "city": "臺中市",
      "town": "和平區",
      "name": "雪山橋",
      "temp": 17.2,
      "at": 18.584101003348906,
      "lat": 24.2336,
      "lon": 120.9704
    },
    {
      "city": "高雄市",
      "town": "前鎮區",
      "name": "前鎮",
      "temp": 28.8,
      "at": 35.4501578688072,
      "lat": 22.573925,
      "lon": 120.303144
    },
    {
      "city": "花蓮縣",
      "town": "壽豐鄉",
      "name": "鹽寮",
      "temp": 26.9,
      "at": 32.08739343237901,
      "lat": 23.847418,
      "lon": 121.584524
    },
    {
      "city": "臺南市",
      "town": "麻豆區",
      "name": "麻豆",
      "temp": 28.1,
      "at": 34.90548460675233,
      "lat": 23.185056,
      "lon": 120.2405
    },
    {
      "city": "南投縣",
      "town": "信義鄉",
      "name": "信義",
      "temp": 22.0,
      "at": 26.352987446206427,
      "lat": 23.691389,
      "lon": 120.842778
    },
    {
      "city": "臺東縣",
      "town": "卑南鄉",
      "name": "檳榔四格山",
      "temp": 24.0,
      "at": 29.3282581153467,
      "lat": 22.811789,
      "lon": 121.101247
    },
    {
      "city": "金門縣",
      "town": "烈嶼鄉",
      "name": "九宮",
      "temp": 26.6,
      "at": 32.21733001818063,
      "lat": 24.425386,
      "lon": 118.232031
    },
    {
      "city": "宜蘭縣",
      "town": "頭城鎮",
      "name": "石城",
      "temp": 27.6,
      "at": 33.18806017777077,
      "lat": 24.982247,
      "lon": 121.942992
    },
    {
      "city": "苗栗縣",
      "town": "通霄鎮",
      "name": "白沙屯",
      "temp": 27.6,
      "at": 32.87100408990343,
      "lat": 24.551198,
      "lon": 120.688617
    },
    {
      "city": "桃園市",
      "town": "觀音區",
      "name": "新興坑尾",
      "temp": 27.1,
      "at": 31.84186271402639,
      "lat": 25.007827,
      "lon": 121.088851
    },
    {
      "city": "花蓮縣",
      "town": "卓溪鄉",
      "name": "卓溪",
      "temp": 24.6,
      "at": 29.4792538998555,
      "lat": 23.346133,
      "lon": 121.294748
    },
    {
      "city": "彰化縣",
      "town": "二水鄉",
      "name": "二水",
      "temp": 27.5,
      "at": 34.05040575380317,
      "lat": 23.812778,
      "lon": 120.609028
    },
    {
      "city": "新北市",
      "town": "樹林區",
      "name": "山佳",
      "temp": 28.0,
      "at": 34.9414619391175,
      "lat": 24.976719,
      "lon": 121.393789
    },
    {
      "city": "臺東縣",
      "town": "達仁鄉",
      "name": "達仁林場",
      "temp": 24.3,
      "at": 30.29620004248425,
      "lat": 22.266147,
      "lon": 120.815942
    },
    {
      "city": "新北市",
      "town": "貢寮區",
      "name": "三貂角",
      "temp": 26.5,
      "at": 30.31816162234378,
      "lat": 25.009444,
      "lon": 121.993889
    },
    {
      "city": "高雄市",
      "town": "桃源區",
      "name": "天池",
      "temp": 15.6,
      "at": 15.673756947081042,
      "lat": 23.27956,
      "lon": 120.90759
    },
    {
      "city": "嘉義縣",
      "town": "鹿草鄉",
      "name": "鹿草",
      "temp": 27.4,
      "at": 33.23534803654051,
      "lat": 23.413075,
      "lon": 120.300231
    },
    {
      "city": "澎湖縣",
      "town": "湖西鄉",
      "name": "湖西",
      "temp": 25.9,
      "at": 31.233737278460772,
      "lat": 23.598035,
      "lon": 119.664639
    },
    {
      "city": "嘉義縣",
      "town": "義竹鄉",
      "name": "東後寮",
      "temp": 26.8,
      "at": 33.92812892847,
      "lat": 23.371644,
      "lon": 120.239936
    },
    {
      "city": "嘉義縣",
      "town": "水上鄉",
      "name": "水上",
      "temp": 26.5,
      "at": 32.58426856123135,
      "lat": 23.421475,
      "lon": 120.380792
    },
    {
      "city": "宜蘭縣",
      "town": "南澳鄉",
      "name": "西帽山",
      "temp": 22.0,
      "at": 25.898966874410462,
      "lat": 24.557164,
      "lon": 121.794436
    },
    {
      "city": "臺東縣",
      "town": "海端鄉",
      "name": "龍泉苗圃",
      "temp": 23.7,
      "at": 28.405208405185064,
      "lat": 23.1684,
      "lon": 121.17201
    },
    {
      "city": "臺中市",
      "town": "龍井區",
      "name": "龍井",
      "temp": 27.9,
      "at": 33.459931629550304,
      "lat": 24.186278,
      "lon": 120.520833
    },
    {
      "city": "高雄市",
      "town": "燕巢區",
      "name": "阿公店",
      "temp": 27.4,
      "at": 34.925969901254525,
      "lat": 22.805944,
      "lon": 120.347444
    },
    {
      "city": "臺南市",
      "town": "柳營區",
      "name": "柳營",
      "temp": 26.1,
      "at": 31.230458936967487,
      "lat": 23.255089,
      "lon": 120.367158
    },
    {
      "city": "花蓮縣",
      "town": "萬榮鄉",
      "name": "虎頭山",
      "temp": 20.4,
      "at": 23.316637283645875,
      "lat": 23.53029,
      "lon": 121.331805
    },
    {
      "city": "高雄市",
      "town": "新興區",
      "name": "新興",
      "temp": 28.6,
      "at": 35.05282888642299,
      "lat": 22.629111,
      "lon": 120.290583
    },
    {
      "city": "臺中市",
      "town": "大里區",
      "name": "大里",
      "temp": 27.9,
      "at": 34.51438616591418,
      "lat": 24.094389,
      "lon": 120.692194
    },
    {
      "city": "桃園市",
      "town": "大園區",
      "name": "竹圍",
      "temp": 28.2,
      "at": 33.67462512400054,
      "lat": 25.114458,
      "lon": 121.231594
    },
    {
      "city": "屏東縣",
      "town": "萬巒鄉",
      "name": "赤山",
      "temp": 27.4,
      "at": 34.595907714783124,
      "lat": 22.594139,
      "lon": 120.60625
    },
    {
      "city": "南投縣",
      "town": "埔里鎮",
      "name": "埔里",
      "temp": 23.9,
      "at": 28.821583421955523,
      "lat": 23.973944,
      "lon": 120.944278
    },
    {
      "city": "新竹縣",
      "town": "新豐鄉",
      "name": "外湖",
      "temp": 27.1,
      "at": 32.26970821142589,
      "lat": 24.919492,
      "lon": 120.960497
    },
    {
      "city": "苗栗縣",
      "town": "通霄鎮",
      "name": "通霄漁港",
      "temp": 27.4,
      "at": 33.11528585006911,
      "lat": 24.500339,
      "lon": 120.665694
    },
    {
      "city": "嘉義縣",
      "town": "阿里山鄉",
      "name": "達邦",
      "temp": 20.4,
      "at": 23.456637283645875,
      "lat": 23.455769,
      "lon": 120.741403
    },
    {
      "city": "基隆市",
      "town": "七堵區",
      "name": "七堵",
      "temp": 27.7,
      "at": 34.51949409972356,
      "lat": 25.096608,
      "lon": 121.708897
    },
    {
      "city": "新竹縣",
      "town": "關西鎮",
      "name": "關西",
      "temp": 24.9,
      "at": 29.835303637098335,
      "lat": 24.799421,
      "lon": 121.165033
    },
    {
      "city": "臺東縣",
      "town": "長濱鄉",
      "name": "長濱漁港",
      "temp": 28.1,
      "at": 33.63994806913525,
      "lat": 23.315454,
      "lon": 121.451891
    },
    {
      "city": "屏東縣",
      "town": "枋山鄉",
      "name": "加祿堂",
      "temp": 27.5,
      "at": 32.772752954476736,
      "lat": 22.338096,
      "lon": 120.613688
    },
    {
      "city": "桃園市",
      "town": "龍潭區",
      "name": "龍潭",
      "temp": 26.1,
      "at": 30.731771155408246,
      "lat": 24.871833,
      "lon": 121.213194
    },
    {
      "city": "臺南市",
      "town": "鹽水區",
      "name": "鹽水",
      "temp": 27.2,
      "at": 33.180001784321256,
      "lat": 23.274339,
      "lon": 120.239506
    },
    {
      "city": "南投縣",
      "town": "集集鎮",
      "name": "集集",
      "temp": 23.9,
      "at": 29.561965881827334,
      "lat": 23.829972,
      "lon": 120.793328
    },
    {
      "city": "彰化縣",
      "town": "和美鎮",
      "name": "和美",
      "temp": 28.1,
      "at": 33.51488845384446,
      "lat": 24.106919,
      "lon": 120.483978
    },
    {
      "city": "宜蘭縣",
      "town": "五結鄉",
      "name": "五結",
      "temp": 25.7,
      "at": 31.45381176655897,
      "lat": 24.688722,
      "lon": 121.790222
    },
    {
      "city": "嘉義縣",
      "town": "大埔鄉",
      "name": "表湖",
      "temp": 22.4,
      "at": 26.86937800913622,
      "lat": 23.243628,
      "lon": 120.633564
    },
    {
      "city": "嘉義縣",
      "town": "阿里山鄉",
      "name": "茶山",
      "temp": 23.0,
      "at": 27.87512287648982,
      "lat": 23.300847,
      "lon": 120.656664
    },
    {
      "city": "花蓮縣",
      "town": "富里鄉",
      "name": "東里",
      "temp": 24.8,
      "at": 29.991084100266015,
      "lat": 23.270336,
      "lon": 121.297364
    },
    {
      "city": "嘉義縣",
      "town": "中埔鄉",
      "name": "中埔",
      "temp": 26.1,
      "at": 31.77797671366485,
      "lat": 23.427144,
      "lon": 120.514797
    },
    {
      "city": "花蓮縣",
      "town": "秀林鄉",
      "name": "天祥",
      "temp": 22.5,
      "at": 26.482743513238912,
      "lat": 24.181389,
      "lon": 121.4875
    },
    {
      "city": "臺南市",
      "town": "白河區",
      "name": "關子嶺",
      "temp": 23.4,
      "at": 28.166528291753963,
      "lat": 23.332933,
      "lon": 120.499931
    },
    {
      "city": "宜蘭縣",
      "town": "礁溪鄉",
      "name": "大礁溪",
      "temp": 23.8,
      "at": 28.725077591287018,
      "lat": 24.792836,
      "lon": 121.666839
    },
    {
      "city": "屏東縣",
      "town": "牡丹鄉",
      "name": "牡丹",
      "temp": 25.0,
      "at": 31.422377631795015,
      "lat": 22.131817,
      "lon": 120.784589
    },
    {
      "city": "高雄市",
      "town": "三民區",
      "name": "三民",
      "temp": 29.0,
      "at": 35.894024972262,
      "lat": 22.646917,
      "lon": 120.303278
    },
    {
      "city": "南投縣",
      "town": "仁愛鄉",
      "name": "昆陽",
      "temp": 10.2,
      "at": 8.597119284478252,
      "lat": 24.123139,
      "lon": 121.265361
    },
    {
      "city": "屏東縣",
      "town": "瑪家鄉",
      "name": "瑪家",
      "temp": 22.7,
      "at": 27.40793262690549,
      "lat": 22.684722,
      "lon": 120.678889
    },
    {
      "city": "南投縣",
      "town": "國姓鄉",
      "name": "國姓",
      "temp": 24.4,
      "at": 29.63389048614401,
      "lat": 24.039567,
      "lon": 120.846925
    },
    {
      "city": "臺南市",
      "town": "安南區",
      "name": "四草",
      "temp": 28.4,
      "at": 33.619520145294,
      "lat": 23.025295,
      "lon": 120.103558
    },
    {
      "city": "臺東縣",
      "town": "長濱鄉",
      "name": "長濱",
      "temp": 25.3,
      "at": 30.534937131187448,
      "lat": 23.288611,
      "lon": 121.403889
    },
    {
      "city": "高雄市",
      "town": "大樹區",
      "name": "溪埔",
      "temp": 26.1,
      "at": 33.11287005348069,
      "lat": 22.740278,
      "lon": 120.438611
    },
    {
      "city": "雲林縣",
      "town": "二崙鄉",
      "name": "二崙",
      "temp": 28.2,
      "at": 35.01777756907374,
      "lat": 23.77455,
      "lon": 120.400811
    },
    {
      "city": "桃園市",
      "town": "蘆竹區",
      "name": "蘆竹",
      "temp": 27.6,
      "at": 33.17364430957177,
      "lat": 25.086111,
      "lon": 121.2575
    },
    {
      "city": "宜蘭縣",
      "town": "大同鄉",
      "name": "翠峰林道6K",
      "temp": 14.4,
      "at": 15.058600682994424,
      "lat": 24.4995,
      "lon": 121.5604
    },
    {
      "city": "基隆市",
      "town": "安樂區",
      "name": "大武崙",
      "temp": 26.5,
      "at": 31.49869631678162,
      "lat": 25.168464,
      "lon": 121.698758
    },
    {
      "city": "新竹市",
      "town": "香山區",
      "name": "香山濕地",
      "temp": 27.4,
      "at": 33.29559678242612,
      "lat": 24.785386,
      "lon": 120.906781
    },
    {
      "city": "宜蘭縣",
      "town": "大同鄉",
      "name": "土場",
      "temp": 22.9,
      "at": 27.209765672652416,
      "lat": 24.578356,
      "lon": 121.487153
    },
    {
      "city": "桃園市",
      "town": "復興區",
      "name": "復興",
      "temp": 23.8,
      "at": 28.14300731359439,
      "lat": 24.822,
      "lon": 121.344094
    },
    {
      "city": "臺東縣",
      "town": "池上鄉",
      "name": "池上",
      "temp": 24.4,
      "at": 29.953329126913346,
      "lat": 23.121389,
      "lon": 121.201667
    },
    {
      "city": "屏東縣",
      "town": "萬丹鄉",
      "name": "萬丹",
      "temp": 28.2,
      "at": 34.06620134653714,
      "lat": 22.590256,
      "lon": 120.477031
    },
    {
      "city": "桃園市",
      "town": "復興區",
      "name": "四稜",
      "temp": 19.5,
      "at": 22.15485264247931,
      "lat": 24.6796,
      "lon": 121.4211
    },
    {
      "city": "屏東縣",
      "town": "牡丹鄉",
      "name": "牡丹池山",
      "temp": 24.1,
      "at": 27.45339938005572,
      "lat": 22.170192,
      "lon": 120.8332
    },
    {
      "city": "屏東縣",
      "town": "滿州鄉",
      "name": "滿州",
      "temp": 26.8,
      "at": 32.716292909126885,
      "lat": 22.026208,
      "lon": 120.831875
    },
    {
      "city": "臺中市",
      "town": "和平區",
      "name": "小雪山林道",
      "temp": 12.6,
      "at": 9.819047852784719,
      "lat": 24.2968,
      "lon": 121.0283
    },
    {
      "city": "宜蘭縣",
      "town": "大同鄉",
      "name": "太平山中間站",
      "temp": 21.1,
      "at": 23.556788100574057,
      "lat": 24.5437,
      "lon": 121.5052
    },
    {
      "city": "嘉義縣",
      "town": "朴子市",
      "name": "朴子",
      "temp": 26.4,
      "at": 32.316371424826116,
      "lat": 23.436364,
      "lon": 120.230928
    },
    {
      "city": "屏東縣",
      "town": "竹田鄉",
      "name": "竹田",
      "temp": 28.6,
      "at": 35.62652470327141,
      "lat": 22.586642,
      "lon": 120.535392
    },
    {
      "city": "嘉義縣",
      "town": "民雄鄉",
      "name": "民雄",
      "temp": 27.2,
      "at": 33.03400172484388,
      "lat": 23.553497,
      "lon": 120.420331
    },
    {
      "city": "彰化縣",
      "town": "大城鄉",
      "name": "大城",
      "temp": 27.3,
      "at": 33.0258261341081,
      "lat": 23.854225,
      "lon": 120.312789
    },
    {
      "city": "宜蘭縣",
      "town": "南澳鄉",
      "name": "西德山",
      "temp": 21.5,
      "at": 23.87496905958075,
      "lat": 24.562447,
      "lon": 121.744417
    },
    {
      "city": "桃園市",
      "town": "八德區",
      "name": "八德",
      "temp": 26.4,
      "at": 31.08122195169385,
      "lat": 24.930528,
      "lon": 121.275
    },
    {
      "city": "花蓮縣",
      "town": "光復鄉",
      "name": "光復",
      "temp": 23.3,
      "at": 28.52549405944781,
      "lat": 23.662497,
      "lon": 121.416839
    },
    {
      "city": "苗栗縣",
      "town": "後龍鎮",
      "name": "高鐵苗栗",
      "temp": 26.2,
      "at": 33.06800123085764,
      "lat": 24.609,
      "lon": 120.817906
    },
    {
      "city": "新北市",
      "town": "坪林區",
      "name": "坪林",
      "temp": 23.2,
      "at": 27.995758186816744,
      "lat": 24.939975,
      "lon": 121.701531
    },
    {
      "city": "彰化縣",
      "town": "社頭鄉",
      "name": "社頭",
      "temp": 28.0,
      "at": 34.684466323405594,
      "lat": 23.899417,
      "lon": 120.578083
    },
    {
      "city": "屏東縣",
      "town": "麟洛鄉",
      "name": "麟洛",
      "temp": 28.6,
      "at": 35.27652470327141,
      "lat": 22.652556,
      "lon": 120.519139
    },
    {
      "city": "南投縣",
      "town": "仁愛鄉",
      "name": "梅峰",
      "temp": 12.7,
      "at": 13.440569672061798,
      "lat": 24.087056,
      "lon": 121.165414
    },
    {
      "city": "臺東縣",
      "town": "太麻里鄉",
      "name": "大溪山",
      "temp": 24.5,
      "at": 30.172893490629633,
      "lat": 22.48,
      "lon": 120.935278
    },
    {
      "city": "臺北市",
      "town": "松山區",
      "name": "松山",
      "temp": 27.3,
      "at": 32.7458261341081,
      "lat": 25.050492,
      "lon": 121.542203
    },
    {
      "city": "雲林縣",
      "town": "斗六市",
      "name": "斗六",
      "temp": 26.7,
      "at": 32.676321722687476,
      "lat": 23.722303,
      "lon": 120.532972
    },
    {
      "city": "雲林縣",
      "town": "北港鎮",
      "name": "北港",
      "temp": 27.3,
      "at": 33.672002096515726,
      "lat": 23.575803,
      "lon": 120.283672
    },
    {
      "city": "雲林縣",
      "town": "莿桐鄉",
      "name": "莿桐",
      "temp": 27.0,
      "at": 33.15839477019434,
      "lat": 23.762947,
      "lon": 120.494247
    },
    {
      "city": "臺東縣",
      "town": "綠島鄉",
      "name": "牛頭山",
      "temp": 27.4,
      "at": 33.57559678242611,
      "lat": 22.678485,
      "lon": 121.498883
    },
    {
      "city": "苗栗縣",
      "town": "後龍鎮",
      "name": "海埔",
      "temp": 27.2,
      "at": 32.89400172484388,
      "lat": 24.650519,
      "lon": 120.764242
    },
    {
      "city": "臺南市",
      "town": "安定區",
      "name": "安定",
      "temp": 27.7,
      "at": 34.31076517890174,
      "lat": 23.104417,
      "lon": 120.219972
    },
    {
      "city": "臺南市",
      "town": "仁德區",
      "name": "仁德",
      "temp": 28.1,
      "at": 34.96524614558919,
      "lat": 22.970111,
      "lon": 120.249778
    },
    {
      "city": "澎湖縣",
      "town": "西嶼鄉",
      "name": "西嶼",
      "temp": 26.5,
      "at": 30.755947744568644,
      "lat": 23.564311,
      "lon": 119.460328
    },
    {
      "city": "新北市",
      "town": "萬里區",
      "name": "大坪",
      "temp": 23.6,
      "at": 26.705068176020525,
      "lat": 25.167694,
      "lon": 121.62475
    },
    {
      "city": "臺中市",
      "town": "和平區",
      "name": "桃山",
      "temp": 12.0,
      "at": 9.562416156396065,
      "lat": 24.434519,
      "lon": 121.295628
    },
    {
      "city": "花蓮縣",
      "town": "玉里鎮",
      "name": "玉里",
      "temp": 24.6,
      "at": 28.957484412079324,
      "lat": 23.323306,
      "lon": 121.331556
    },
    {
      "city": "連江縣",
      "town": "莒光鄉",
      "name": "東莒",
      "temp": 26.3,
      "at": 30.150666415259934,
      "lat": 25.966883,
      "lon": 119.9724
    },
    {
      "city": "臺中市",
      "town": "和平區",
      "name": "大雪山",
      "temp": 15.8,
      "at": 16.807367094469857,
      "lat": 24.2562,
      "lon": 120.9991
    },
    {
      "city": "苗栗縣",
      "town": "泰安鄉",
      "name": "雪見",
      "temp": 17.3,
      "at": 17.26670269811371,
      "lat": 24.4277,
      "lon": 121.0052
    },
    {
      "city": "新竹縣",
      "town": "五峰鄉",
      "name": "樂山林道6k",
      "temp": 16.2,
      "at": 15.608780122255524,
      "lat": 24.5017,
      "lon": 121.0795
    },
    {
      "city": "屏東縣",
      "town": "春日鄉",
      "name": "大漢山",
      "temp": 17.9,
      "at": 17.859749519627666,
      "lat": 22.405861,
      "lon": 120.745083
    },
    {
      "city": "花蓮縣",
      "town": "瑞穗鄉",
      "name": "舞鶴",
      "temp": 24.0,
      "at": 29.523710371886295,
      "lat": 23.469722,
      "lon": 121.365833
    },
    {
      "city": "宜蘭縣",
      "town": "大同鄉",
      "name": "多加屯",
      "temp": 12.6,
      "at": 12.531277300638571,
      "lat": 24.3704,
      "lon": 121.365011
    },
    {
      "city": "臺中市",
      "town": "和平區",
      "name": "小雪山天池",
      "temp": 14.5,
      "at": 14.492098567940737,
      "lat": 24.2825,
      "lon": 121.0182
    },
    {
      "city": "屏東縣",
      "town": "滿州鄉",
      "name": "興海",
      "temp": 27.6,
      "at": 34.11247604596976,
      "lat": 21.976985,
      "lon": 120.835907
    },
    {
      "city": "花蓮縣",
      "town": "卓溪鄉",
      "name": "佳心",
      "temp": 21.7,
      "at": 24.635596086552315,
      "lat": 23.347464,
      "lon": 121.205061
    },
    {
      "city": "屏東縣",
      "town": "牡丹鄉",
      "name": "旭海",
      "temp": 26.0,
      "at": 30.825726463349042,
      "lat": 22.207208,
      "lon": 120.879586
    },
    {
      "city": "宜蘭縣",
      "town": "頭城鎮",
      "name": "桃源谷",
      "temp": 23.3,
      "at": 26.12376944841613,
      "lat": 24.964408,
      "lon": 121.880658
    },
    {
      "city": "臺東縣",
      "town": "東河鄉",
      "name": "興隆",
      "temp": 27.0,
      "at": 32.78382410120121,
      "lat": 22.915469,
      "lon": 121.249394
    },
    {
      "city": "基隆市",
      "town": "中正區",
      "name": "基隆嶼",
      "temp": 26.6,
      "at": 30.982554913913617,
      "lat": 25.1932,
      "lon": 121.775678
    },
    {
      "city": "苗栗縣",
      "town": "造橋鄉",
      "name": "造橋",
      "temp": 25.5,
      "at": 31.419589530853507,
      "lat": 24.63875,
      "lon": 120.856583
    },
    {
      "city": "高雄市",
      "town": "仁武區",
      "name": "仁武",
      "temp": 28.7,
      "at": 35.513764509496,
      "lat": 22.702861,
      "lon": 120.339667
    },
    {
      "city": "花蓮縣",
      "town": "花蓮市",
      "name": "花蓮漁港",
      "temp": 27.4,
      "at": 30.815037104183503,
      "lat": 23.997128,
      "lon": 121.63018
    },
    {
      "city": "屏東縣",
      "town": "新園鄉",
      "name": "新園",
      "temp": 28.8,
      "at": 35.76110647439813,
      "lat": 22.545194,
      "lon": 120.4535
    },
    {
      "city": "屏東縣",
      "town": "南州鄉",
      "name": "南州",
      "temp": 28.4,
      "at": 35.980313490735156,
      "lat": 22.487694,
      "lon": 120.494694
    },
    {
      "city": "花蓮縣",
      "town": "豐濱鄉",
      "name": "加路蘭山",
      "temp": 23.0,
      "at": 27.01532608996941,
      "lat": 23.684706,
      "lon": 121.519219
    },
    {
      "city": "屏東縣",
      "town": "牡丹鄉",
      "name": "四林格山",
      "temp": 23.9,
      "at": 26.29956149679529,
      "lat": 22.078792,
      "lon": 120.794419
    },
    {
      "city": "新北市",
      "town": "板橋區",
      "name": "板橋",
      "temp": 26.8,
      "at": 31.97711281241125,
      "lat": 25.012431,
      "lon": 121.440638
    },
    {
      "city": "嘉義縣",
      "town": "東石鄉",
      "name": "東石",
      "temp": 28.3,
      "at": 33.81030655232085,
      "lat": 23.460653,
      "lon": 120.145722
    },
    {
      "city": "新竹縣",
      "town": "湖口鄉",
      "name": "湖口",
      "temp": 27.5,
      "at": 32.75351823440938,
      "lat": 24.906556,
      "lon": 121.035417
    },
    {
      "city": "南投縣",
      "town": "仁愛鄉",
      "name": "奇萊稜線",
      "temp": 10.6,
      "at": 7.432396391422472,
      "lat": 24.111019,
      "lon": 121.318297
    },
    {
      "city": "宜蘭縣",
      "town": "頭城鎮",
      "name": "龜山島",
      "temp": 24.4,
      "at": 27.253890486144012,
      "lat": 24.843392,
      "lon": 121.944947
    },
    {
      "city": "宜蘭縣",
      "town": "頭城鎮",
      "name": "鶯子嶺",
      "temp": 20.2,
      "at": 20.9821519052107,
      "lat": 24.899333,
      "lon": 121.784231
    },
    {
      "city": "花蓮縣",
      "town": "富里鄉",
      "name": "明里",
      "temp": 24.4,
      "at": 28.352206408452012,
      "lat": 23.210556,
      "lon": 121.254167
    },
    {
      "city": "新北市",
      "town": "三芝區",
      "name": "田寮",
      "temp": 26.2,
      "at": 31.542809212202478,
      "lat": 25.271575,
      "lon": 121.480355
    },
    {
      "city": "花蓮縣",
      "town": "鳳林鎮",
      "name": "鳳林",
      "temp": 24.6,
      "at": 29.256331850960194,
      "lat": 23.747917,
      "lon": 121.445278
    },
    {
      "city": "南投縣",
      "town": "信義鄉",
      "name": "神木村",
      "temp": 16.9,
      "at": 19.17613372301404,
      "lat": 23.534519,
      "lon": 120.835553
    },
    {
      "city": "花蓮縣",
      "town": "萬榮鄉",
      "name": "光復林道16K",
      "temp": 20.3,
      "at": 23.031548046083408,
      "lat": 23.66881,
      "lon": 121.36136
    },
    {
      "city": "臺中市",
      "town": "和平區",
      "name": "八仙山苗圃",
      "temp": 19.9,
      "at": 22.88009508377855,
      "lat": 24.1944,
      "lon": 120.9932
    },
    {
      "city": "苗栗縣",
      "town": "泰安鄉",
      "name": "松安",
      "temp": 19.1,
      "at": 21.233504953168048,
      "lat": 24.3996,
      "lon": 120.9778
    },
    {
      "city": "苗栗縣",
      "town": "竹南鎮",
      "name": "龍鳳",
      "temp": 27.9,
      "at": 34.147999800005145,
      "lat": 24.701789,
      "lon": 120.850928
    },
    {
      "city": "臺東縣",
      "town": "太麻里鄉",
      "name": "太麻里",
      "temp": 23.4,
      "at": 28.541234768988545,
      "lat": 22.610825,
      "lon": 120.977275
    },
    {
      "city": "新竹市",
      "town": "東區",
      "name": "新竹市東區",
      "temp": 27.1,
      "at": 32.68186271402639,
      "lat": 24.800436,
      "lon": 120.978742
    },
    {
      "city": "臺中市",
      "town": "和平區",
      "name": "中坑",
      "temp": 22.9,
      "at": 26.960304321460185,
      "lat": 24.250283,
      "lon": 120.895153
    },
    {
      "city": "屏東縣",
      "town": "內埔鄉",
      "name": "三地門",
      "temp": 26.0,
      "at": 29.229860519838617,
      "lat": 22.711667,
      "lon": 120.631889
    },
    {
      "city": "花蓮縣",
      "town": "秀林鄉",
      "name": "崇德",
      "temp": 26.4,
      "at": 31.210896838793623,
      "lat": 24.167948,
      "lon": 121.649251
    },
    {
      "city": "臺中市",
      "town": "潭子區",
      "name": "潭子",
      "temp": 28.2,
      "at": 34.12198945780544,
      "lat": 24.21475,
      "lon": 120.695833
    },
    {
      "city": "屏東縣",
      "town": "鹽埔鄉",
      "name": "鹽埔",
      "temp": 27.0,
      "at": 33.886677446166864,
      "lat": 22.741342,
      "lon": 120.522697
    },
    {
      "city": "新北市",
      "town": "林口區",
      "name": "林口",
      "temp": 28.0,
      "at": 34.412792349592095,
      "lat": 25.073953,
      "lon": 121.372611
    },
    {
      "city": "新北市",
      "town": "八里區",
      "name": "硬漢嶺",
      "temp": 24.1,
      "at": 26.1646267550025,
      "lat": 25.137872,
      "lon": 121.41814
    },
    {
      "city": "新北市",
      "town": "萬里區",
      "name": "野柳",
      "temp": 27.6,
      "at": 30.84303692464315,
      "lat": 25.208817,
      "lon": 121.681783
    },
    {
      "city": "臺中市",
      "town": "和平區",
      "name": "雪山東峰",
      "temp": 11.7,
      "at": 10.491878125763584,
      "lat": 24.390581,
      "lon": 121.263286
    },
    {
      "city": "苗栗縣",
      "town": "泰安鄉",
      "name": "觀霧分站",
      "temp": 16.0,
      "at": 17.067866988128042,
      "lat": 24.5075,
      "lon": 121.1057
    },
    {
      "city": "彰化縣",
      "town": "二林鎮",
      "name": "二林",
      "temp": 27.6,
      "at": 34.701307782367735,
      "lat": 23.905067,
      "lon": 120.367928
    },
    {
      "city": "高雄市",
      "town": "甲仙區",
      "name": "小林",
      "temp": 23.5,
      "at": 28.277269197838052,
      "lat": 23.150164,
      "lon": 120.625189
    },
    {
      "city": "新北市",
      "town": "烏來區",
      "name": "桶後",
      "temp": 22.3,
      "at": 26.452286903000182,
      "lat": 24.850056,
      "lon": 121.589639
    },
    {
      "city": "臺中市",
      "town": "新社區",
      "name": "新社",
      "temp": 23.8,
      "at": 27.244042452440706,
      "lat": 24.201583,
      "lon": 120.8075
    },
    {
      "city": "嘉義縣",
      "town": "番路鄉",
      "name": "番路",
      "temp": 25.4,
      "at": 31.219115753913698,
      "lat": 23.466408,
      "lon": 120.546028
    },
    {
      "city": "屏東縣",
      "town": "恆春鎮",
      "name": "貓鼻頭",
      "temp": 26.1,
      "at": 32.28914671852673,
      "lat": 21.923578,
      "lon": 120.727792
    },
    {
      "city": "彰化縣",
      "town": "永靖鄉",
      "name": "永靖",
      "temp": 27.8,
      "at": 33.6332738897214,
      "lat": 23.926458,
      "lon": 120.539392
    },
    {
      "city": "彰化縣",
      "town": "大城鄉",
      "name": "三豐",
      "temp": 27.3,
      "at": 33.27263943611445,
      "lat": 23.883719,
      "lon": 120.281409
    },
    {
      "city": "彰化縣",
      "town": "員林市",
      "name": "員林",
      "temp": 28.0,
      "at": 34.6927923495921,
      "lat": 23.948333,
      "lon": 120.577528
    },
    {
      "city": "臺南市",
      "town": "北區",
      "name": "臺南市北區",
      "temp": 28.8,
      "at": 35.99063217160267,
      "lat": 23.012167,
      "lon": 120.186333
    },
    {
      "city": "臺南市",
      "town": "善化區",
      "name": "善化",
      "temp": 26.9,
      "at": 34.44339269444406,
      "lat": 23.114444,
      "lon": 120.289444
    },
    {
      "city": "雲林縣",
      "town": "東勢鄉",
      "name": "雲林東勢",
      "temp": 27.5,
      "at": 34.88346687353374,
      "lat": 23.675939,
      "lon": 120.2476
    },
    {
      "city": "花蓮縣",
      "town": "秀林鄉",
      "name": "加灣",
      "temp": 26.4,
      "at": 31.717346763526805,
      "lat": 24.083828,
      "lon": 121.600788
    },
    {
      "city": "新北市",
      "town": "三峽區",
      "name": "三峽",
      "temp": 27.6,
      "at": 34.53247604596976,
      "lat": 24.940806,
      "lon": 121.3615
    },
    {
      "city": "臺中市",
      "town": "大甲區",
      "name": "大甲溪埔",
      "temp": 28.1,
      "at": 32.76453076209975,
      "lat": 24.372375,
      "lon": 120.611895
    },
    {
      "city": "臺東縣",
      "town": "太麻里鄉",
      "name": "香蘭",
      "temp": 27.9,
      "at": 31.77547709318644,
      "lat": 22.589372,
      "lon": 120.985322
    },
    {
      "city": "南投縣",
      "town": "草屯鎮",
      "name": "草屯",
      "temp": 26.8,
      "at": 31.600784851097508,
      "lat": 23.975444,
      "lon": 120.672194
    },
    {
      "city": "屏東縣",
      "town": "長治鄉",
      "name": "長治",
      "temp": 28.2,
      "at": 34.640413235268845,
      "lat": 22.694833,
      "lon": 120.534611
    },
    {
      "city": "新北市",
      "town": "中和區",
      "name": "中和",
      "temp": 27.7,
      "at": 34.57421848828538,
      "lat": 24.993403,
      "lon": 121.483569
    },
    {
      "city": "彰化縣",
      "town": "溪州鄉",
      "name": "溪州",
      "temp": 26.9,
      "at": 32.18099372755298,
      "lat": 23.853347,
      "lon": 120.490944
    },
    {
      "city": "臺北市",
      "town": "文山區",
      "name": "文山",
      "temp": 25.5,
      "at": 31.484861330203962,
      "lat": 25.004083,
      "lon": 121.567528
    },
    {
      "city": "花蓮縣",
      "town": "秀林鄉",
      "name": "綠水",
      "temp": 23.1,
      "at": 27.44683419868451,
      "lat": 24.180212,
      "lon": 121.499787
    },
    {
      "city": "桃園市",
      "town": "復興區",
      "name": "東眼山",
      "temp": 20.3,
      "at": 22.82995178851441,
      "lat": 24.8301,
      "lon": 121.4006
    },
    {
      "city": "彰化縣",
      "town": "伸港鄉",
      "name": "伸港",
      "temp": 27.8,
      "at": 32.67037777198662,
      "lat": 24.150528,
      "lon": 120.476167
    },
    {
      "city": "彰化縣",
      "town": "花壇鄉",
      "name": "花壇",
      "temp": 28.9,
      "at": 36.242238938397286,
      "lat": 24.032075,
      "lon": 120.541314
    },
    {
      "city": "花蓮縣",
      "town": "鳳林鎮",
      "name": "鳳林山",
      "temp": 23.1,
      "at": 28.400906737700552,
      "lat": 23.737072,
      "lon": 121.411994
    },
    {
      "city": "高雄市",
      "town": "左營區",
      "name": "左營",
      "temp": 28.1,
      "at": 33.86018653029841,
      "lat": 22.676689,
      "lon": 120.27685
    },
    {
      "city": "新北市",
      "town": "瑞芳區",
      "name": "五分山",
      "temp": 23.2,
      "at": 25.988614395607883,
      "lat": 25.073047,
      "lon": 121.772586
    },
    {
      "city": "高雄市",
      "town": "苓雅區",
      "name": "苓雅",
      "temp": 29.0,
      "at": 36.017525539813406,
      "lat": 22.624528,
      "lon": 120.322583
    },
    {
      "city": "雲林縣",
      "town": "臺西鄉",
      "name": "臺西",
      "temp": 27.3,
      "at": 33.692639436114455,
      "lat": 23.703283,
      "lon": 120.189422
    },
    {
      "city": "花蓮縣",
      "town": "秀林鄉",
      "name": "和仁",
      "temp": 27.5,
      "at": 32.16892655481352,
      "lat": 24.243199,
      "lon": 121.704304
    },
    {
      "city": "雲林縣",
      "town": "古坑鄉",
      "name": "棋山",
      "temp": 26.0,
      "at": 32.395139868998,
      "lat": 23.688211,
      "lon": 120.595289
    },
    {
      "city": "金門縣",
      "town": "金沙鎮",
      "name": "金沙",
      "temp": 27.0,
      "at": 32.81396278066344,
      "lat": 24.489931,
      "lon": 118.400617
    },
    {
      "city": "臺中市",
      "town": "和平區",
      "name": "鞍馬山工作站",
      "temp": 14.4,
      "at": 14.670545349313695,
      "lat": 24.2681,
      "lon": 120.9926
    },
    {
      "city": "花蓮縣",
      "town": "秀林鄉",
      "name": "清水斷崖",
      "temp": 26.0,
      "at": 31.46279349159383,
      "lat": 24.2201,
      "lon": 121.680972
    },
    {
      "city": "新北市",
      "town": "雙溪區",
      "name": "泰平",
      "temp": 23.4,
      "at": 28.8706477234577,
      "lat": 24.973056,
      "lon": 121.815278
    },
    {
      "city": "雲林縣",
      "town": "虎尾鎮",
      "name": "虎尾",
      "temp": 27.4,
      "at": 33.11528585006911,
      "lat": 23.720939,
      "lon": 120.433911
    },
    {
      "city": "彰化縣",
      "town": "伸港鄉",
      "name": "防潮門",
      "temp": 27.9,
      "at": 33.41077253182321,
      "lat": 24.185242,
      "lon": 120.478972
    },
    {
      "city": "屏東縣",
      "town": "恆春鎮",
      "name": "墾雷",
      "temp": 27.3,
      "at": 33.61009007771955,
      "lat": 21.90265,
      "lon": 120.847244
    },
    {
      "city": "屏東縣",
      "town": "恆春鎮",
      "name": "龍磐",
      "temp": 26.8,
      "at": 31.224456889783752,
      "lat": 21.933481,
      "lon": 120.830933
    },
    {
      "city": "彰化縣",
      "town": "竹塘鄉",
      "name": "竹塘",
      "temp": 26.8,
      "at": 33.464456889783754,
      "lat": 23.85,
      "lon": 120.378628
    },
    {
      "city": "南投縣",
      "town": "仁愛鄉",
      "name": "仁愛",
      "temp": 18.8,
      "at": 20.53513176078965,
      "lat": 24.023903,
      "lon": 121.124056
    },
    {
      "city": "南投縣",
      "town": "信義鄉",
      "name": "鹿林山",
      "temp": 14.2,
      "at": 12.883356358264713,
      "lat": 23.47046,
      "lon": 120.86517
    },
    {
      "city": "宜蘭縣",
      "town": "三星鄉",
      "name": "三星",
      "temp": 24.8,
      "at": 29.15108410026602,
      "lat": 24.669917,
      "lon": 121.644819
    },
    {
      "city": "臺東縣",
      "town": "綠島鄉",
      "name": "綠島",
      "temp": 27.0,
      "at": 33.652106777173735,
      "lat": 22.669025,
      "lon": 121.467267
    },
    {
      "city": "彰化縣",
      "town": "埤頭鄉",
      "name": "埤頭",
      "temp": 28.6,
      "at": 36.432742193380456,
      "lat": 23.867806,
      "lon": 120.444722
    },
    {
      "city": "金門縣",
      "town": "金寧鄉",
      "name": "金寧",
      "temp": 26.8,
      "at": 31.64221091879844,
      "lat": 24.459339,
      "lon": 118.320831
    },
    {
      "city": "臺中市",
      "town": "大安區",
      "name": "大安",
      "temp": 27.5,
      "at": 32.04122239461146,
      "lat": 24.347444,
      "lon": 120.579972
    },
    {
      "city": "新北市",
      "town": "淡水區",
      "name": "六塊厝",
      "temp": 26.2,
      "at": 31.794708214534374,
      "lat": 25.241776,
      "lon": 121.439863
    },
    {
      "city": "臺東縣",
      "town": "達仁鄉",
      "name": "土坂",
      "temp": 26.3,
      "at": 32.54298557221972,
      "lat": 22.454908,
      "lon": 120.879528
    },
    {
      "city": "臺北市",
      "town": "士林區",
      "name": "天母",
      "temp": 27.4,
      "at": 33.35541022301191,
      "lat": 25.119253,
      "lon": 121.528939
    },
    {
      "city": "臺中市",
      "town": "霧峰區",
      "name": "霧峰",
      "temp": 25.7,
      "at": 31.24381176655897,
      "lat": 24.043658,
      "lon": 120.691323
    },
    {
      "city": "高雄市",
      "town": "田寮區",
      "name": "古亭坑",
      "temp": 26.3,
      "at": 32.62810613424653,
      "lat": 22.895,
      "lon": 120.393889
    },
    {
      "city": "花蓮縣",
      "town": "光復鄉",
      "name": "富源",
      "temp": 23.6,
      "at": 28.38189255565875,
      "lat": 23.58975,
      "lon": 121.370389
    },
    {
      "city": "苗栗縣",
      "town": "銅鑼鄉",
      "name": "銅鑼",
      "temp": 26.7,
      "at": 31.84060301293396,
      "lat": 24.491528,
      "lon": 120.782639
    },
    {
      "city": "臺中市",
      "town": "外埔區",
      "name": "外埔",
      "temp": 28.7,
      "at": 35.95479196484054,
      "lat": 24.349556,
      "lon": 120.697472
    },
    {
      "city": "臺中市",
      "town": "石岡區",
      "name": "石岡",
      "temp": 24.9,
      "at": 29.801698221645665,
      "lat": 24.277822,
      "lon": 120.769478
    },
    {
      "city": "澎湖縣",
      "town": "望安鄉",
      "name": "望安",
      "temp": 26.1,
      "at": 31.42038783017805,
      "lat": 23.382282,
      "lon": 119.485981
    },
    {
      "city": "宜蘭縣",
      "town": "頭城鎮",
      "name": "頭城",
      "temp": 25.6,
      "at": 32.120196828747396,
      "lat": 24.855031,
      "lon": 121.822586
    },
    {
      "city": "臺南市",
      "town": "白河區",
      "name": "白河",
      "temp": 27.0,
      "at": 33.55568010469091,
      "lat": 23.349228,
      "lon": 120.406328
    },
    {
      "city": "雲林縣",
      "town": "水林鄉",
      "name": "水林",
      "temp": 27.5,
      "at": 34.38117103373581,
      "lat": 23.574658,
      "lon": 120.237839
    },
    {
      "city": "高雄市",
      "town": "彌陀區",
      "name": "文安",
      "temp": 28.6,
      "at": 34.73904637653205,
      "lat": 22.804288,
      "lon": 120.208308
    },
    {
      "city": "臺中市",
      "town": "西屯區",
      "name": "西屯",
      "temp": 28.1,
      "at": 33.62970960797211,
      "lat": 24.182028,
      "lon": 120.632861
    },
    {
      "city": "嘉義縣",
      "town": "布袋鎮",
      "name": "布袋",
      "temp": 28.0,
      "at": 33.6427923495921,
      "lat": 23.382611,
      "lon": 120.159667
    },
    {
      "city": "臺南市",
      "town": "西港區",
      "name": "西港",
      "temp": 28.0,
      "at": 34.575796733880196,
      "lat": 23.127417,
      "lon": 120.195083
    },
    {
      "city": "臺中市",
      "town": "東勢區",
      "name": "東勢",
      "temp": 28.0,
      "at": 35.21313591293099,
      "lat": 24.248194,
      "lon": 120.824917
    },
    {
      "city": "南投縣",
      "town": "南投市",
      "name": "南投",
      "temp": 26.1,
      "at": 31.992870053480694,
      "lat": 23.913208,
      "lon": 120.679183
    },
    {
      "city": "南投縣",
      "town": "魚池鄉",
      "name": "魚池",
      "temp": 22.0,
      "at": 26.61401830390038,
      "lat": 23.897478,
      "lon": 120.933219
    },
    {
      "city": "高雄市",
      "town": "甲仙區",
      "name": "西阿里關山",
      "temp": 20.9,
      "at": 24.045759339174886,
      "lat": 23.18479,
      "lon": 120.63334
    },
    {
      "city": "苗栗縣",
      "town": "苗栗市",
      "name": "苗栗",
      "temp": 27.1,
      "at": 31.955914214893227,
      "lat": 24.566667,
      "lon": 120.816444
    },
    {
      "city": "南投縣",
      "town": "竹山鎮",
      "name": "竹山",
      "temp": 25.3,
      "at": 29.720053239091982,
      "lat": 23.764722,
      "lon": 120.677778
    },
    {
      "city": "新北市",
      "town": "三重區",
      "name": "三重",
      "temp": 28.5,
      "at": 35.507639540842604,
      "lat": 25.059108,
      "lon": 121.4924
    },
    {
      "city": "臺東縣",
      "town": "卑南鄉",
      "name": "富山",
      "temp": 26.1,
      "at": 30.822941160270126,
      "lat": 22.82419,
      "lon": 121.182756
    },
    {
      "city": "苗栗縣",
      "town": "苑裡鎮",
      "name": "苑裡",
      "temp": 27.6,
      "at": 32.510700397439116,
      "lat": 24.441458,
      "lon": 120.644883
    },
    {
      "city": "臺中市",
      "town": "和平區",
      "name": "審馬陣",
      "temp": 9.6,
      "at": 8.134034376834823,
      "lat": 24.383461,
      "lon": 121.412122
    },
    {
      "city": "花蓮縣",
      "town": "秀林鄉",
      "name": "秀林",
      "temp": 22.5,
      "at": 25.314581029200333,
      "lat": 24.304668,
      "lon": 121.722972
    },
    {
      "city": "臺北市",
      "town": "北投區",
      "name": "大屯山",
      "temp": 26.3,
      "at": 33.21834725830014,
      "lat": 25.177333,
      "lon": 121.514167
    },
    {
      "city": "屏東縣",
      "town": "東港鎮",
      "name": "東港",
      "temp": 28.3,
      "at": 34.311184762276746,
      "lat": 22.464244,
      "lon": 120.432703
    },
    {
      "city": "臺南市",
      "town": "山上區",
      "name": "山上",
      "temp": 26.6,
      "at": 32.04537787402488,
      "lat": 23.077444,
      "lon": 120.355194
    },
    {
      "city": "高雄市",
      "town": "林園區",
      "name": "林園",
      "temp": 29.2,
      "at": 36.725245929148365,
      "lat": 22.509583,
      "lon": 120.386556
    },
    {
      "city": "花蓮縣",
      "town": "豐濱鄉",
      "name": "豐濱",
      "temp": 24.9,
      "at": 29.798909052551004,
      "lat": 23.585708,
      "lon": 121.506678
    },
    {
      "city": "屏東縣",
      "town": "滿州鄉",
      "name": "鼻頭",
      "temp": 27.5,
      "at": 33.782701593601104,
      "lat": 22.106107,
      "lon": 120.889862
    },
    {
      "city": "宜蘭縣",
      "town": "壯圍鄉",
      "name": "壯圍",
      "temp": 25.9,
      "at": 30.534189227437828,
      "lat": 24.737723,
      "lon": 121.808046
    },
    {
      "city": "臺南市",
      "town": "歸仁區",
      "name": "媽廟",
      "temp": 26.9,
      "at": 33.62699298961804,
      "lat": 22.993514,
      "lon": 120.285431
    },
    {
      "city": "澎湖縣",
      "town": "望安鄉",
      "name": "花嶼",
      "temp": 26.6,
      "at": 33.59820083413614,
      "lat": 23.401778,
      "lon": 119.314667
    },
    {
      "city": "臺東縣",
      "town": "太麻里鄉",
      "name": "金崙",
      "temp": 25.1,
      "at": 30.9551538889734,
      "lat": 22.54,
      "lon": 120.958889
    },
    {
      "city": "南投縣",
      "town": "名間鄉",
      "name": "名間",
      "temp": 24.9,
      "at": 30.846119883456346,
      "lat": 23.838817,
      "lon": 120.693306
    },
    {
      "city": "臺南市",
      "town": "大內區",
      "name": "大內",
      "temp": 26.8,
      "at": 32.90445688978375,
      "lat": 23.120611,
      "lon": 120.35275
    },
    {
      "city": "宜蘭縣",
      "town": "頭城鎮",
      "name": "坪林石牌",
      "temp": 23.1,
      "at": 28.400906737700552,
      "lat": 24.866578,
      "lon": 121.76575
    },
    {
      "city": "新北市",
      "town": "瑞芳區",
      "name": "鼻頭角",
      "temp": 28.7,
      "at": 34.71581942018508,
      "lat": 25.130833,
      "lon": 121.915278
    },
    {
      "city": "臺東縣",
      "town": "臺東市",
      "name": "富岡",
      "temp": 28.4,
      "at": 34.58677633749988,
      "lat": 22.794274,
      "lon": 121.184602
    },
    {
      "city": "宜蘭縣",
      "town": "礁溪鄉",
      "name": "淡江大學蘭陽校園",
      "temp": 23.3,
      "at": 27.84963175393197,
      "lat": 24.825033,
      "lon": 121.722172
    },
    {
      "city": "臺北市",
      "town": "內湖區",
      "name": "內湖",
      "temp": 28.5,
      "at": 33.87768145469811,
      "lat": 25.081206,
      "lon": 121.567222
    },
    {
      "city": "臺南市",
      "town": "將軍區",
      "name": "鯤鯓國小",
      "temp": 28.2,
      "at": 34.16250623668354,
      "lat": 23.189624,
      "lon": 120.080813
    },
    {
      "city": "臺中市",
      "town": "大安區",
      "name": "溫寮",
      "temp": 27.6,
      "at": 32.73922844137278,
      "lat": 24.373925,
      "lon": 120.574953
    },
    {
      "city": "臺東縣",
      "town": "太麻里鄉",
      "name": "歷坵",
      "temp": 23.5,
      "at": 28.792547454958857,
      "lat": 22.522769,
      "lon": 120.883803
    },
    {
      "city": "南投縣",
      "town": "仁愛鄉",
      "name": "合歡山頂",
      "temp": 13.0,
      "at": 11.00855380368586,
      "lat": 24.144778,
      "lon": 121.264083
    },
    {
      "city": "屏東縣",
      "town": "枋寮鄉",
      "name": "下寮",
      "temp": 28.3,
      "at": 34.28422535895811,
      "lat": 22.394648,
      "lon": 120.546743
    },
    {
      "city": "高雄市",
      "town": "小港區",
      "name": "鳳鼻頭",
      "temp": 28.2,
      "at": 34.62514190287864,
      "lat": 22.510051,
      "lon": 120.351098
    },
    {
      "city": "屏東縣",
      "town": "來義鄉",
      "name": "白鷺",
      "temp": 23.1,
      "at": 28.26090673770055,
      "lat": 22.456067,
      "lon": 120.658178
    },
    {
      "city": "嘉義縣",
      "town": "竹崎鄉",
      "name": "竹崎",
      "temp": 24.8,
      "at": 29.044074356651826,
      "lat": 23.527931,
      "lon": 120.547378
    },
    {
      "city": "臺中市",
      "town": "大雅區",
      "name": "大雅",
      "temp": 26.6,
      "at": 31.256248689980374,
      "lat": 24.217056,
      "lon": 120.616239
    },
    {
      "city": "臺中市",
      "town": "北屯區",
      "name": "大坑",
      "temp": 27.7,
      "at": 34.31203625807992,
      "lat": 24.174889,
      "lon": 120.714139
    },
    {
      "city": "雲林縣",
      "town": "口湖鄉",
      "name": "宜梧",
      "temp": 27.6,
      "at": 34.32247604596976,
      "lat": 23.538014,
      "lon": 120.1612
    },
    {
      "city": "屏東縣",
      "town": "恆春鎮",
      "name": "山海",
      "temp": 27.6,
      "at": 32.99247604596976,
      "lat": 21.989579,
      "lon": 120.701107
    },
    {
      "city": "臺中市",
      "town": "和平區",
      "name": "出雲山苗圃",
      "temp": 19.9,
      "at": 22.523604710546866,
      "lat": 24.2328,
      "lon": 120.8965
    },
    {
      "city": "屏東縣",
      "town": "枋山鄉",
      "name": "楓港",
      "temp": 26.4,
      "at": 32.05702165062658,
      "lat": 22.191928,
      "lon": 120.684131
    },
    {
      "city": "苗栗縣",
      "town": "三灣鄉",
      "name": "大河",
      "temp": 25.0,
      "at": 30.170139868615514,
      "lat": 24.619833,
      "lon": 120.94055
    },
    {
      "city": "宜蘭縣",
      "town": "南澳鄉",
      "name": "南澳",
      "temp": 25.0,
      "at": 28.941258750205265,
      "lat": 24.451153,
      "lon": 121.802036
    },
    {
      "city": "屏東縣",
      "town": "獅子鄉",
      "name": "丹路",
      "temp": 25.5,
      "at": 31.30749722987919,
      "lat": 22.206281,
      "lon": 120.742964
    },
    {
      "city": "新竹縣",
      "town": "寶山鄉",
      "name": "寶山",
      "temp": 24.3,
      "at": 29.996314041209722,
      "lat": 24.736722,
      "lon": 121.016769
    },
    {
      "city": "高雄市",
      "town": "鳳山區",
      "name": "鳳山",
      "temp": 28.0,
      "at": 35.26747070769369,
      "lat": 22.648611,
      "lon": 120.348056
    },
    {
      "city": "屏東縣",
      "town": "恆春鎮",
      "name": "大坪頂",
      "temp": 25.6,
      "at": 32.2601968287474,
      "lat": 22.026433,
      "lon": 120.685536
    },
    {
      "city": "臺中市",
      "town": "和平區",
      "name": "中橫21.6k",
      "temp": 19.3,
      "at": 18.557932140203718,
      "lat": 24.2516,
      "lon": 121.1373
    },
    {
      "city": "花蓮縣",
      "town": "秀林鄉",
      "name": "和平",
      "temp": 26.7,
      "at": 29.703926023509112,
      "lat": 24.308961,
      "lon": 121.761903
    },
    {
      "city": "宜蘭縣",
      "town": "蘇澳鎮",
      "name": "蘇澳",
      "temp": 26.3,
      "at": 30.75042529120632,
      "lat": 24.59875,
      "lon": 121.848895
    },
    {
      "city": "臺中市",
      "town": "烏日區",
      "name": "烏日",
      "temp": 27.2,
      "at": 32.49533503835143,
      "lat": 24.108833,
      "lon": 120.615917
    },
    {
      "city": "南投縣",
      "town": "仁愛鄉",
      "name": "小奇萊",
      "temp": 10.9,
      "at": 8.527832391610234,
      "lat": 24.13355,
      "lon": 121.287556
    },
    {
      "city": "宜蘭縣",
      "town": "羅東鎮",
      "name": "羅東",
      "temp": 25.6,
      "at": 31.904192892172446,
      "lat": 24.683636,
      "lon": 121.741144
    },
    {
      "city": "屏東縣",
      "town": "牡丹鄉",
      "name": "高士",
      "temp": 24.4,
      "at": 29.655574563836005,
      "lat": 22.123631,
      "lon": 120.828758
    },
    {
      "city": "高雄市",
      "town": "茄萣區",
      "name": "興達",
      "temp": 27.7,
      "at": 34.25858294869628,
      "lat": 22.879517,
      "lon": 120.204681
    },
    {
      "city": "臺東縣",
      "town": "延平鄉",
      "name": "延平",
      "temp": 25.5,
      "at": 31.162769029229636,
      "lat": 22.904381,
      "lon": 121.075983
    },
    {
      "city": "花蓮縣",
      "town": "萬榮鄉",
      "name": "西林林道12.5K",
      "temp": 22.2,
      "at": 25.58483725152352,
      "lat": 23.83143,
      "lon": 121.40419
    },
    {
      "city": "屏東縣",
      "town": "滿州鄉",
      "name": "九棚",
      "temp": 26.9,
      "at": 30.71039306341153,
      "lat": 22.143756,
      "lon": 120.886331
    },
    {
      "city": "彰化縣",
      "town": "芬園鄉",
      "name": "芬園",
      "temp": 25.4,
      "at": 31.966222387363658,
      "lat": 24.017222,
      "lon": 120.613056
    },
    {
      "city": "彰化縣",
      "town": "埔心鄉",
      "name": "埔心",
      "temp": 29.5,
      "at": 37.56841918575855,
      "lat": 23.948694,
      "lon": 120.517611
    },
    {
      "city": "桃園市",
      "town": "楊梅區",
      "name": "楊梅",
      "temp": 26.7,
      "at": 31.593926023509113,
      "lat": 24.914139,
      "lon": 121.134833
    },
    {
      "city": "宜蘭縣",
      "town": "礁溪鄉",
      "name": "礁溪",
      "temp": 25.8,
      "at": 31.57446119259908,
      "lat": 24.819336,
      "lon": 121.757397
    },
    {
      "city": "苗栗縣",
      "town": "西湖鄉",
      "name": "西湖",
      "temp": 24.5,
      "at": 30.134057341048496,
      "lat": 24.564417,
      "lon": 120.740278
    },
    {
      "city": "基隆市",
      "town": "暖暖區",
      "name": "暖暖",
      "temp": 26.8,
      "at": 33.23037489945531,
      "lat": 25.097533,
      "lon": 121.732069
    },
    {
      "city": "高雄市",
      "town": "彌陀區",
      "name": "南寮",
      "temp": 27.7,
      "at": 33.29640071849083,
      "lat": 22.763381,
      "lon": 120.225866
    },
    {
      "city": "宜蘭縣",
      "town": "大同鄉",
      "name": "白嶺",
      "temp": 19.0,
      "at": 21.673391738874788,
      "lat": 24.529611,
      "lon": 121.510844
    },
    {
      "city": "高雄市",
      "town": "梓官區",
      "name": "梓官",
      "temp": 27.7,
      "at": 33.454218488285385,
      "lat": 22.762444,
      "lon": 120.25925
    },
    {
      "city": "南投縣",
      "town": "仁愛鄉",
      "name": "萬大林道",
      "temp": 18.2,
      "at": 20.525432017904713,
      "lat": 23.930008,
      "lon": 121.083267
    },
    {
      "city": "屏東縣",
      "town": "恆春鎮",
      "name": "後壁湖",
      "temp": 27.1,
      "at": 33.77742495665831,
      "lat": 21.94747,
      "lon": 120.737695
    },
    {
      "city": "宜蘭縣",
      "town": "頭城鎮",
      "name": "大溪漁港",
      "temp": 27.5,
      "at": 34.20964047387052,
      "lat": 24.943603,
      "lon": 121.894736
    },
    {
      "city": "臺中市",
      "town": "后里區",
      "name": "后里",
      "temp": 27.0,
      "at": 33.32110943569778,
      "lat": 24.312111,
      "lon": 120.7215
    },
    {
      "city": "連江縣",
      "town": "北竿鄉",
      "name": "北竿",
      "temp": 26.1,
      "at": 30.230387830178053,
      "lat": 26.222038,
      "lon": 119.966574
    },
    {
      "city": "新北市",
      "town": "石碇區",
      "name": "石碇",
      "temp": 23.8,
      "at": 28.91910101718456,
      "lat": 24.995758,
      "lon": 121.654639
    },
    {
      "city": "屏東縣",
      "town": "高樹鄉",
      "name": "高樹",
      "temp": 26.6,
      "at": 32.43994246604713,
      "lat": 22.828222,
      "lon": 120.592722
    },
    {
      "city": "嘉義縣",
      "town": "新港鄉",
      "name": "新港",
      "temp": 27.5,
      "at": 34.38117103373581,
      "lat": 23.555011,
      "lon": 120.3376
    },
    {
      "city": "嘉義縣",
      "town": "大林鎮",
      "name": "大林",
      "temp": 27.5,
      "at": 33.26275295447674,
      "lat": 23.602361,
      "lon": 120.450281
    },
    {
      "city": "宜蘭縣",
      "town": "頭城鎮",
      "name": "北關",
      "temp": 26.9,
      "at": 32.413993358585515,
      "lat": 24.90902,
      "lon": 121.865211
    },
    {
      "city": "新北市",
      "town": "金山區",
      "name": "金山",
      "temp": 26.2,
      "at": 32.047112205206794,
      "lat": 25.225278,
      "lon": 121.635556
    },
    {
      "city": "花蓮縣",
      "town": "秀林鄉",
      "name": "富世",
      "temp": 25.4,
      "at": 31.219115753913698,
      "lat": 24.149236,
      "lon": 121.621542
    },
    {
      "city": "新北市",
      "town": "永和區",
      "name": "永和",
      "temp": 27.9,
      "at": 33.68631799545934,
      "lat": 25.013028,
      "lon": 121.499889
    },
    {
      "city": "屏東縣",
      "town": "滿州鄉",
      "name": "檳榔",
      "temp": 25.0,
      "at": 30.932377631795013,
      "lat": 22.077883,
      "lon": 120.828758
    },
    {
      "city": "花蓮縣",
      "town": "豐濱鄉",
      "name": "靜浦",
      "temp": 25.2,
      "at": 30.90701596064298,
      "lat": 23.456944,
      "lon": 121.486667
    },
    {
      "city": "臺南市",
      "town": "新市區",
      "name": "新市",
      "temp": 26.6,
      "at": 32.815377874024875,
      "lat": 23.063556,
      "lon": 120.290417
    },
    {
      "city": "雲林縣",
      "town": "褒忠鄉",
      "name": "褒忠",
      "temp": 27.3,
      "at": 33.923276775713184,
      "lat": 23.692672,
      "lon": 120.295503
    },
    {
      "city": "花蓮縣",
      "town": "富里鄉",
      "name": "富里",
      "temp": 24.1,
      "at": 29.06339938005572,
      "lat": 23.173442,
      "lon": 121.241286
    },
    {
      "city": "屏東縣",
      "town": "泰武鄉",
      "name": "舊泰武",
      "temp": 23.2,
      "at": 27.48218629121231,
      "lat": 22.58995,
      "lon": 120.656922
    },
    {
      "city": "臺南市",
      "town": "北門區",
      "name": "蚵寮",
      "temp": 28.5,
      "at": 35.131606009758194,
      "lat": 23.302745,
      "lon": 120.102281
    },
    {
      "city": "宜蘭縣",
      "town": "員山鄉",
      "name": "內城",
      "temp": 25.5,
      "at": 30.952769029229636,
      "lat": 24.719928,
      "lon": 121.679461
    },
    {
      "city": "屏東縣",
      "town": "滿州鄉",
      "name": "南仁湖",
      "temp": 25.5,
      "at": 29.85641003247737,
      "lat": 22.086486,
      "lon": 120.855333
    },
    {
      "city": "新北市",
      "town": "鶯歌區",
      "name": "鶯歌",
      "temp": 27.1,
      "at": 34.42552795839197,
      "lat": 24.953,
      "lon": 121.33725
    },
    {
      "city": "宜蘭縣",
      "town": "大同鄉",
      "name": "南山",
      "temp": 19.4,
      "at": 21.015743268119973,
      "lat": 24.439167,
      "lon": 121.373333
    },
    {
      "city": "臺東縣",
      "town": "蘭嶼鄉",
      "name": "東清國小",
      "temp": 27.0,
      "at": 31.103824101201212,
      "lat": 22.058965,
      "lon": 121.556901
    },
    {
      "city": "高雄市",
      "town": "大樹區",
      "name": "大樹",
      "temp": 27.4,
      "at": 33.36559678242611,
      "lat": 22.686423,
      "lon": 120.424748
    },
    {
      "city": "彰化縣",
      "town": "福興鄉",
      "name": "福興",
      "temp": 28.0,
      "at": 34.3584575548294,
      "lat": 24.042972,
      "lon": 120.429528
    },
    {
      "city": "高雄市",
      "town": "小港區",
      "name": "鳳森",
      "temp": 26.4,
      "at": 33.19959638719271,
      "lat": 22.546944,
      "lon": 120.3845
    },
    {
      "city": "彰化縣",
      "town": "福興鄉",
      "name": "福寶",
      "temp": 27.5,
      "at": 33.630405753803174,
      "lat": 24.046048,
      "lon": 120.373213
    },
    {
      "city": "南投縣",
      "town": "水里鄉",
      "name": "水里",
      "temp": 24.2,
      "at": 28.921649944163434,
      "lat": 23.814322,
      "lon": 120.841658
    },
    {
      "city": "嘉義縣",
      "town": "布袋鎮",
      "name": "好美里",
      "temp": 27.8,
      "at": 33.373546713864854,
      "lat": 23.338176,
      "lon": 120.129936
    },
    {
      "city": "花蓮縣",
      "town": "萬榮鄉",
      "name": "西林",
      "temp": 25.1,
      "at": 30.431236417902426,
      "lat": 23.813667,
      "lon": 121.433194
    },
    {
      "city": "屏東縣",
      "town": "新埤鄉",
      "name": "萬隆國小",
      "temp": 26.5,
      "at": 31.638696316781612,
      "lat": 22.509453,
      "lon": 120.579772
    },
    {
      "city": "花蓮縣",
      "town": "秀林鄉",
      "name": "和平林道",
      "temp": 22.9,
      "at": 26.44841205122174,
      "lat": 24.345722,
      "lon": 121.648142
    },
    {
      "city": "臺中市",
      "town": "和平區",
      "name": "雪山圈谷",
      "temp": 3.6,
      "at": -0.5188786763312354,
      "lat": 24.390375,
      "lon": 121.228197
    },
    {
      "city": "金門縣",
      "town": "烏坵鄉",
      "name": "烏坵",
      "temp": 26.2,
      "at": 30.548001230857643,
      "lat": 24.996081,
      "lon": 119.441347
    },
    {
      "city": "臺南市",
      "town": "佳里區",
      "name": "佳里",
      "temp": 26.3,
      "at": 32.27810613424653,
      "lat": 23.175,
      "lon": 120.136667
    },
    {
      "city": "花蓮縣",
      "town": "壽豐鄉",
      "name": "東華",
      "temp": 24.6,
      "at": 30.36987082651254,
      "lat": 23.897056,
      "lon": 121.541694
    },
    {
      "city": "屏東縣",
      "town": "佳冬鄉",
      "name": "佳冬",
      "temp": 27.9,
      "at": 33.77715889773224,
      "lat": 22.421194,
      "lon": 120.544222
    },
    {
      "city": "宜蘭縣",
      "town": "南澳鄉",
      "name": "樟樹山",
      "temp": 23.5,
      "at": 28.195599655113277,
      "lat": 24.415731,
      "lon": 121.775067
    },
    {
      "city": "新北市",
      "town": "蘆洲區",
      "name": "蘆洲",
      "temp": 29.5,
      "at": 35.9412165989147,
      "lat": 25.088528,
      "lon": 121.464056
    },
    {
      "city": "桃園市",
      "town": "龜山區",
      "name": "國一五楊N44K",
      "temp": 25.7,
      "at": 30.98059608018483,
      "lat": 25.065633,
      "lon": 121.332769
    },
    {
      "city": "臺東縣",
      "town": "卑南鄉",
      "name": "知本",
      "temp": 23.7,
      "at": 29.20308615954403,
      "lat": 22.686667,
      "lon": 120.997583
    },
    {
      "city": "臺中市",
      "town": "清水區",
      "name": "清水",
      "temp": 27.9,
      "at": 32.9490907272774,
      "lat": 24.314028,
      "lon": 120.554083
    },
    {
      "city": "高雄市",
      "town": "大寮區",
      "name": "大寮",
      "temp": 28.3,
      "at": 35.12682685066153,
      "lat": 22.607389,
      "lon": 120.387667
    },
    {
      "city": "雲林縣",
      "town": "大埤鄉",
      "name": "大埤",
      "temp": 27.1,
      "at": 32.42781121315956,
      "lat": 23.647817,
      "lon": 120.4234
    },
    {
      "city": "新北市",
      "town": "石門區",
      "name": "石門",
      "temp": 25.4,
      "at": 30.202386234849428,
      "lat": 25.275453,
      "lon": 121.592956
    },
    {
      "city": "花蓮縣",
      "town": "壽豐鄉",
      "name": "大坑",
      "temp": 23.7,
      "at": 29.34308615954403,
      "lat": 23.882433,
      "lon": 121.573839
    },
    {
      "city": "花蓮縣",
      "town": "吉安鄉",
      "name": "吉安光華",
      "temp": 26.2,
      "at": 31.612304223861955,
      "lat": 23.932733,
      "lon": 121.587003
    },
    {
      "city": "臺北市",
      "town": "信義區",
      "name": "信義",
      "temp": 27.2,
      "at": 32.97933497887405,
      "lat": 25.039606,
      "lon": 121.556372
    },
    {
      "city": "高雄市",
      "town": "六龜區",
      "name": "六龜",
      "temp": 25.8,
      "at": 31.635885949281715,
      "lat": 22.99975,
      "lon": 120.625528
    },
    {
      "city": "屏東縣",
      "town": "恆春鎮",
      "name": "墾丁",
      "temp": 25.2,
      "at": 31.081545801036555,
      "lat": 21.968561,
      "lon": 120.802258
    },
    {
      "city": "屏東縣",
      "town": "屏東市",
      "name": "屏東",
      "temp": 27.1,
      "at": 33.69565671055906,
      "lat": 22.662048,
      "lon": 120.485974
    },
    {
      "city": "南投縣",
      "town": "鹿谷鄉",
      "name": "鳳凰",
      "temp": 21.5,
      "at": 25.26653010577509,
      "lat": 23.729722,
      "lon": 120.779167
    },
    {
      "city": "苗栗縣",
      "town": "南庄鄉",
      "name": "拉庫斯",
      "temp": 20.7,
      "at": 22.991217915710205,
      "lat": 24.538136,
      "lon": 121.013183
    },
    {
      "city": "臺中市",
      "town": "梧棲區",
      "name": "梧棲",
      "temp": 28.0,
      "at": 34.1714619391175,
      "lat": 24.257753,
      "lon": 120.515211
    },
    {
      "city": "雲林縣",
      "town": "古坑鄉",
      "name": "草嶺石壁",
      "temp": 19.7,
      "at": 22.03161495103647,
      "lat": 23.604239,
      "lon": 120.699612
    },
    {
      "city": "雲林縣",
      "town": "元長鄉",
      "name": "鹿南",
      "temp": 27.2,
      "at": 33.110001784321256,
      "lat": 23.645083,
      "lon": 120.360167
    },
    {
      "city": "嘉義市",
      "town": "西區",
      "name": "嘉義",
      "temp": 26.7,
      "at": 33.11251957227666,
      "lat": 23.497684,
      "lon": 120.424796
    },
    {
      "city": "花蓮縣",
      "town": "富里鄉",
      "name": "六十石",
      "temp": 22.1,
      "at": 25.73379924252672,
      "lat": 23.226575,
      "lon": 121.310513
    },
    {
      "city": "花蓮縣",
      "town": "鳳林鎮",
      "name": "庄子底",
      "temp": 24.3,
      "at": 29.746276041634566,
      "lat": 23.719744,
      "lon": 121.486249
    },
    {
      "city": "澎湖縣",
      "town": "西嶼鄉",
      "name": "畜試所澎湖",
      "temp": 25.7,
      "at": 31.997027452933104,
      "lat": 23.630055,
      "lon": 119.505094
    },
    {
      "city": "臺北市",
      "town": "文山區",
      "name": "國三甲005K",
      "temp": 24.5,
      "at": 29.56638504188622,
      "lat": 25.003726,
      "lon": 121.589277
    },
    {
      "city": "臺東縣",
      "town": "鹿野鄉",
      "name": "二層坪",
      "temp": 25.8,
      "at": 31.255173570940393,
      "lat": 22.942853,
      "lon": 121.160303
    },
    {
      "city": "臺中市",
      "town": "大甲區",
      "name": "大甲",
      "temp": 26.7,
      "at": 32.771082152769644,
      "lat": 24.349917,
      "lon": 120.632361
    },
    {
      "city": "高雄市",
      "town": "美濃區",
      "name": "吉東",
      "temp": 27.2,
      "at": 33.341335097828804,
      "lat": 22.855957,
      "lon": 120.537323
    },
    {
      "city": "南投縣",
      "town": "仁愛鄉",
      "name": "馬烈霸",
      "temp": 14.9,
      "at": 15.446985575696427,
      "lat": 24.152982,
      "lon": 121.193613
    },
    {
      "city": "新北市",
      "town": "石碇區",
      "name": "國五S006K",
      "temp": 23.6,
      "at": 28.835304745477863,
      "lat": 24.991753,
      "lon": 121.64875
    },
    {
      "city": "新北市",
      "town": "石碇區",
      "name": "國五S005K",
      "temp": 23.5,
      "at": 28.271434426475665,
      "lat": 24.998202,
      "lon": 121.643708
    },
    {
      "city": "屏東縣",
      "town": "萬巒鄉",
      "name": "萬巒",
      "temp": 25.9,
      "at": 31.624124663298247,
      "lat": 22.529093,
      "lon": 120.617065
    },
    {
      "city": "臺中市",
      "town": "龍井區",
      "name": "國三N183K",
      "temp": 26.5,
      "at": 31.05258937789405,
      "lat": 24.19538,
      "lon": 120.562148
    },
    {
      "city": "金門縣",
      "town": "金城鎮",
      "name": "金門",
      "temp": 26.5,
      "at": 32.611519989018376,
      "lat": 24.408942,
      "lon": 118.281127
    },
    {
      "city": "臺南市",
      "town": "善化區",
      "name": "國三S342K",
      "temp": 26.3,
      "at": 31.25554585323313,
      "lat": 23.108456,
      "lon": 120.319446
    },
    {
      "city": "嘉義縣",
      "town": "梅山鄉",
      "name": "大巃頂",
      "temp": 20.9,
      "at": 24.393872844928108,
      "lat": 23.556466,
      "lon": 120.606275
    },
    {
      "city": "彰化縣",
      "town": "鹿港鎮",
      "name": "鹿港",
      "temp": 26.1,
      "at": 32.12418227192145,
      "lat": 24.076944,
      "lon": 120.422222
    },
    {
      "city": "臺南市",
      "town": "下營區",
      "name": "下營",
      "temp": 26.5,
      "at": 32.645947744568645,
      "lat": 23.228563,
      "lon": 120.248201
    },
    {
      "city": "南投縣",
      "town": "名間鄉",
      "name": "苗改南投蜂場",
      "temp": 24.2,
      "at": 29.867844505739313,
      "lat": 23.854353,
      "lon": 120.685345
    },
    {
      "city": "臺北市",
      "town": "大安區",
      "name": "大安森林",
      "temp": 25.0,
      "at": 30.48436364493346,
      "lat": 25.031331,
      "lon": 121.528056
    },
    {
      "city": "南投縣",
      "town": "竹山鎮",
      "name": "臺大竹山",
      "temp": 25.2,
      "at": 31.431545801036556,
      "lat": 23.758731,
      "lon": 120.67342
    },
    {
      "city": "屏東縣",
      "town": "恆春鎮",
      "name": "畜試南區分所",
      "temp": 26.1,
      "at": 31.51045893696749,
      "lat": 21.947348,
      "lon": 120.794139
    },
    {
      "city": "花蓮縣",
      "town": "吉安鄉",
      "name": "花蓮農改",
      "temp": 25.4,
      "at": 31.219115753913698,
      "lat": 23.977028,
      "lon": 121.555752
    },
    {
      "city": "新北市",
      "town": "平溪區",
      "name": "火燒寮",
      "temp": 22.3,
      "at": 26.9325696021415,
      "lat": 25.004411,
      "lon": 121.734572
    },
    {
      "city": "嘉義縣",
      "town": "東石鄉",
      "name": "西濱S257K",
      "temp": 27.1,
      "at": 33.58160520969222,
      "lat": 23.504025,
      "lon": 120.163753
    },
    {
      "city": "桃園市",
      "town": "觀音區",
      "name": "觀音",
      "temp": 25.7,
      "at": 31.772454903833797,
      "lat": 25.028835,
      "lon": 121.145094
    },
    {
      "city": "苗栗縣",
      "town": "竹南鎮",
      "name": "竹南",
      "temp": 26.5,
      "at": 32.65426856123135,
      "lat": 24.710737,
      "lon": 120.880772
    },
    {
      "city": "嘉義縣",
      "town": "朴子市",
      "name": "朴子農改",
      "temp": 26.9,
      "at": 32.97399335858551,
      "lat": 23.47164,
      "lon": 120.251277
    },
    {
      "city": "南投縣",
      "town": "埔里鎮",
      "name": "中台",
      "temp": 22.6,
      "at": 27.323663637088146,
      "lat": 24.001373,
      "lon": 120.930591
    },
    {
      "city": "苗栗縣",
      "town": "西湖鄉",
      "name": "畜試北區分所",
      "temp": 24.6,
      "at": 30.57340980206488,
      "lat": 24.529569,
      "lon": 120.762788
    },
    {
      "city": "嘉義縣",
      "town": "大埔鄉",
      "name": "馬頭山",
      "temp": 23.6,
      "at": 28.879451698023082,
      "lat": 23.326389,
      "lon": 120.573611
    },
    {
      "city": "宜蘭縣",
      "town": "南澳鄉",
      "name": "金洋",
      "temp": 23.5,
      "at": 28.697269197838054,
      "lat": 24.426453,
      "lon": 121.737548
    },
    {
      "city": "嘉義縣",
      "town": "竹崎鄉",
      "name": "大華",
      "temp": 20.9,
      "at": 24.06846384109263,
      "lat": 23.484171,
      "lon": 120.6668
    },
    {
      "city": "臺東縣",
      "town": "太麻里鄉",
      "name": "太麻里(1)",
      "temp": 25.9,
      "at": 31.554124663298246,
      "lat": 22.600724,
      "lon": 120.971991
    },
    {
      "city": "苗栗縣",
      "town": "苑裡鎮",
      "name": "國三S156K",
      "temp": 26.8,
      "at": 32.09078485109751,
      "lat": 24.399738,
      "lon": 120.66131
    },
    {
      "city": "臺南市",
      "town": "官田區",
      "name": "西拉雅風管處",
      "temp": 26.4,
      "at": 32.11669653772635,
      "lat": 23.191241,
      "lon": 120.327209
    },
    {
      "city": "雲林縣",
      "town": "古坑鄉",
      "name": "古坑",
      "temp": 25.6,
      "at": 31.758188955597504,
      "lat": 23.635298,
      "lon": 120.543786
    },
    {
      "city": "嘉義縣",
      "town": "民雄鄉",
      "name": "何竹子腳",
      "temp": 27.0,
      "at": 33.55568010469091,
      "lat": 23.538166,
      "lon": 120.373918
    },
    {
      "city": "臺東縣",
      "town": "太麻里鄉",
      "name": "太麻里(2)",
      "temp": 26.3,
      "at": 32.01042529120632,
      "lat": 22.599802,
      "lon": 120.9897
    },
    {
      "city": "花蓮縣",
      "town": "鳳林鎮",
      "name": "長橋",
      "temp": 23.2,
      "at": 28.253617664838913,
      "lat": 23.689203,
      "lon": 121.453731
    },
    {
      "city": "臺南市",
      "town": "安南區",
      "name": "安南",
      "temp": 27.1,
      "at": 34.00160520969222,
      "lat": 23.078333,
      "lon": 120.136667
    },
    {
      "city": "南投縣",
      "town": "仁愛鄉",
      "name": "發祥",
      "temp": 17.8,
      "at": 18.85610690529041,
      "lat": 24.155875,
      "lon": 121.156357
    },
    {
      "city": "嘉義縣",
      "town": "阿里山鄉",
      "name": "阿里山",
      "temp": 12.8,
      "at": 13.249077844620714,
      "lat": 23.509984,
      "lon": 120.805129
    },
    {
      "city": "屏東縣",
      "town": "內埔鄉",
      "name": "屏科大",
      "temp": 26.0,
      "at": 31.975139868998,
      "lat": 22.65006,
      "lon": 120.611193
    },
    {
      "city": "臺南市",
      "town": "白河區",
      "name": "國三S311K",
      "temp": 25.6,
      "at": 30.86217517758518,
      "lat": 23.34815,
      "lon": 120.430789
    },
    {
      "city": "嘉義縣",
      "town": "溪口鄉",
      "name": "農試溪口農場",
      "temp": 27.2,
      "at": 33.341335097828804,
      "lat": 23.587406,
      "lon": 120.399994
    },
    {
      "city": "臺南市",
      "town": "大內區",
      "name": "環湖",
      "temp": 25.1,
      "at": 30.395153888973397,
      "lat": 23.150431,
      "lon": 120.410514
    },
    {
      "city": "基隆市",
      "town": "七堵區",
      "name": "國三S007K",
      "temp": 23.6,
      "at": 28.485304745477862,
      "lat": 25.098727,
      "lon": 121.65957
    },
    {
      "city": "基隆市",
      "town": "七堵區",
      "name": "國一S006K",
      "temp": 25.0,
      "at": 30.75970630284116,
      "lat": 25.088729,
      "lon": 121.678671
    },
    {
      "city": "高雄市",
      "town": "楠梓區",
      "name": "高雄",
      "temp": 26.8,
      "at": 33.46221091879844,
      "lat": 22.732201,
      "lon": 120.304459
    },
    {
      "city": "宜蘭縣",
      "town": "大同鄉",
      "name": "出水溪",
      "temp": 22.2,
      "at": 26.061363193948402,
      "lat": 24.617617,
      "lon": 121.644058
    },
    {
      "city": "臺東縣",
      "town": "卑南鄉",
      "name": "明峰",
      "temp": 24.3,
      "at": 29.47635204078488,
      "lat": 22.868903,
      "lon": 121.110178
    },
    {
      "city": "宜蘭縣",
      "town": "羅東鎮",
      "name": "國五S047K",
      "temp": 26.3,
      "at": 31.632985572219724,
      "lat": 24.677257,
      "lon": 121.786384
    },
    {
      "city": "南投縣",
      "town": "魚池鄉",
      "name": "茶改中部分場",
      "temp": 20.8,
      "at": 24.513712111759965,
      "lat": 23.877382,
      "lon": 120.905442
    },
    {
      "city": "雲林縣",
      "town": "四湖鄉",
      "name": "四湖",
      "temp": 26.6,
      "at": 33.159071650091626,
      "lat": 23.632147,
      "lon": 120.219053
    },
    {
      "city": "南投縣",
      "town": "中寮鄉",
      "name": "中寮",
      "temp": 23.8,
      "at": 29.404159581928425,
      "lat": 23.886278,
      "lon": 120.758528
    },
    {
      "city": "屏東縣",
      "town": "長治鄉",
      "name": "高雄農改",
      "temp": 27.1,
      "at": 32.89186271402639,
      "lat": 22.711084,
      "lon": 120.517814
    },
    {
      "city": "臺中市",
      "town": "北區",
      "name": "臺中",
      "temp": 27.7,
      "at": 33.68330733725811,
      "lat": 24.147494,
      "lon": 120.675919
    },
    {
      "city": "南投縣",
      "town": "信義鄉",
      "name": "臺大內茅埔",
      "temp": 22.0,
      "at": 26.265977160308445,
      "lat": 23.691497,
      "lon": 120.842992
    },
    {
      "city": "新北市",
      "town": "坪林區",
      "name": "四堵",
      "temp": 23.3,
      "at": 26.572740169764582,
      "lat": 24.894394,
      "lon": 121.737519
    },
    {
      "city": "嘉義縣",
      "town": "中埔鄉",
      "name": "國三N303K",
      "temp": 25.6,
      "at": 31.73219486045992,
      "lat": 23.413742,
      "lon": 120.444389
    },
    {
      "city": "新北市",
      "town": "坪林區",
      "name": "國五N013K",
      "temp": 22.8,
      "at": 27.65382751231444,
      "lat": 24.949395,
      "lon": 121.697289
    },
    {
      "city": "新北市",
      "town": "瑞芳區",
      "name": "瑞芳",
      "temp": 25.3,
      "at": 30.85103534142028,
      "lat": 25.114861,
      "lon": 121.792639
    },
    {
      "city": "新竹縣",
      "town": "新豐鄉",
      "name": "西濱N066K",
      "temp": 26.1,
      "at": 31.242941160270128,
      "lat": 24.897357,
      "lon": 120.956688
    },
    {
      "city": "南投縣",
      "town": "鹿谷鄉",
      "name": "臺大溪頭",
      "temp": 18.3,
      "at": 20.734670902251555,
      "lat": 23.672071,
      "lon": 120.790065
    },
    {
      "city": "桃園市",
      "town": "楊梅區",
      "name": "茶改場",
      "temp": 26.0,
      "at": 30.6369275480834,
      "lat": 24.910258,
      "lon": 121.17713
    },
    {
      "city": "雲林縣",
      "town": "虎尾鎮",
      "name": "雲林臺大",
      "temp": 25.7,
      "at": 31.709741178383453,
      "lat": 23.732381,
      "lon": 120.415777
    },
    {
      "city": "雲林縣",
      "town": "口湖鄉",
      "name": "西濱S241K",
      "temp": 27.0,
      "at": 32.670250773684046,
      "lat": 23.625171,
      "lon": 120.164529
    },