{
  "meta": {
    "updated_at": "2026-07-22 08:54:51",
    "source": "CWA Auto Stations",
    "count": 846
  },
  "data": [
    {
      "city": "高雄市",
      "town": "內門區",
      "name": "內門",
      "temp": 28.7,
      "at": 35.706333147857336,
      "lat": 22.976944,
      "lon": 120.458333
    },
    {
      "city": "臺南市",
      "town": "南區",
      "name": "臺南市南區",
      "temp": 29.9,
      "at": 36.157520660816004,
      "lat": 22.963028,
      "lon": 120.180417
    },
    {
      "city": "宜蘭縣",
      "town": "南澳鄉",
      "name": "東澳",
      "temp": 31.2,
      "at": 37.21191639992293,
      "lat": 24.523767,
      "lon": 121.824986
    },
    {
      "city": "新北市",
      "town": "汐止區",
      "name": "汐止",
      "temp": 31.0,
      "at": 37.75397018268563,
      "lat": 25.068667,
      "lon": 121.650556
    },
    {
      "city": "臺南市",
      "town": "後壁區",
      "name": "後壁",
      "temp": 29.7,
      "at": 34.80321796994727,
      "lat": 23.368094,
      "lon": 120.354211
    },
    {
      "city": "嘉義市",
      "town": "東區",
      "name": "嘉義市東區",
      "temp": 30.5,
      "at": 36.695216443903774,
      "lat": 23.459414,
      "lon": 120.452408
    },
    {
      "city": "屏東縣",
      "town": "潮州鎮",
      "name": "潮州",
      "temp": 30.7,
      "at": 37.37788770508396,
      "lat": 22.536139,
      "lon": 120.531972
    },
    {
      "city": "臺東縣",
      "town": "成功鎮",
      "name": "小港漁港",
      "temp": 31.5,
      "at": 36.563704730959486,
      "lat": 23.160368,
      "lon": 121.392338
    },
    {
      "city": "臺東縣",
      "town": "鹿野鄉",
      "name": "鹿野",
      "temp": 29.2,
      "at": 34.57934428537737,
      "lat": 22.919517,
      "lon": 121.114908
    },
    {
      "city": "彰化縣",
      "town": "田尾鄉",
      "name": "田尾",
      "temp": 30.2,
      "at": 36.86465722218753,
      "lat": 23.903417,
      "lon": 120.501389
    },
    {
      "city": "屏東縣",
      "town": "內埔鄉",
      "name": "內埔",
      "temp": 31.4,
      "at": 37.419569724752805,
      "lat": 22.610267,
      "lon": 120.562662
    },
    {
      "city": "苗栗縣",
      "town": "頭屋鄉",
      "name": "明德",
      "temp": 29.8,
      "at": 35.17493538329954,
      "lat": 24.58525,
      "lon": 120.877222
    },
    {
      "city": "桃園市",
      "town": "大溪區",
      "name": "大溪",
      "temp": 27.9,
      "at": 31.444886215912895,
      "lat": 24.884722,
      "lon": 121.256944
    },
    {
      "city": "新北市",
      "town": "林口區",
      "name": "太平里",
      "temp": 30.1,
      "at": 34.31442967217552,
      "lat": 25.136709,
      "lon": 121.356668
    },
    {
      "city": "宜蘭縣",
      "town": "大同鄉",
      "name": "太平山莊",
      "temp": 20.2,
      "at": 22.037486081324882,
      "lat": 24.4959,
      "lon": 121.5281
    },
    {
      "city": "花蓮縣",
      "town": "秀林鄉",
      "name": "和中",
      "temp": 32.2,
      "at": 37.65389925488419,
      "lat": 24.268567,
      "lon": 121.732861
    },
    {
      "city": "臺中市",
      "town": "大甲區",
      "name": "松柏",
      "temp": 29.7,
      "at": 33.963217969947266,
      "lat": 24.430864,
      "lon": 120.609306
    },
    {
      "city": "苗栗縣",
      "town": "卓蘭鎮",
      "name": "卓蘭",
      "temp": 28.3,
      "at": 32.10642088384786,
      "lat": 24.314319,
      "lon": 120.816192
    },
    {
      "city": "嘉義縣",
      "town": "太保市",
      "name": "太保",
      "temp": 29.6,
      "at": 34.6422557649727,
      "lat": 23.456792,
      "lon": 120.323303
    },
    {
      "city": "彰化縣",
      "town": "溪湖鎮",
      "name": "溪湖",
      "temp": 31.8,
      "at": 38.56643928453396,
      "lat": 23.95175,
      "lon": 120.471056
    },
    {
      "city": "桃園市",
      "town": "大溪區",
      "name": "大溪永福",
      "temp": 30.4,
      "at": 36.822731279108076,
      "lat": 24.894711,
      "lon": 121.316761
    },
    {
      "city": "宜蘭縣",
      "town": "大同鄉",
      "name": "鴛鴦湖",
      "temp": 21.0,
      "at": 24.039355932473107,
      "lat": 24.592053,
      "lon": 121.404039
    },
    {
      "city": "宜蘭縣",
      "town": "大同鄉",
      "name": "玉蘭",
      "temp": 30.3,
      "at": 35.03567888691359,
      "lat": 24.677222,
      "lon": 121.578889
    },
    {
      "city": "臺東縣",
      "town": "東河鄉",
      "name": "東河",
      "temp": 32.5,
      "at": 38.85496624657592,
      "lat": 22.973611,
      "lon": 121.298333
    },
    {
      "city": "屏東縣",
      "town": "獅子鄉",
      "name": "獅子",
      "temp": 31.0,
      "at": 37.71525414533399,
      "lat": 22.204106,
      "lon": 120.69721
    },
    {
      "city": "高雄市",
      "town": "旗山區",
      "name": "旗山",
      "temp": 28.2,
      "at": 32.94726079019565,
      "lat": 22.890389,
      "lon": 120.475528
    },
    {
      "city": "高雄市",
      "town": "彌陀區",
      "name": "彌陀",
      "temp": 29.5,
      "at": 35.53001616777406,
      "lat": 22.785583,
      "lon": 120.238278
    },
    {
      "city": "彰化縣",
      "town": "埔鹽鄉",
      "name": "埔鹽",
      "temp": 30.0,
      "at": 35.90381061885188,
      "lat": 24.002167,
      "lon": 120.423583
    },
    {
      "city": "臺東縣",
      "town": "太麻里鄉",
      "name": "金崙山",
      "temp": 27.2,
      "at": 31.89000148693438,
      "lat": 22.569219,
      "lon": 120.951617
    },
    {
      "city": "高雄市",
      "town": "六龜區",
      "name": "花菓",
      "temp": 23.9,
      "at": 27.482840427372135,
      "lat": 23.03655,
      "lon": 120.67607
    },
    {
      "city": "宜蘭縣",
      "town": "壯圍鄉",
      "name": "大福",
      "temp": 31.5,
      "at": 38.139691509957665,
      "lat": 24.802436,
      "lon": 121.805683
    },
    {
      "city": "新北市",
      "town": "新莊區",
      "name": "新莊",
      "temp": 30.1,
      "at": 35.64442967217552,
      "lat": 25.05325,
      "lon": 121.438528
    },
    {
      "city": "新北市",
      "town": "土城區",
      "name": "土城",
      "temp": 27.8,
      "at": 32.79010494784317,
      "lat": 24.974944,
      "lon": 121.436917
    },
    {
      "city": "臺南市",
      "town": "新化區",
      "name": "虎頭埤",
      "temp": 28.1,
      "at": 33.37488845384447,
      "lat": 23.023139,
      "lon": 120.339806
    },
    {
      "city": "新竹縣",
      "town": "竹東鎮",
      "name": "竹東",
      "temp": 29.8,
      "at": 34.62310803776154,
      "lat": 24.76925,
      "lon": 121.049861
    },
    {
      "city": "嘉義縣",
      "town": "竹崎鄉",
      "name": "水社寮",
      "temp": 19.7,
      "at": 22.23606585581268,
      "lat": 23.50594,
      "lon": 120.65223
    },
    {
      "city": "屏東縣",
      "town": "林邊鄉",
      "name": "林邊",
      "temp": 31.6,
      "at": 38.79726220429073,
      "lat": 22.465232,
      "lon": 120.52585
    },
    {
      "city": "屏東縣",
      "town": "車城鄉",
      "name": "保力",
      "temp": 29.4,
      "at": 35.535089645985494,
      "lat": 22.072925,
      "lon": 120.756094
    },
    {
      "city": "桃園市",
      "town": "平鎮區",
      "name": "平鎮",
      "temp": 28.3,
      "at": 32.72294118218854,
      "lat": 24.899444,
      "lon": 121.206389
    },
    {
      "city": "臺南市",
      "town": "安南區",
      "name": "城西",
      "temp": 29.5,
      "at": 35.35041810790695,
      "lat": 23.058558,
      "lon": 120.087492
    },
    {
      "city": "花蓮縣",
      "town": "秀林鄉",
      "name": "新白楊",
      "temp": 18.1,
      "at": 19.430114705518946,
      "lat": 24.19999,
      "lon": 121.424797
    },
    {
      "city": "臺南市",
      "town": "北門區",
      "name": "蘆竹溝",
      "temp": 29.6,
      "at": 34.68692860760526,
      "lat": 23.236154,
      "lon": 120.088035
    },
    {
      "city": "新北市",
      "town": "瑞芳區",
      "name": "水湳洞",
      "temp": 30.3,
      "at": 33.29353381734569,
      "lat": 25.125492,
      "lon": 121.854006
    },
    {
      "city": "宜蘭縣",
      "town": "大同鄉",
      "name": "太平山",
      "temp": 18.3,
      "at": 20.462279902024125,
      "lat": 24.507222,
      "lon": 121.5175
    },
    {
      "city": "花蓮縣",
      "town": "新城鄉",
      "name": "新城",
      "temp": 32.4,
      "at": 38.1749370275099,
      "lat": 24.042289,
      "lon": 121.596724
    },
    {
      "city": "屏東縣",
      "town": "滿州鄉",
      "name": "佳樂水",
      "temp": 31.1,
      "at": 37.2982397818754,
      "lat": 21.995386,
      "lon": 120.853619
    },
    {
      "city": "宜蘭縣",
      "town": "員山鄉",
      "name": "員山",
      "temp": 32.0,
      "at": 38.40571267909784,
      "lat": 24.746147,
      "lon": 121.714269
    },
    {
      "city": "新竹縣",
      "town": "五峰鄉",
      "name": "雪霸",
      "temp": 21.0,
      "at": 21.993031533498367,
      "lat": 24.528722,
      "lon": 121.107917
    },
    {
      "city": "新北市",
      "town": "深坑區",
      "name": "深坑",
      "temp": 30.2,
      "at": 37.91581157855567,
      "lat": 25.004489,
      "lon": 121.620106
    },
    {
      "city": "嘉義縣",
      "town": "梅山鄉",
      "name": "梅山",
      "temp": 29.1,
      "at": 33.940904980089854,
      "lat": 23.587147,
      "lon": 120.547464
    },
    {
      "city": "花蓮縣",
      "town": "鳳林鎮",
      "name": "萬榮",
      "temp": 29.1,
      "at": 34.37587984175403,
      "lat": 23.711022,
      "lon": 121.411969
    },
    {
      "city": "嘉義縣",
      "town": "六腳鄉",
      "name": "六腳",
      "temp": 29.7,
      "at": 35.62905481720393,
      "lat": 23.494611,
      "lon": 120.2825
    },
    {
      "city": "花蓮縣",
      "town": "玉里鎮",
      "name": "赤柯山",
      "temp": 26.6,
      "at": 30.97603817773561,
      "lat": 23.370733,
      "lon": 121.374825
    },
    {
      "city": "高雄市",
      "town": "鼓山區",
      "name": "鼓山",
      "temp": 30.4,
      "at": 36.05828556072748,
      "lat": 22.625139,
      "lon": 120.2675
    },
    {
      "city": "屏東縣",
      "town": "里港鄉",
      "name": "里港",
      "temp": 28.4,
      "at": 32.50598299205871,
      "lat": 22.780972,
      "lon": 120.486528
    },
    {
      "city": "花蓮縣",
      "town": "秀林鄉",
      "name": "水源",
      "temp": 26.7,
      "at": 31.77060301293396,
      "lat": 23.993718,
      "lon": 121.529043
    },
    {
      "city": "新竹縣",
      "town": "橫山鄉",
      "name": "橫山",
      "temp": 28.8,
      "at": 35.739920717409476,
      "lat": 24.712925,
      "lon": 121.108733
    },
    {
      "city": "雲林縣",
      "town": "虎尾鎮",
      "name": "高鐵雲林",
      "temp": 31.1,
      "at": 37.38672789970765,
      "lat": 23.739206,
      "lon": 120.409817
    },
    {
      "city": "高雄市",
      "town": "甲仙區",
      "name": "五指寮林道3.5K",
      "temp": 24.9,
      "at": 29.359249482571634,
      "lat": 23.13855,
      "lon": 120.63219
    },
    {
      "city": "新北市",
      "town": "石門區",
      "name": "白沙灣",
      "temp": 30.0,
      "at": 35.064262986116226,
      "lat": 25.284903,
      "lon": 121.510814
    },
    {
      "city": "臺東縣",
      "town": "東河鄉",
      "name": "七塊厝",
      "temp": 30.2,
      "at": 34.883878807561,
      "lat": 22.957525,
      "lon": 121.221089
    },
    {
      "city": "臺東縣",
      "town": "蘭嶼鄉",
      "name": "蘭嶼高中",
      "temp": 29.2,
      "at": 35.60524592914837,
      "lat": 22.050931,
      "lon": 121.504119
    },
    {
      "city": "臺東縣",
      "town": "海端鄉",
      "name": "下馬",
      "temp": 26.6,
      "at": 29.512133889424092,
      "lat": 23.152222,
      "lon": 121.062222
    },
    {
      "city": "臺東縣",
      "town": "成功鎮",
      "name": "白守蓮",
      "temp": 32.7,
      "at": 37.502990099287594,
      "lat": 23.12858,
      "lon": 121.393824
    },
    {
      "city": "宜蘭縣",
      "town": "大同鄉",
      "name": "翠峰湖",
      "temp": 20.1,
      "at": 22.012328293326195,
      "lat": 24.51265,
      "lon": 121.599858
    },
    {
      "city": "臺東縣",
      "town": "達仁鄉",
      "name": "勝林山",
      "temp": 29.1,
      "at": 31.788141027563647,
      "lat": 22.432239,
      "lon": 120.885742
    },
    {
      "city": "臺中市",
      "town": "豐原區",
      "name": "豐原",
      "temp": 29.1,
      "at": 34.058442687593605,
      "lat": 24.256306,
      "lon": 120.712333
    },
    {
      "city": "臺中市",
      "town": "龍井區",
      "name": "臺中電廠",
      "temp": 30.1,
      "at": 35.15582565344269,
      "lat": 24.216388,
      "lon": 120.482584
    },
    {
      "city": "雲林縣",
      "town": "西螺鎮",
      "name": "西螺",
      "temp": 30.1,
      "at": 35.57442967217552,
      "lat": 23.80215,
      "lon": 120.459253
    },
    {
      "city": "臺東縣",
      "town": "大武鄉",
      "name": "山豬窟",
      "temp": 29.3,
      "at": 34.38555210482093,
      "lat": 22.320422,
      "lon": 120.849339
    },
    {
      "city": "宜蘭縣",
      "town": "大同鄉",
      "name": "明池",
      "temp": 22.3,
      "at": 26.03228690300018,
      "lat": 24.6506,
      "lon": 121.4673
    },
    {
      "city": "臺北市",
      "town": "士林區",
      "name": "社子",
      "temp": 31.3,
      "at": 37.81974334846049,
      "lat": 25.111389,
      "lon": 121.461389
    },
    {
      "city": "新北市",
      "town": "淡水區",
      "name": "淡水觀海",
      "temp": 30.0,
      "at": 34.85652482243798,
      "lat": 25.186364,
      "lon": 121.400381
    },
    {
      "city": "臺東縣",
      "town": "大武鄉",
      "name": "加津林",
      "temp": 30.2,
      "at": 35.80195930213798,
      "lat": 22.418014,
      "lon": 120.9189
    },
    {
      "city": "臺南市",
      "town": "東山區",
      "name": "東河",
      "temp": 30.3,
      "at": 35.46157008473766,
      "lat": 23.298339,
      "lon": 120.377492
    },
    {
      "city": "屏東縣",
      "town": "車城鄉",
      "name": "竹坑",
      "temp": 30.4,
      "at": 36.262731279108074,
      "lat": 22.140248,
      "lon": 120.694128
    },
    {
      "city": "高雄市",
      "town": "林園區",
      "name": "汕尾",
      "temp": 29.5,
      "at": 35.363617461195986,
      "lat": 22.479984,
      "lon": 120.407094
    },
    {
      "city": "桃園市",
      "town": "新屋區",
      "name": "中大臨海站",
      "temp": 31.1,
      "at": 36.16238664492915,
      "lat": 24.967883,
      "lon": 121.000364
    },
    {
      "city": "臺東縣",
      "town": "達仁鄉",
      "name": "南田",
      "temp": 31.2,
      "at": 36.80134798798147,
      "lat": 22.291944,
      "lon": 120.881944
    },
    {
      "city": "高雄市",
      "town": "岡山區",
      "name": "岡山",
      "temp": 30.4,
      "at": 37.68494840558567,
      "lat": 22.798844,
      "lon": 120.286889
    },
    {
      "city": "新北市",
      "town": "新店區",
      "name": "屈尺",
      "temp": 29.1,
      "at": 35.641106086776496,
      "lat": 24.923619,
      "lon": 121.536533
    },
    {
      "city": "桃園市",
      "town": "觀音區",
      "name": "觀音工業區",
      "temp": 30.2,
      "at": 34.5454223712424,
      "lat": 25.066525,
      "lon": 121.106631
    },
    {
      "city": "屏東縣",
      "town": "獅子鄉",
      "name": "內獅",
      "temp": 30.5,
      "at": 38.70554081312424,
      "lat": 22.306856,
      "lon": 120.634956
    },
    {
      "city": "花蓮縣",
      "town": "卓溪鄉",
      "name": "瑞穗林道",
      "temp": 25.9,
      "at": 29.975093125391943,
      "lat": 23.494642,
      "lon": 121.298764
    },
    {
      "city": "臺東縣",
      "town": "海端鄉",
      "name": "向陽",
      "temp": 17.3,
      "at": 18.281568778037347,
      "lat": 23.25,
      "lon": 120.978056
    },
    {
      "city": "臺東縣",
      "town": "長濱鄉",
      "name": "石寧山",
      "temp": 31.8,
      "at": 38.441037020935845,
      "lat": 23.225581,
      "lon": 121.398542
    },
    {
      "city": "高雄市",
      "town": "橋頭區",
      "name": "橋頭",
      "temp": 30.4,
      "at": 36.54550841991777,
      "lat": 22.759583,
      "lon": 120.297694
    },
    {
      "city": "花蓮縣",
      "town": "壽豐鄉",
      "name": "蕃薯寮",
      "temp": 29.1,
      "at": 33.94839241092194,
      "lat": 23.740156,
      "lon": 121.531975
    },
    {
      "city": "屏東縣",
      "town": "枋寮鄉",
      "name": "枋寮",
      "temp": 32.0,
      "at": 38.73477444084849,
      "lat": 22.369511,
      "lon": 120.582611
    },
    {
      "city": "花蓮縣",
      "town": "壽豐鄉",
      "name": "月眉山",
      "temp": 27.1,
      "at": 32.77388846445981,
      "lat": 23.811736,
      "lon": 121.531686
    },
    {
      "city": "屏東縣",
      "town": "枋山鄉",
      "name": "枋山",
      "temp": 29.2,
      "at": 34.08262297421816,
      "lat": 22.249572,
      "lon": 120.652748
    },
    {
      "city": "屏東縣",
      "town": "崁頂鄉",
      "name": "崁頂",
      "temp": 31.1,
      "at": 37.87672789970765,
      "lat": 22.516639,
      "lon": 120.498972
    },
    {
      "city": "臺東縣",
      "town": "蘭嶼鄉",
      "name": "蘭嶼燈塔",
      "temp": 28.0,
      "at": 33.214466323405595,
      "lat": 22.083031,
      "lon": 121.495094
    },
    {
      "city": "花蓮縣",
      "town": "壽豐鄉",
      "name": "水璉",
      "temp": 29.7,
      "at": 36.6733895561066,
      "lat": 23.798889,
      "lon": 121.534167
    },
    {
      "city": "南投縣",
      "town": "仁愛鄉",
      "name": "奧萬大",
      "temp": 22.7,
      "at": 25.96297586012565,
      "lat": 23.95473,
      "lon": 121.170332
    },
    {
      "city": "新北市",
      "town": "八里區",
      "name": "八里",
      "temp": 29.7,
      "at": 35.1333895561066,
      "lat": 25.15225,
      "lon": 121.395306
    },
    {
      "city": "臺南市",
      "town": "學甲區",
      "name": "學甲",
      "temp": 29.8,
      "at": 35.09267640160655,
      "lat": 23.2321,
      "lon": 120.174072
    },
    {
      "city": "嘉義縣",
      "town": "阿里山鄉",
      "name": "新美",
      "temp": 25.3,
      "at": 30.106151449324813,
      "lat": 23.339792,
      "lon": 120.675231
    },
    {
      "city": "臺東縣",
      "town": "海端鄉",
      "name": "紅石",
      "temp": 19.3,
      "at": 22.09490099371578,
      "lat": 23.070902,
      "lon": 121.11777
    },
    {
      "city": "苗栗縣",
      "town": "泰安鄉",
      "name": "馬都安",
      "temp": 22.9,
      "at": 26.986519780983294,
      "lat": 24.453056,
      "lon": 120.921944
    },
    {
      "city": "臺東縣",
      "town": "長濱鄉",
      "name": "樟原南溪",
      "temp": 28.9,
      "at": 35.44033713989441,
      "lat": 23.40411,
      "lon": 121.41507
    },
    {
      "city": "臺東縣",
      "town": "東河鄉",
      "name": "新蘭",
      "temp": 29.9,
      "at": 32.88126788924313,
      "lat": 22.871021,
      "lon": 121.215155
    },
    {
      "city": "臺東縣",
      "town": "成功鎮",
      "name": "叭嗡嗡",
      "temp": 30.1,
      "at": 33.61477866749231,
      "lat": 23.048871,
      "lon": 121.335138
    },
    {
      "city": "新北市",
      "town": "金山區",
      "name": "三和",
      "temp": 29.4,
      "at": 35.48062215862886,
      "lat": 25.234933,
      "lon": 121.586997
    },
    {
      "city": "臺南市",
      "town": "六甲區",
      "name": "王爺宮",
      "temp": 29.8,
      "at": 36.20859007437554,
      "lat": 23.223828,
      "lon": 120.392758
    },
    {
      "city": "臺南市",
      "town": "龍崎區",
      "name": "崎頂",
      "temp": 30.2,
      "at": 36.22195930213798,
      "lat": 22.961306,
      "lon": 120.361194
    },
    {
      "city": "臺東縣",
      "town": "成功鎮",
      "name": "都歷",
      "temp": 32.0,
      "at": 35.771235235012995,
      "lat": 23.022142,
      "lon": 121.315558
    },
    {
      "city": "苗栗縣",
      "town": "獅潭鄉",
      "name": "獅潭",
      "temp": 27.6,
      "at": 31.20745279284214,
      "lat": 24.541028,
      "lon": 120.911972
    },
    {
      "city": "基隆市",
      "town": "中正區",
      "name": "八斗子",
      "temp": 30.8,
      "at": 34.67857156021999,
      "lat": 25.146547,
      "lon": 121.783436
    },
    {
      "city": "桃園市",
      "town": "龜山區",
      "name": "龜山",
      "temp": 28.2,
      "at": 32.94832023385415,
      "lat": 25.030231,
      "lon": 121.378336
    },
    {
      "city": "臺中市",
      "town": "和平區",
      "name": "南湖圈谷",
      "temp": 13.0,
      "at": 10.679222290723187,
      "lat": 24.365503,
      "lon": 121.436489
    },
    {
      "city": "高雄市",
      "town": "梓官區",
      "name": "蚵仔寮",
      "temp": 29.6,
      "at": 34.6422557649727,
      "lat": 22.727414,
      "lon": 120.244618
    },
    {
      "city": "高雄市",
      "town": "永安區",
      "name": "永安",
      "temp": 29.8,
      "at": 35.64859007437555,
      "lat": 22.824944,
      "lon": 120.228806
    },
    {
      "city": "高雄市",
      "town": "路竹區",
      "name": "路竹",
      "temp": 29.6,
      "at": 34.5686375996345,
      "lat": 22.856639,
      "lon": 120.251361
    },
    {
      "city": "新北市",
      "town": "烏來區",
      "name": "福山植物園",
      "temp": 29.0,
      "at": 34.617770715626435,
      "lat": 24.762506,
      "lon": 121.573147
    },
    {
      "city": "臺南市",
      "town": "南化區",
      "name": "北寮",
      "temp": 28.4,
      "at": 34.32598299205871,
      "lat": 23.081611,
      "lon": 120.486944
    },
    {
      "city": "雲林縣",
      "town": "元長鄉",
      "name": "元長",
      "temp": 29.7,
      "at": 35.76905481720393,
      "lat": 23.644608,
      "lon": 120.311544
    },
    {
      "city": "苗栗縣",
      "town": "頭份市",
      "name": "頭份",
      "temp": 30.4,
      "at": 36.18439985667897,
      "lat": 24.69,
      "lon": 120.904167
    },
    {
      "city": "臺南市",
      "town": "白河區",
      "name": "鹿寮",
      "temp": 29.5,
      "at": 36.94721875461791,
      "lat": 23.387811,
      "lon": 120.469225
    },
    {
      "city": "臺南市",
      "town": "北門區",
      "name": "北門",
      "temp": 29.7,
      "at": 35.824891664460594,
      "lat": 23.269517,
      "lon": 120.117367
    },
    {
      "city": "嘉義縣",
      "town": "溪口鄉",
      "name": "溪口",
      "temp": 29.7,
      "at": 35.2203853393986,
      "lat": 23.605872,
      "lon": 120.395439
    },
    {
      "city": "花蓮縣",
      "town": "玉里鎮",
      "name": "德武",
      "temp": 29.9,
      "at": 35.47251763728195,
      "lat": 23.476069,
      "lon": 121.402597
    },
    {
      "city": "花蓮縣",
      "town": "玉里鎮",
      "name": "安通山",
      "temp": 25.9,
      "at": 30.255093125391944,
      "lat": 23.292536,
      "lon": 121.340419
    },
    {
      "city": "高雄市",
      "town": "湖內區",
      "name": "湖內",
      "temp": 30.4,
      "at": 36.47828556072747,
      "lat": 22.888889,
      "lon": 120.236444
    },
    {
      "city": "臺南市",
      "town": "將軍區",
      "name": "將軍",
      "temp": 30.1,
      "at": 36.418617615977034,
      "lat": 23.216733,
      "lon": 120.127656
    },
    {
      "city": "臺中市",
      "town": "和平區",
      "name": "大雪山埡口",
      "temp": 17.8,
      "at": 18.193805918820356,
      "lat": 24.2744,
      "lon": 121.0224
    },
    {
      "city": "臺南市",
      "town": "官田區",
      "name": "官田",
      "temp": 29.9,
      "at": 37.34252166866069,
      "lat": 23.195028,
      "lon": 120.307528
    },
    {
      "city": "雲林縣",
      "town": "斗南鎮",
      "name": "斗南",
      "temp": 29.0,
      "at": 34.83177298583207,
      "lat": 23.680478,
      "lon": 120.470231
    },
    {
      "city": "苗栗縣",
      "town": "通霄鎮",
      "name": "通霄",
      "temp": 30.2,
      "at": 34.96657672761055,
      "lat": 24.473639,
      "lon": 120.696444
    },
    {
      "city": "臺北市",
      "town": "士林區",
      "name": "科教館",
      "temp": 30.5,
      "at": 38.1311624219184,
      "lat": 25.098133,
      "lon": 121.508275
    },
    {
      "city": "雲林縣",
      "town": "水林鄉",
      "name": "蔦松",
      "temp": 31.0,
      "at": 37.80074056027465,
      "lat": 23.516064,
      "lon": 120.221625
    },
    {
      "city": "花蓮縣",
      "town": "卓溪鄉",
      "name": "清水林道",
      "temp": 27.1,
      "at": 31.03414596879398,
      "lat": 23.273047,
      "lon": 121.180172
    },
    {
      "city": "新竹縣",
      "town": "新豐鄉",
      "name": "新豐",
      "temp": 28.3,
      "at": 33.21554267389196,
      "lat": 24.872436,
      "lon": 120.969
    },
    {
      "city": "嘉義縣",
      "town": "阿里山鄉",
      "name": "二萬平",
      "temp": 18.9,
      "at": 21.449029611840153,
      "lat": 23.51016,
      "lon": 120.78199
    },
    {
      "city": "新北市",
      "town": "雙溪區",
      "name": "雙溪",
      "temp": 29.7,
      "at": 36.046222186655264,
      "lat": 25.037861,
      "lon": 121.856056
    },
    {
      "city": "雲林縣",
      "town": "林內鄉",
      "name": "林內",
      "temp": 28.8,
      "at": 33.747312052034424,
      "lat": 23.750436,
      "lon": 120.601508
    },
    {
      "city": "臺南市",
      "town": "關廟區",
      "name": "關廟",
      "temp": 30.7,
      "at": 37.24837115657271,
      "lat": 22.964861,
      "lon": 120.319722
    },
    {
      "city": "臺北市",
      "town": "士林區",
      "name": "平等",
      "temp": 26.7,
      "at": 32.8077591421945,
      "lat": 25.130925,
      "lon": 121.568856
    },
    {
      "city": "桃園市",
      "town": "中壢區",
      "name": "中壢",
      "temp": 30.0,
      "at": 35.13923902602409,
      "lat": 24.979428,
      "lon": 121.248156
    },
    {
      "city": "高雄市",
      "town": "茂林區",
      "name": "萬山",
      "temp": 29.1,
      "at": 34.393467825929434,
      "lat": 22.907694,
      "lon": 120.68
    },
    {
      "city": "臺南市",
      "town": "新營區",
      "name": "新營",
      "temp": 30.2,
      "at": 36.50426801487426,
      "lat": 23.312447,
      "lon": 120.308586
    },
    {
      "city": "新北市",
      "town": "貢寮區",
      "name": "澳底",
      "temp": 30.8,
      "at": 35.89892871336218,
      "lat": 25.056993,
      "lon": 121.917036
    },
    {
      "city": "臺東縣",
      "town": "金峰鄉",
      "name": "金峰嘉蘭",
      "temp": 29.3,
      "at": 32.96316283305974,
      "lat": 22.596589,
      "lon": 120.952772
    },
    {
      "city": "臺南市",
      "town": "安平區",
      "name": "安平",
      "temp": 30.9,
      "at": 35.75574664313021,
      "lat": 22.994972,
      "lon": 120.144111
    },
    {
      "city": "臺東縣",
      "town": "太麻里鄉",
      "name": "美和",
      "temp": 29.7,
      "at": 35.077552708849936,
      "lat": 22.683881,
      "lon": 121.052177
    },
    {
      "city": "彰化縣",
      "town": "線西鄉",
      "name": "線西",
      "temp": 29.9,
      "at": 35.39251965297132,
      "lat": 24.141081,
      "lon": 120.435381
    },
    {
      "city": "新竹縣",
      "town": "五峰鄉",
      "name": "大坪苗圃",
      "temp": 23.1,
      "at": 25.5396619185214,
      "lat": 24.5379,
      "lon": 121.1026
    },
    {
      "city": "臺中市",
      "town": "神岡區",
      "name": "神岡",
      "temp": 28.3,
      "at": 32.50206297223264,
      "lat": 24.274222,
      "lon": 120.650306
    },
    {
      "city": "高雄市",
      "town": "桃源區",
      "name": "美瓏山",
      "temp": 22.3,
      "at": 25.496168761369727,
      "lat": 23.12148,
      "lon": 120.73922
    },
    {
      "city": "雲林縣",
      "town": "口湖鄉",
      "name": "箔子寮",
      "temp": 30.0,
      "at": 35.76381061885188,
      "lat": 23.621487,
      "lon": 120.13192
    },
    {
      "city": "新北市",
      "town": "汐止區",
      "name": "五指山",
      "temp": 24.6,
      "at": 25.69279287540785,
      "lat": 25.133889,
      "lon": 121.600278
    },
    {
      "city": "屏東縣",
      "town": "三地門鄉",
      "name": "上德文",
      "temp": 23.7,
      "at": 26.994468927635218,
      "lat": 22.76515,
      "lon": 120.696523
    },
    {
      "city": "新竹市",
      "town": "北區",
      "name": "海天一線",
      "temp": 29.3,
      "at": 33.50984405864183,
      "lat": 24.833742,
      "lon": 120.906231
    },
    {
      "city": "花蓮縣",
      "town": "秀林鄉",
      "name": "立霧山",
      "temp": 22.9,
      "at": 24.912458916691254,
      "lat": 24.185061,
      "lon": 121.633735
    },
    {
      "city": "臺東縣",
      "town": "臺東市",
      "name": "知本(水試所)",
      "temp": 33.2,
      "at": 39.51186094154893,
      "lat": 22.704053,
      "lon": 121.074603
    },
    {
      "city": "屏東縣",
      "town": "佳冬鄉",
      "name": "塭仔",
      "temp": 30.7,
      "at": 34.709261818918286,
      "lat": 22.418718,
      "lon": 120.511622
    },
    {
      "city": "彰化縣",
      "town": "秀水鄉",
      "name": "秀水",
      "temp": 30.7,
      "at": 36.413612882317096,
      "lat": 24.035917,
      "lon": 120.495722
    },
    {
      "city": "花蓮縣",
      "town": "壽豐鄉",
      "name": "鯉魚潭",
      "temp": 27.3,
      "at": 32.85710081330555,
      "lat": 23.937444,
      "lon": 121.500806
    },
    {
      "city": "花蓮縣",
      "town": "瑞穗鄉",
      "name": "瑞穗",
      "temp": 27.6,
      "at": 33.26217235350544,
      "lat": 23.525708,
      "lon": 121.382086
    },
    {
      "city": "南投縣",
      "town": "仁愛鄉",
      "name": "廬山",
      "temp": 22.8,
      "at": 25.193679258620108,
      "lat": 24.035,
      "lon": 121.173333
    },
    {
      "city": "臺南市",
      "town": "左鎮區",
      "name": "左鎮",
      "temp": 29.5,
      "at": 35.180016167774056,
      "lat": 23.058528,
      "lon": 120.400444
    },
    {
      "city": "嘉義縣",
      "town": "竹崎鄉",
      "name": "交力坪",
      "temp": 23.4,
      "at": 26.32593113323531,
      "lat": 23.53344,
      "lon": 120.63544
    },
    {
      "city": "雲林縣",
      "town": "土庫鎮",
      "name": "土庫",
      "temp": 29.4,
      "at": 34.73650967970116,
      "lat": 23.680772,
      "lon": 120.387436
    },
    {
      "city": "高雄市",
      "town": "茄萣區",
      "name": "茄萣",
      "temp": 30.7,
      "at": 37.04361288231709,
      "lat": 22.908444,
      "lon": 120.174583
    },
    {
      "city": "屏東縣",
      "town": "霧臺鄉",
      "name": "阿禮",
      "temp": 24.5,
      "at": 28.390780332671255,
      "lat": 22.744444,
      "lon": 120.735556
    },
    {
      "city": "宜蘭縣",
      "town": "員山鄉",
      "name": "雙連埤",
      "temp": 26.8,
      "at": 31.957522764053444,
      "lat": 24.754722,
      "lon": 121.633056
    },
    {
      "city": "屏東縣",
      "town": "車城鄉",
      "name": "車城",
      "temp": 29.4,
      "at": 35.83062215862886,
      "lat": 22.075833,
      "lon": 120.708056
    },
    {
      "city": "新北市",
      "town": "五股區",
      "name": "五股",
      "temp": 29.4,
      "at": 35.890267150199946,
      "lat": 25.076228,
      "lon": 121.419053
    },
    {
      "city": "澎湖縣",
      "town": "七美鄉",
      "name": "七美",
      "temp": 29.6,
      "at": 35.78883778091422,
      "lat": 23.221053,
      "lon": 119.436809
    },
    {
      "city": "臺中市",
      "town": "南屯區",
      "name": "南屯",
      "temp": 29.8,
      "at": 34.75902171053054,
      "lat": 24.138861,
      "lon": 120.630111
    },
    {
      "city": "臺北市",
      "town": "北投區",
      "name": "石牌",
      "temp": 30.0,
      "at": 34.926977189702335,
      "lat": 25.117336,
      "lon": 121.504825
    },
    {
      "city": "屏東縣",
      "town": "琉球鄉",
      "name": "琉球嶼",
      "temp": 30.0,
      "at": 37.72109641526576,
      "lat": 22.334025,
      "lon": 120.354194
    },
    {
      "city": "臺中市",
      "town": "和平區",
      "name": "雪山橋",
      "temp": 19.7,
      "at": 21.48612399879855,
      "lat": 24.2336,
      "lon": 120.9704
    },
    {
      "city": "高雄市",
      "town": "前鎮區",
      "name": "前鎮",
      "temp": 30.4,
      "at": 36.40828556072747,
      "lat": 22.573925,
      "lon": 120.303144
    },
    {
      "city": "花蓮縣",
      "town": "壽豐鄉",
      "name": "鹽寮",
      "temp": 31.5,
      "at": 38.18767388195525,
      "lat": 23.847418,
      "lon": 121.584524
    },
    {
      "city": "臺南市",
      "town": "麻豆區",
      "name": "麻豆",
      "temp": 30.1,
      "at": 35.99791962534345,
      "lat": 23.185056,
      "lon": 120.2405
    },
    {
      "city": "南投縣",
      "town": "信義鄉",
      "name": "信義",
      "temp": 24.5,
      "at": 29.200091136022152,
      "lat": 23.691389,
      "lon": 120.842778
    },
    {
      "city": "臺東縣",
      "town": "卑南鄉",
      "name": "檳榔四格山",
      "temp": 28.8,
      "at": 34.41802350622762,
      "lat": 22.811789,
      "lon": 121.101247
    },
    {
      "city": "金門縣",
      "town": "烈嶼鄉",
      "name": "九宮",
      "temp": 28.2,
      "at": 34.62408245922014,
      "lat": 24.425386,
      "lon": 118.232031
    },
    {
      "city": "宜蘭縣",
      "town": "頭城鎮",
      "name": "石城",
      "temp": 30.9,
      "at": 36.41336765180477,
      "lat": 24.982247,
      "lon": 121.942992
    },
    {
      "city": "苗栗縣",
      "town": "通霄鎮",
      "name": "白沙屯",
      "temp": 29.6,
      "at": 32.807783103619876,
      "lat": 24.551198,
      "lon": 120.688617
    },
    {
      "city": "桃園市",
      "town": "觀音區",
      "name": "新興坑尾",
      "temp": 29.0,
      "at": 31.537770715626436,
      "lat": 25.007827,
      "lon": 121.088851
    },
    {
      "city": "花蓮縣",
      "town": "卓溪鄉",
      "name": "卓溪",
      "temp": 29.8,
      "at": 34.629237528608044,
      "lat": 23.346133,
      "lon": 121.294748
    },
    {
      "city": "彰化縣",
      "town": "二水鄉",
      "name": "二水",
      "temp": 29.3,
      "at": 34.83984405864184,
      "lat": 23.812778,
      "lon": 120.609028
    },
    {
      "city": "新北市",
      "town": "樹林區",
      "name": "山佳",
      "temp": 30.1,
      "at": 36.55722163470986,
      "lat": 24.976719,
      "lon": 121.393789
    },
    {
      "city": "臺東縣",
      "town": "達仁鄉",
      "name": "達仁林場",
      "temp": 28.5,
      "at": 32.689706603011416,
      "lat": 22.266147,
      "lon": 120.815942
    },
    {
      "city": "新北市",
      "town": "貢寮區",
      "name": "三貂角",
      "temp": 33.3,
      "at": 39.53282331940669,
      "lat": 25.009444,
      "lon": 121.993889
    },
    {
      "city": "高雄市",
      "town": "桃源區",
      "name": "天池",
      "temp": 19.1,
      "at": 20.141718422426063,
      "lat": 23.27956,
      "lon": 120.90759
    },
    {
      "city": "嘉義縣",
      "town": "鹿草鄉",
      "name": "鹿草",
      "temp": 30.1,
      "at": 35.084778667492316,
      "lat": 23.413075,
      "lon": 120.300231
    },
    {
      "city": "澎湖縣",
      "town": "湖西鄉",
      "name": "湖西",
      "temp": 29.6,
      "at": 35.92883778091422,
      "lat": 23.598035,
      "lon": 119.664639
    },
    {
      "city": "嘉義縣",
      "town": "義竹鄉",
      "name": "東後寮",
      "temp": 29.8,
      "at": 36.27654691076005,
      "lat": 23.371644,
      "lon": 120.239936
    },
    {
      "city": "嘉義縣",
      "town": "水上鄉",
      "name": "水上",
      "temp": 29.8,
      "at": 35.032892219684044,
      "lat": 23.421475,
      "lon": 120.380792
    },
    {
      "city": "宜蘭縣",
      "town": "南澳鄉",
      "name": "西帽山",
      "temp": 29.8,
      "at": 34.28128069222354,
      "lat": 24.557164,
      "lon": 121.794436
    },
    {
      "city": "臺東縣",
      "town": "海端鄉",
      "name": "龍泉苗圃",
      "temp": 27.6,
      "at": 32.341868661041126,
      "lat": 23.1684,
      "lon": 121.17201
    },
    {
      "city": "臺中市",
      "town": "龍井區",
      "name": "龍井",
      "temp": 30.2,
      "at": 35.175422371242405,
      "lat": 24.186278,
      "lon": 120.520833
    },
    {
      "city": "高雄市",
      "town": "燕巢區",
      "name": "阿公店",
      "temp": 30.4,
      "at": 38.54438839125357,
      "lat": 22.805944,
      "lon": 120.347444
    },
    {
      "city": "臺南市",
      "town": "柳營區",
      "name": "柳營",
      "temp": 30.2,
      "at": 34.67849623303356,
      "lat": 23.255089,
      "lon": 120.367158
    },
    {
      "city": "花蓮縣",
      "town": "萬榮鄉",
      "name": "虎頭山",
      "temp": 25.1,
      "at": 29.557318946831444,
      "lat": 23.53029,
      "lon": 121.331805
    },
    {
      "city": "高雄市",
      "town": "新興區",
      "name": "新興",
      "temp": 30.2,
      "at": 36.22657672761055,
      "lat": 22.629111,
      "lon": 120.290583
    },
    {
      "city": "臺中市",
      "town": "大里區",
      "name": "大里",
      "temp": 29.3,
      "at": 35.06769808173138,
      "lat": 24.094389,
      "lon": 120.692194
    },
    {
      "city": "桃園市",
      "town": "大園區",
      "name": "竹圍",
      "temp": 30.1,
      "at": 34.386174648759486,
      "lat": 25.114458,
      "lon": 121.231594
    },
    {
      "city": "屏東縣",
      "town": "萬巒鄉",
      "name": "赤山",
      "temp": 30.8,
      "at": 37.55142872776124,
      "lat": 22.594139,
      "lon": 120.60625
    },
    {
      "city": "南投縣",
      "town": "埔里鎮",
      "name": "埔里",
      "temp": 24.4,
      "at": 28.29603145691467,
      "lat": 23.973944,
      "lon": 120.944278
    },
    {
      "city": "新竹縣",
      "town": "新豐鄉",
      "name": "外湖",
      "temp": 28.8,
      "at": 32.48897211181855,
      "lat": 24.919492,
      "lon": 120.960497
    },
    {
      "city": "苗栗縣",
      "town": "通霄鎮",
      "name": "通霄漁港",
      "temp": 30.3,
      "at": 34.49335248038581,
      "lat": 24.500339,
      "lon": 120.665694
    },
    {
      "city": "嘉義縣",
      "town": "阿里山鄉",
      "name": "達邦",
      "temp": 22.5,
      "at": 25.465499787181045,
      "lat": 23.455769,
      "lon": 120.741403
    },
    {
      "city": "基隆市",
      "town": "七堵區",
      "name": "七堵",
      "temp": 30.3,
      "at": 35.98495353907408,
      "lat": 25.096608,
      "lon": 121.708897
    },
    {
      "city": "新竹縣",
      "town": "關西鎮",
      "name": "關西",
      "temp": 28.1,
      "at": 33.08464999268133,
      "lat": 24.799421,
      "lon": 121.165033
    },
    {
      "city": "臺東縣",
      "town": "長濱鄉",
      "name": "長濱漁港",
      "temp": 30.1,
      "at": 34.316174648759485,
      "lat": 23.315454,
      "lon": 121.451891
    },
    {
      "city": "屏東縣",
      "town": "枋山鄉",
      "name": "加祿堂",
      "temp": 30.2,
      "at": 35.45195930213798,
      "lat": 22.338096,
      "lon": 120.613688
    },
    {
      "city": "桃園市",
      "town": "龍潭區",
      "name": "龍潭",
      "temp": 29.0,
      "at": 33.19726901297221,
      "lat": 24.871833,
      "lon": 121.213194
    },
    {
      "city": "臺南市",
      "town": "鹽水區",
      "name": "鹽水",
      "temp": 29.8,
      "at": 35.16471956522205,
      "lat": 23.274339,
      "lon": 120.239506
    },
    {
      "city": "南投縣",
      "town": "集集鎮",
      "name": "集集",
      "temp": 27.3,
      "at": 32.84901283210174,
      "lat": 23.829972,
      "lon": 120.793328
    },
    {
      "city": "彰化縣",
      "town": "和美鎮",
      "name": "和美",
      "temp": 30.0,
      "at": 35.416072455173634,
      "lat": 24.106919,
      "lon": 120.483978
    },
    {
      "city": "宜蘭縣",
      "town": "五結鄉",
      "name": "五結",
      "temp": 30.0,
      "at": 35.209691393288445,
      "lat": 24.688722,
      "lon": 121.790222
    },
    {
      "city": "嘉義縣",
      "town": "阿里山鄉",
      "name": "茶山",
      "temp": 24.6,
      "at": 28.52509799764612,
      "lat": 23.300847,
      "lon": 120.656664
    },
    {
      "city": "花蓮縣",
      "town": "富里鄉",
      "name": "東里",
      "temp": 30.2,
      "at": 35.59080494576984,
      "lat": 23.270336,
      "lon": 121.297364
    },
    {
      "city": "嘉義縣",
      "town": "中埔鄉",
      "name": "中埔",
      "temp": 29.2,
      "at": 33.70967215233265,
      "lat": 23.427144,
      "lon": 120.514797
    },
    {
      "city": "花蓮縣",
      "town": "秀林鄉",
      "name": "天祥",
      "temp": 26.2,
      "at": 30.228627170228364,
      "lat": 24.181389,
      "lon": 121.4875
    },
    {
      "city": "臺南市",
      "town": "白河區",
      "name": "關子嶺",
      "temp": 28.5,
      "at": 33.971689837469214,
      "lat": 23.332933,
      "lon": 120.499931
    },
    {
      "city": "宜蘭縣",
      "town": "礁溪鄉",
      "name": "大礁溪",
      "temp": 27.7,
      "at": 33.108031725819934,
      "lat": 24.792836,
      "lon": 121.666839
    },
    {
      "city": "屏東縣",
      "town": "牡丹鄉",
      "name": "牡丹",
      "temp": 26.9,
      "at": 34.41999262065057,
      "lat": 22.131817,
      "lon": 120.784589
    },
    {
      "city": "南投縣",
      "town": "仁愛鄉",
      "name": "昆陽",
      "temp": 13.3,
      "at": 11.478389602428194,
      "lat": 24.123139,
      "lon": 121.265361
    },
    {
      "city": "屏東縣",
      "town": "瑪家鄉",
      "name": "瑪家",
      "temp": 25.0,
      "at": 29.96324476334371,
      "lat": 22.684722,
      "lon": 120.678889
    },
    {
      "city": "南投縣",
      "town": "國姓鄉",
      "name": "國姓",
      "temp": 26.4,
      "at": 31.34477202696067,
      "lat": 24.039567,
      "lon": 120.846925
    },
    {
      "city": "臺南市",
      "town": "安南區",
      "name": "四草",
      "temp": 30.4,
      "at": 35.14273127910808,
      "lat": 23.025295,
      "lon": 120.103558
    },
    {
      "city": "臺東縣",
      "town": "長濱鄉",
      "name": "長濱",
      "temp": 31.6,
      "at": 37.29439249857592,
      "lat": 23.288611,
      "lon": 121.403889
    },
    {
      "city": "高雄市",
      "town": "大樹區",
      "name": "溪埔",
      "temp": 29.8,
      "at": 35.518805892453045,
      "lat": 22.740278,
      "lon": 120.438611
    },
    {
      "city": "雲林縣",
      "town": "二崙鄉",
      "name": "二崙",
      "temp": 29.6,
      "at": 35.40140126895808,
      "lat": 23.77455,
      "lon": 120.400811
    },
    {
      "city": "桃園市",
      "town": "蘆竹區",
      "name": "蘆竹",
      "temp": 29.7,
      "at": 34.3018874477526,
      "lat": 25.086111,
      "lon": 121.2575
    },
    {
      "city": "宜蘭縣",
      "town": "大同鄉",
      "name": "翠峰林道6K",
      "temp": 16.9,
      "at": 18.388971401962397,
      "lat": 24.4995,
      "lon": 121.5604
    },
    {
      "city": "基隆市",
      "town": "安樂區",
      "name": "大武崙",
      "temp": 29.3,
      "at": 33.94769808173138,
      "lat": 25.168464,
      "lon": 121.698758
    },
    {
      "city": "新竹市",
      "town": "香山區",
      "name": "香山濕地",
      "temp": 28.9,
      "at": 33.6293453233525,
      "lat": 24.785386,
      "lon": 120.906781
    },
    {
      "city": "宜蘭縣",
      "town": "大同鄉",
      "name": "土場",
      "temp": 28.1,
      "at": 33.15935191622739,
      "lat": 24.578356,
      "lon": 121.487153
    },
    {
      "city": "桃園市",
      "town": "復興區",
      "name": "復興",
      "temp": 24.8,
      "at": 28.936230254478886,
      "lat": 24.822,
      "lon": 121.344094
    },
    {
      "city": "臺東縣",
      "town": "池上鄉",
      "name": "池上",
      "temp": 28.9,
      "at": 34.593394424101064,
      "lat": 23.121389,
      "lon": 121.201667
    },
    {
      "city": "屏東縣",
      "town": "萬丹鄉",
      "name": "萬丹",
      "temp": 30.5,
      "at": 37.05600023730816,
      "lat": 22.590256,
      "lon": 120.477031
    },
    {
      "city": "桃園市",
      "town": "復興區",
      "name": "四稜",
      "temp": 20.6,
      "at": 23.80768148129646,
      "lat": 24.6796,
      "lon": 121.4211
    },
    {
      "city": "屏東縣",
      "town": "滿州鄉",
      "name": "滿州",
      "temp": 30.2,
      "at": 37.42234850945125,
      "lat": 22.026208,
      "lon": 120.831875
    },
    {
      "city": "臺中市",
      "town": "和平區",
      "name": "小雪山林道",
      "temp": 17.3,
      "at": 17.226320069324114,
      "lat": 24.2968,
      "lon": 121.0283
    },
    {
      "city": "宜蘭縣",
      "town": "大同鄉",
      "name": "太平山中間站",
      "temp": 27.4,
      "at": 32.3147261718265,
      "lat": 24.5437,
      "lon": 121.5052
    },
    {
      "city": "嘉義縣",
      "town": "朴子市",
      "name": "朴子",
      "temp": 28.9,
      "at": 34.31132895643632,
      "lat": 23.436364,
      "lon": 120.230928
    },
    {
      "city": "屏東縣",
      "town": "竹田鄉",
      "name": "竹田",
      "temp": 30.4,
      "at": 37.186616983156576,
      "lat": 22.586642,
      "lon": 120.535392
    },
    {
      "city": "嘉義縣",
      "town": "民雄鄉",
      "name": "民雄",
      "temp": 30.0,
      "at": 35.62742955696668,
      "lat": 23.553497,
      "lon": 120.420331
    },
    {
      "city": "彰化縣",
      "town": "大城鄉",
      "name": "大城",
      "temp": 29.2,
      "at": 35.1057377295813,
      "lat": 23.854225,
      "lon": 120.312789
    },
    {
      "city": "宜蘭縣",
      "town": "南澳鄉",
      "name": "西德山",
      "temp": 28.7,
      "at": 30.32020379500854,
      "lat": 24.562447,
      "lon": 121.744417
    },
    {
      "city": "桃園市",
      "town": "八德區",
      "name": "八德",
      "temp": 29.2,
      "at": 33.5198360858103,
      "lat": 24.930528,
      "lon": 121.275
    },
    {
      "city": "花蓮縣",
      "town": "光復鄉",
      "name": "光復",
      "temp": 30.3,
      "at": 35.67157008473766,
      "lat": 23.662497,
      "lon": 121.416839
    },
    {
      "city": "苗栗縣",
      "town": "後龍鎮",
      "name": "高鐵苗栗",
      "temp": 30.3,
      "at": 35.191388747777786,
      "lat": 24.609,
      "lon": 120.817906
    },
    {
      "city": "新北市",
      "town": "坪林區",
      "name": "坪林",
      "temp": 25.6,
      "at": 31.752185019022555,
      "lat": 24.939975,
      "lon": 121.701531
    },
    {
      "city": "彰化縣",
      "town": "社頭鄉",
      "name": "社頭",
      "temp": 30.4,
      "at": 36.41383984234688,
      "lat": 23.899417,
      "lon": 120.578083
    },
    {
      "city": "屏東縣",
      "town": "麟洛鄉",
      "name": "麟洛",
      "temp": 30.7,
      "at": 37.75933805955022,
      "lat": 22.652556,
      "lon": 120.519139
    },
    {
      "city": "南投縣",
      "town": "仁愛鄉",
      "name": "梅峰",
      "temp": 18.4,
      "at": 19.972615525718844,
      "lat": 24.087056,
      "lon": 121.165414
    },
    {
      "city": "臺東縣",
      "town": "太麻里鄉",
      "name": "大溪山",
      "temp": 28.4,
      "at": 34.32598299205871,
      "lat": 22.48,
      "lon": 120.935278
    },
    {
      "city": "臺北市",
      "town": "松山區",
      "name": "松山",
      "temp": 29.3,
      "at": 34.38555210482093,
      "lat": 25.050492,
      "lon": 121.542203
    },
    {
      "city": "雲林縣",
      "town": "斗六市",
      "name": "斗六",
      "temp": 30.0,
      "at": 35.13923902602409,
      "lat": 23.722303,
      "lon": 120.532972
    },
    {
      "city": "雲林縣",
      "town": "北港鎮",
      "name": "北港",
      "temp": 29.4,
      "at": 35.065799662843325,
      "lat": 23.575803,
      "lon": 120.283672
    },
    {
      "city": "雲林縣",
      "town": "莿桐鄉",
      "name": "莿桐",
      "temp": 29.6,
      "at": 34.723110260987326,
      "lat": 23.762947,
      "lon": 120.494247
    },
    {
      "city": "臺東縣",
      "town": "綠島鄉",
      "name": "牛頭山",
      "temp": 29.9,
      "at": 33.852519652971324,
      "lat": 22.678485,
      "lon": 121.498883
    },
    {
      "city": "苗栗縣",
      "town": "後龍鎮",
      "name": "海埔",
      "temp": 30.3,
      "at": 34.711207410817906,
      "lat": 24.650519,
      "lon": 120.764242
    },
    {
      "city": "臺南市",
      "town": "安定區",
      "name": "安定",
      "temp": 30.4,
      "at": 37.05217126477597,
      "lat": 23.104417,
      "lon": 120.219972
    },
    {
      "city": "臺南市",
      "town": "仁德區",
      "name": "仁德",
      "temp": 30.1,
      "at": 36.34757063002665,
      "lat": 22.970111,
      "lon": 120.249778
    },
    {
      "city": "澎湖縣",
      "town": "西嶼鄉",
      "name": "西嶼",
      "temp": 27.4,
      "at": 32.01565896889751,
      "lat": 23.564311,
      "lon": 119.460328
    },
    {
      "city": "新北市",
      "town": "萬里區",
      "name": "大坪",
      "temp": 27.7,
      "at": 32.28584949561447,
      "lat": 25.167694,
      "lon": 121.62475
    },
    {
      "city": "臺中市",
      "town": "和平區",
      "name": "桃山",
      "temp": 13.3,
      "at": 12.130228562671014,
      "lat": 24.434519,
      "lon": 121.295628
    },
    {
      "city": "花蓮縣",
      "town": "玉里鎮",
      "name": "玉里",
      "temp": 30.3,
      "at": 35.669606352129634,
      "lat": 23.323306,
      "lon": 121.331556
    },
    {
      "city": "連江縣",
      "town": "莒光鄉",
      "name": "東莒",
      "temp": 27.9,
      "at": 34.53077253182321,
      "lat": 25.966883,
      "lon": 119.9724
    },
    {
      "city": "臺中市",
      "town": "和平區",
      "name": "大雪山",
      "temp": 17.0,
      "at": 17.78484125661934,
      "lat": 24.2562,
      "lon": 120.9991
    },
    {
      "city": "苗栗縣",
      "town": "泰安鄉",
      "name": "雪見",
      "temp": 19.0,
      "at": 20.142709886767342,
      "lat": 24.4277,
      "lon": 121.0052
    },
    {
      "city": "新竹縣",
      "town": "五峰鄉",
      "name": "樂山林道6k",
      "temp": 17.4,
      "at": 18.107905011252466,
      "lat": 24.5017,
      "lon": 121.0795
    },
    {
      "city": "花蓮縣",
      "town": "瑞穗鄉",
      "name": "舞鶴",
      "temp": 26.3,
      "at": 31.335063605125896,
      "lat": 23.469722,
      "lon": 121.365833
    },
    {
      "city": "臺中市",
      "town": "和平區",
      "name": "小雪山天池",
      "temp": 17.7,
      "at": 17.687474172631227,
      "lat": 24.2825,
      "lon": 121.0182
    },
    {
      "city": "屏東縣",
      "town": "滿州鄉",
      "name": "興海",
      "temp": 30.9,
      "at": 37.22479916481661,
      "lat": 21.976985,
      "lon": 120.835907
    },
    {
      "city": "花蓮縣",
      "town": "卓溪鄉",
      "name": "佳心",
      "temp": 25.1,
      "at": 28.85824682877061,
      "lat": 23.347464,
      "lon": 121.205061
    },
    {
      "city": "宜蘭縣",
      "town": "頭城鎮",
      "name": "桃源谷",
      "temp": 30.3,
      "at": 35.96335248038581,
      "lat": 24.964408,
      "lon": 121.880658
    },
    {
      "city": "臺東縣",
      "town": "東河鄉",
      "name": "興隆",
      "temp": 31.7,
      "at": 36.62846966379823,
      "lat": 22.915469,
      "lon": 121.249394
    },
    {
      "city": "基隆市",
      "town": "中正區",
      "name": "基隆嶼",
      "temp": 28.5,
      "at": 32.65166888054146,
      "lat": 25.1932,
      "lon": 121.775678
    },
    {
      "city": "苗栗縣",
      "town": "造橋鄉",
      "name": "造橋",
      "temp": 31.0,
      "at": 36.63428131545267,
      "lat": 24.63875,
      "lon": 120.856583
    },
    {
      "city": "高雄市",
      "town": "仁武區",
      "name": "仁武",
      "temp": 29.8,
      "at": 36.13859007437554,
      "lat": 22.702861,
      "lon": 120.339667
    },
    {
      "city": "花蓮縣",
      "town": "花蓮市",
      "name": "花蓮漁港",
      "temp": 28.2,
      "at": 31.29674401131755,
      "lat": 23.997128,
      "lon": 121.63018
    },
    {
      "city": "屏東縣",
      "town": "南州鄉",
      "name": "南州",
      "temp": 30.4,
      "at": 36.542731279108075,
      "lat": 22.487694,
      "lon": 120.494694
    },
    {
      "city": "屏東縣",
      "town": "新園鄉",
      "name": "新園",
      "temp": 30.5,
      "at": 36.7024056395067,
      "lat": 22.545194,
      "lon": 120.4535
    },
    {
      "city": "花蓮縣",
      "town": "豐濱鄉",
      "name": "加路蘭山",
      "temp": 29.9,
      "at": 35.39751864512663,
      "lat": 23.684706,
      "lon": 121.519219
    },
    {
      "city": "屏東縣",
      "town": "牡丹鄉",
      "name": "四林格山",
      "temp": 25.4,
      "at": 29.90295190642793,
      "lat": 22.078792,
      "lon": 120.794419
    },
    {
      "city": "新北市",
      "town": "板橋區",
      "name": "板橋",
      "temp": 30.7,
      "at": 35.720712173384555,
      "lat": 25.012431,
      "lon": 121.440638
    },
    {
      "city": "嘉義縣",
      "town": "東石鄉",
      "name": "東石",
      "temp": 29.4,
      "at": 34.290622158628864,
      "lat": 23.460653,
      "lon": 120.145722
    },
    {
      "city": "新竹縣",
      "town": "湖口鄉",
      "name": "湖口",
      "temp": 28.9,
      "at": 32.791410791017256,
      "lat": 24.906556,
      "lon": 121.035417
    },
    {
      "city": "南投縣",
      "town": "仁愛鄉",
      "name": "奇萊稜線",
      "temp": 14.0,
      "at": 12.91650427541752,
      "lat": 24.111019,
      "lon": 121.318297
    },
    {
      "city": "新北市",
      "town": "三芝區",
      "name": "田寮",
      "temp": 30.0,
      "at": 33.736072455173634,
      "lat": 25.271575,
      "lon": 121.480355
    },
    {
      "city": "宜蘭縣",
      "town": "頭城鎮",
      "name": "龜山島",
      "temp": 26.1,
      "at": 29.990530043756934,
      "lat": 24.843392,
      "lon": 121.944947
    },
    {
      "city": "宜蘭縣",
      "town": "頭城鎮",
      "name": "鶯子嶺",
      "temp": 26.7,
      "at": 28.03341591539887,
      "lat": 24.899333,
      "lon": 121.784231
    },
    {
      "city": "花蓮縣",
      "town": "富里鄉",
      "name": "明里",
      "temp": 29.7,
      "at": 35.30171586159327,
      "lat": 23.210556,
      "lon": 121.254167
    },
    {
      "city": "南投縣",
      "town": "信義鄉",
      "name": "神木村",
      "temp": 21.5,
      "at": 24.408160712336677,
      "lat": 23.534519,
      "lon": 120.835553
    },
    {
      "city": "花蓮縣",
      "town": "鳳林鎮",
      "name": "鳳林",
      "temp": 29.3,
      "at": 34.047454786880635,
      "lat": 23.747917,
      "lon": 121.445278
    },
    {
      "city": "花蓮縣",
      "town": "萬榮鄉",
      "name": "光復林道16K",
      "temp": 25.9,
      "at": 29.614770304694048,
      "lat": 23.66881,
      "lon": 121.36136
    },
    {
      "city": "臺中市",
      "town": "和平區",
      "name": "八仙山苗圃",
      "temp": 22.5,
      "at": 25.80458102920033,
      "lat": 24.1944,
      "lon": 120.9932
    },
    {
      "city": "苗栗縣",
      "town": "泰安鄉",
      "name": "松安",
      "temp": 19.6,
      "at": 21.471663618056823,
      "lat": 24.3996,
      "lon": 120.9778
    },
    {
      "city": "苗栗縣",
      "town": "竹南鎮",
      "name": "龍鳳",
      "temp": 31.2,
      "at": 36.93736910439134,
      "lat": 24.701789,
      "lon": 120.850928
    },
    {
      "city": "臺東縣",
      "town": "太麻里鄉",
      "name": "太麻里",
      "temp": 27.4,
      "at": 32.3448505447693,
      "lat": 22.610825,
      "lon": 120.977275
    },
    {
      "city": "新竹市",
      "town": "東區",
      "name": "新竹市東區",
      "temp": 28.9,
      "at": 33.35141079101726,
      "lat": 24.800436,
      "lon": 120.978742
    },
    {
      "city": "臺中市",
      "town": "和平區",
      "name": "中坑",
      "temp": 22.6,
      "at": 25.31055629080384,
      "lat": 24.250283,
      "lon": 120.895153
    },
    {
      "city": "屏東縣",
      "town": "內埔鄉",
      "name": "三地門",
      "temp": 29.3,
      "at": 33.23721149202989,
      "lat": 22.711667,
      "lon": 120.631889
    },
    {
      "city": "花蓮縣",
      "town": "秀林鄉",
      "name": "崇德",
      "temp": 31.1,
      "at": 36.058045390150646,
      "lat": 24.167948,
      "lon": 121.649251
    },
    {
      "city": "臺中市",
      "town": "潭子區",
      "name": "潭子",
      "temp": 28.9,
      "at": 33.918353506810604,
      "lat": 24.21475,
      "lon": 120.695833
    },
    {
      "city": "屏東縣",
      "town": "鹽埔鄉",
      "name": "鹽埔",
      "temp": 28.5,
      "at": 34.4816479236137,
      "lat": 22.741342,
      "lon": 120.522697
    },
    {
      "city": "新北市",
      "town": "林口區",
      "name": "林口",
      "temp": 28.0,
      "at": 33.044122760066706,
      "lat": 25.073953,
      "lon": 121.372611
    },
    {
      "city": "新北市",
      "town": "八里區",
      "name": "硬漢嶺",
      "temp": 24.9,
      "at": 29.488092806192995,
      "lat": 25.137872,
      "lon": 121.41814
    },
    {
      "city": "新北市",
      "town": "萬里區",
      "name": "野柳",
      "temp": 30.4,
      "at": 34.62218273020138,
      "lat": 25.208817,
      "lon": 121.681783
    },
    {
      "city": "臺中市",
      "town": "和平區",
      "name": "雪山東峰",
      "temp": 14.0,
      "at": 13.142676859023194,
      "lat": 24.390581,
      "lon": 121.263286
    },
    {
      "city": "苗栗縣",
      "town": "泰安鄉",
      "name": "觀霧分站",
      "temp": 17.4,
      "at": 18.14902836237437,
      "lat": 24.5075,
      "lon": 121.1057
    },
    {
      "city": "彰化縣",
      "town": "二林鎮",
      "name": "二林",
      "temp": 29.3,
      "at": 36.06413601246273,
      "lat": 23.905067,
      "lon": 120.367928
    },
    {
      "city": "高雄市",
      "town": "甲仙區",
      "name": "小林",
      "temp": 27.2,
      "at": 31.7073348599193,
      "lat": 23.150164,
      "lon": 120.625189
    },
    {
      "city": "臺中市",
      "town": "新社區",
      "name": "新社",
      "temp": 26.9,
      "at": 30.897994096520456,
      "lat": 24.201583,
      "lon": 120.8075
    },
    {
      "city": "新北市",
      "town": "烏來區",
      "name": "桶後",
      "temp": 25.6,
      "at": 31.42817911416013,
      "lat": 24.850056,
      "lon": 121.589639
    },
    {
      "city": "嘉義縣",
      "town": "番路鄉",
      "name": "番路",
      "temp": 30.4,
      "at": 35.68329129344018,
      "lat": 23.466408,
      "lon": 120.546028
    },
    {
      "city": "屏東縣",
      "town": "恆春鎮",
      "name": "貓鼻頭",
      "temp": 29.6,
      "at": 36.761601450237805,
      "lat": 21.923578,
      "lon": 120.727792
    },
    {
      "city": "彰化縣",
      "town": "永靖鄉",
      "name": "永靖",
      "temp": 29.4,
      "at": 34.067574704987905,
      "lat": 23.926458,
      "lon": 120.539392
    },
    {
      "city": "彰化縣",
      "town": "大城鄉",
      "name": "三豐",
      "temp": 29.0,
      "at": 34.395273553383475,
      "lat": 23.883719,
      "lon": 120.281409
    },
    {
      "city": "臺南市",
      "town": "北區",
      "name": "臺南市北區",
      "temp": 30.1,
      "at": 36.06757063002666,
      "lat": 23.012167,
      "lon": 120.186333
    },
    {
      "city": "臺南市",
      "town": "善化區",
      "name": "善化",
      "temp": 30.2,
      "at": 39.05197256770963,
      "lat": 23.114444,
      "lon": 120.289444
    },
    {
      "city": "雲林縣",
      "town": "東勢鄉",
      "name": "雲林東勢",
      "temp": 30.1,
      "at": 37.04896661129382,
      "lat": 23.675939,
      "lon": 120.2476
    },
    {
      "city": "花蓮縣",
      "town": "秀林鄉",
      "name": "加灣",
      "temp": 31.5,
      "at": 36.563704730959486,
      "lat": 24.083828,
      "lon": 121.600788
    },
    {
      "city": "臺中市",
      "town": "大甲區",
      "name": "大甲溪埔",
      "temp": 29.9,
      "at": 34.420018141204295,
      "lat": 24.372375,
      "lon": 120.611895
    },
    {
      "city": "臺東縣",
      "town": "太麻里鄉",
      "name": "香蘭",
      "temp": 32.3,
      "at": 37.1222203365692,
      "lat": 22.589372,
      "lon": 120.985322
    },
    {
      "city": "南投縣",
      "town": "草屯鎮",
      "name": "草屯",
      "temp": 27.8,
      "at": 31.950104947843172,
      "lat": 23.975444,
      "lon": 120.672194
    },
    {
      "city": "屏東縣",
      "town": "長治鄉",
      "name": "長治",
      "temp": 29.7,
      "at": 35.564720078301264,
      "lat": 22.694833,
      "lon": 120.534611
    },
    {
      "city": "新北市",
      "town": "中和區",
      "name": "中和",
      "temp": 30.2,
      "at": 36.22426801487426,
      "lat": 24.993403,
      "lon": 121.483569
    },
    {
      "city": "彰化縣",
      "town": "溪州鄉",
      "name": "溪州",
      "temp": 28.6,
      "at": 32.81921976261713,
      "lat": 23.853347,
      "lon": 120.490944
    },
    {
      "city": "新北市",
      "town": "三峽區",
      "name": "三峽",
      "temp": 30.1,
      "at": 36.48582565344269,
      "lat": 24.940806,
      "lon": 121.3615
    },
    {
      "city": "臺北市",
      "town": "文山區",
      "name": "文山",
      "temp": 28.3,
      "at": 35.054225358958114,
      "lat": 25.004083,
      "lon": 121.567528
    },
    {
      "city": "花蓮縣",
      "town": "秀林鄉",
      "name": "綠水",
      "temp": 24.0,
      "at": 28.178249722658563,
      "lat": 24.180212,
      "lon": 121.499787
    },
    {
      "city": "桃園市",
      "town": "復興區",
      "name": "東眼山",
      "temp": 20.6,
      "at": 23.447815378238886,
      "lat": 24.8301,
      "lon": 121.4006
    },
    {
      "city": "彰化縣",
      "town": "伸港鄉",
      "name": "伸港",
      "temp": 29.8,
      "at": 34.614935383299546,
      "lat": 24.150528,
      "lon": 120.476167
    },
    {
      "city": "彰化縣",
      "town": "花壇鄉",
      "name": "花壇",
      "temp": 30.8,
      "at": 38.942143034045614,
      "lat": 24.032075,
      "lon": 120.541314
    },
    {
      "city": "花蓮縣",
      "town": "鳳林鎮",
      "name": "鳳林山",
      "temp": 26.1,
      "at": 30.999288932105607,
      "lat": 23.737072,
      "lon": 121.411994
    },
    {
      "city": "高雄市",
      "town": "左營區",
      "name": "左營",
      "temp": 29.6,
      "at": 34.5686375996345,
      "lat": 22.676689,
      "lon": 120.27685
    },
    {
      "city": "新竹縣",
      "town": "尖石鄉",
      "name": "梅花",
      "temp": 28.7,
      "at": 34.0230116075968,
      "lat": 24.680119,
      "lon": 121.200361
    },
    {
      "city": "新北市",
      "town": "瑞芳區",
      "name": "五分山",
      "temp": 27.1,
      "at": 31.30781121315956,
      "lat": 25.073047,
      "lon": 121.772586
    },
    {
      "city": "高雄市",
      "town": "苓雅區",
      "name": "苓雅",
      "temp": 30.2,
      "at": 36.86350286581939,
      "lat": 22.624528,
      "lon": 120.322583
    },
    {
      "city": "雲林縣",
      "town": "臺西鄉",
      "name": "臺西",
      "temp": 29.5,
      "at": 35.85801724562566,
      "lat": 23.703283,
      "lon": 120.189422
    },
    {
      "city": "花蓮縣",
      "town": "秀林鄉",
      "name": "和仁",
      "temp": 30.6,
      "at": 35.29588007127371,
      "lat": 24.243199,
      "lon": 121.704304
    },
    {
      "city": "雲林縣",
      "town": "古坑鄉",
      "name": "棋山",
      "temp": 29.4,
      "at": 34.61721969655898,
      "lat": 23.688211,
      "lon": 120.595289
    },
    {
      "city": "金門縣",
      "town": "金沙鎮",
      "name": "金沙",
      "temp": 29.7,
      "at": 36.586393772814596,
      "lat": 24.489931,
      "lon": 118.400617
    },
    {
      "city": "新北市",
      "town": "雙溪區",
      "name": "泰平",
      "temp": 26.7,
      "at": 32.49536344301613,
      "lat": 24.973056,
      "lon": 121.815278
    },
    {
      "city": "臺中市",
      "town": "和平區",
      "name": "鞍馬山工作站",
      "temp": 15.1,
      "at": 15.809791157229434,
      "lat": 24.2681,
      "lon": 120.9926
    },
    {
      "city": "花蓮縣",
      "town": "秀林鄉",
      "name": "清水斷崖",
      "temp": 31.6,
      "at": 37.78439249857592,
      "lat": 24.2201,
      "lon": 121.680972
    },
    {
      "city": "雲林縣",
      "town": "虎尾鎮",
      "name": "虎尾",
      "temp": 29.9,
      "at": 35.40126788924312,
      "lat": 23.720939,
      "lon": 120.433911
    },
    {
      "city": "彰化縣",
      "town": "伸港鄉",
      "name": "防潮門",
      "temp": 29.7,
      "at": 34.514720078301266,
      "lat": 24.185242,
      "lon": 120.478972
    },
    {
      "city": "屏東縣",
      "town": "恆春鎮",
      "name": "墾雷",
      "temp": 31.0,
      "at": 38.64817263497794,
      "lat": 21.90265,
      "lon": 120.847244
    },
    {
      "city": "屏東縣",
      "town": "恆春鎮",
      "name": "龍磐",
      "temp": 30.6,
      "at": 37.32653799874205,
      "lat": 21.933481,
      "lon": 120.830933
    },
    {
      "city": "彰化縣",
      "town": "竹塘鄉",
      "name": "竹塘",
      "temp": 30.6,
      "at": 36.99796067360756,
      "lat": 23.85,
      "lon": 120.378628
    },
    {
      "city": "南投縣",
      "town": "仁愛鄉",
      "name": "仁愛",
      "temp": 22.1,
      "at": 24.123138504695987,
      "lat": 24.023903,
      "lon": 121.124056
    },
    {
      "city": "南投縣",
      "town": "信義鄉",
      "name": "鹿林山",
      "temp": 16.5,
      "at": 16.19649588777051,
      "lat": 23.47046,
      "lon": 120.86517
    },
    {
      "city": "宜蘭縣",
      "town": "三星鄉",
      "name": "三星",
      "temp": 30.3,
      "at": 34.89371515430556,
      "lat": 24.669917,
      "lon": 121.644819
    },
    {
      "city": "臺東縣",
      "town": "綠島鄉",
      "name": "綠島",
      "temp": 30.0,
      "at": 35.622001149794464,
      "lat": 22.669025,
      "lon": 121.467267
    },
    {
      "city": "彰化縣",
      "town": "埤頭鄉",
      "name": "埤頭",
      "temp": 30.6,
      "at": 37.597705757808505,
      "lat": 23.867806,
      "lon": 120.444722
    },
    {
      "city": "金門縣",
      "town": "金寧鄉",
      "name": "金寧",
      "temp": 28.4,
      "at": 33.218544914117516,
      "lat": 24.459339,
      "lon": 118.320831
    },
    {
      "city": "臺中市",
      "town": "大安區",
      "name": "大安",
      "temp": 30.2,
      "at": 34.96657672761055,
      "lat": 24.347444,
      "lon": 120.579972
    },
    {
      "city": "新北市",
      "town": "淡水區",
      "name": "六塊厝",
      "temp": 30.9,
      "at": 35.86027290397342,
      "lat": 25.241776,
      "lon": 121.439863
    },
    {
      "city": "臺東縣",
      "town": "達仁鄉",
      "name": "土坂",
      "temp": 29.1,
      "at": 34.90593011842569,
      "lat": 22.454908,
      "lon": 120.879528
    },
    {
      "city": "臺北市",
      "town": "士林區",
      "name": "天母",
      "temp": 31.1,
      "at": 36.73955727231841,
      "lat": 25.119253,
      "lon": 121.528939
    },
    {
      "city": "臺中市",
      "town": "霧峰區",
      "name": "霧峰",
      "temp": 31.1,
      "at": 37.21238664492915,
      "lat": 24.043658,
      "lon": 120.691323
    },
    {
      "city": "高雄市",
      "town": "田寮區",
      "name": "古亭坑",
      "temp": 29.8,
      "at": 35.798805892453046,
      "lat": 22.895,
      "lon": 120.393889
    },
    {
      "city": "花蓮縣",
      "town": "光復鄉",
      "name": "富源",
      "temp": 28.3,
      "at": 33.74858327057333,
      "lat": 23.58975,
      "lon": 121.370389
    },
    {
      "city": "苗栗縣",
      "town": "銅鑼鄉",
      "name": "銅鑼",
      "temp": 29.2,
      "at": 34.14590166305894,
      "lat": 24.491528,
      "lon": 120.782639
    },
    {
      "city": "臺中市",
      "town": "外埔區",
      "name": "外埔",
      "temp": 30.5,
      "at": 37.14397322631547,
      "lat": 24.349556,
      "lon": 120.697472
    },
    {
      "city": "臺中市",
      "town": "石岡區",
      "name": "石岡",
      "temp": 27.6,
      "at": 31.97334061710746,
      "lat": 24.277822,
      "lon": 120.769478
    },
    {
      "city": "澎湖縣",
      "town": "望安鄉",
      "name": "望安",
      "temp": 28.6,
      "at": 35.32400303001078,
      "lat": 23.382282,
      "lon": 119.485981
    },
    {
      "city": "宜蘭縣",
      "town": "頭城鎮",
      "name": "頭城",
      "temp": 31.8,
      "at": 38.849427966543395,
      "lat": 24.855031,
      "lon": 121.822586
    },
    {
      "city": "臺南市",
      "town": "白河區",
      "name": "白河",
      "temp": 30.0,
      "at": 35.62697718970233,
      "lat": 23.349228,
      "lon": 120.406328
    },
    {
      "city": "雲林縣",
      "town": "水林鄉",
      "name": "水林",
      "temp": 29.8,
      "at": 35.92654691076005,
      "lat": 23.574658,
      "lon": 120.237839
    },
    {
      "city": "高雄市",
      "town": "彌陀區",
      "name": "文安",
      "temp": 30.7,
      "at": 36.558854608061466,
      "lat": 22.804288,
      "lon": 120.208308
    },
    {
      "city": "臺中市",
      "town": "西屯區",
      "name": "西屯",
      "temp": 30.0,
      "at": 34.78923902602409,
      "lat": 24.182028,
      "lon": 120.632861
    },
    {
      "city": "嘉義縣",
      "town": "布袋鎮",
      "name": "布袋",
      "temp": 29.4,
      "at": 33.97168718391561,
      "lat": 23.382611,
      "lon": 120.159667
    },
    {
      "city": "臺南市",
      "town": "西港區",
      "name": "西港",
      "temp": 29.1,
      "at": 34.67346782592943,
      "lat": 23.127417,
      "lon": 120.195083
    },
    {
      "city": "臺中市",
      "town": "東勢區",
      "name": "東勢",
      "temp": 30.6,
      "at": 36.24120903500788,
      "lat": 24.248194,
      "lon": 120.824917
    },
    {
      "city": "南投縣",
      "town": "南投市",
      "name": "南投",
      "temp": 28.0,
      "at": 32.46944440196511,
      "lat": 23.913208,
      "lon": 120.679183
    },
    {
      "city": "南投縣",
      "town": "魚池鄉",
      "name": "魚池",
      "temp": 24.0,
      "at": 28.83734520957936,
      "lat": 23.897478,
      "lon": 120.933219
    },
    {
      "city": "高雄市",
      "town": "甲仙區",
      "name": "西阿里關山",
      "temp": 23.5,
      "at": 27.268095341026108,
      "lat": 23.18479,
      "lon": 120.63334
    },
    {
      "city": "苗栗縣",
      "town": "苗栗市",
      "name": "苗栗",
      "temp": 30.1,
      "at": 33.82338268622514,
      "lat": 24.566667,
      "lon": 120.816444
    },
    {
      "city": "南投縣",
      "town": "竹山鎮",
      "name": "竹山",
      "temp": 27.7,
      "at": 31.90148503520357,
      "lat": 23.764722,
      "lon": 120.677778
    },
    {
      "city": "新北市",
      "town": "三重區",
      "name": "三重",
      "temp": 29.7,
      "at": 35.83905481720393,
      "lat": 25.059108,
      "lon": 121.4924
    },
    {
      "city": "臺東縣",
      "town": "卑南鄉",
      "name": "富山",
      "temp": 31.8,
      "at": 36.22425512972076,
      "lat": 22.82419,
      "lon": 121.182756
    },
    {
      "city": "苗栗縣",
      "town": "苑裡鎮",
      "name": "苑裡",
      "temp": 29.8,
      "at": 33.56493538329954,
      "lat": 24.441458,
      "lon": 120.644883
    },
    {
      "city": "臺中市",
      "town": "和平區",
      "name": "審馬陣",
      "temp": 16.2,
      "at": 15.026418119223532,
      "lat": 24.383461,
      "lon": 121.412122
    },
    {
      "city": "花蓮縣",
      "town": "秀林鄉",
      "name": "秀林",
      "temp": 24.7,
      "at": 28.152641096133998,
      "lat": 24.304668,
      "lon": 121.722972
    },
    {
      "city": "臺北市",
      "town": "北投區",
      "name": "大屯山",
      "temp": 24.8,
      "at": 26.89902563858087,
      "lat": 25.177333,
      "lon": 121.514167
    },
    {
      "city": "屏東縣",
      "town": "東港鎮",
      "name": "東港",
      "temp": 30.5,
      "at": 35.56443265049939,
      "lat": 22.464244,
      "lon": 120.432703
    },
    {
      "city": "臺南市",
      "town": "山上區",
      "name": "山上",
      "temp": 28.1,
      "at": 32.869948069135255,
      "lat": 23.077444,
      "lon": 120.355194
    },
    {
      "city": "高雄市",
      "town": "林園區",
      "name": "林園",
      "temp": 30.5,
      "at": 36.860378628514006,
      "lat": 22.509583,
      "lon": 120.386556
    },
    {
      "city": "花蓮縣",
      "town": "豐濱鄉",
      "name": "豐濱",
      "temp": 29.2,
      "at": 34.77590166305894,
      "lat": 23.585708,
      "lon": 121.506678
    },
    {
      "city": "屏東縣",
      "town": "滿州鄉",
      "name": "鼻頭",
      "temp": 31.0,
      "at": 37.396226975215306,
      "lat": 22.106107,
      "lon": 120.889862
    },
    {
      "city": "宜蘭縣",
      "town": "壯圍鄉",
      "name": "壯圍",
      "temp": 30.2,
      "at": 34.888496233033564,
      "lat": 24.737723,
      "lon": 121.808046
    },
    {
      "city": "臺南市",
      "town": "歸仁區",
      "name": "媽廟",
      "temp": 30.7,
      "at": 37.549338059550216,
      "lat": 22.993514,
      "lon": 120.285431
    },
    {
      "city": "澎湖縣",
      "town": "望安鄉",
      "name": "花嶼",
      "temp": 28.4,
      "at": 34.70128872191163,
      "lat": 23.401778,
      "lon": 119.314667
    },
    {
      "city": "臺東縣",
      "town": "太麻里鄉",
      "name": "金崙",
      "temp": 31.9,
      "at": 38.24673619426287,
      "lat": 22.54,
      "lon": 120.958889
    },
    {
      "city": "南投縣",
      "town": "名間鄉",
      "name": "名間",
      "temp": 27.6,
      "at": 32.91628452924012,
      "lat": 23.838817,
      "lon": 120.693306
    },
    {
      "city": "臺南市",
      "town": "大內區",
      "name": "大內",
      "temp": 29.0,
      "at": 35.03352326960777,
      "lat": 23.120611,
      "lon": 120.35275
    },
    {
      "city": "宜蘭縣",
      "town": "頭城鎮",
      "name": "坪林石牌",
      "temp": 27.3,
      "at": 31.399650171700472,
      "lat": 24.866578,
      "lon": 121.76575
    },
    {
      "city": "新北市",
      "town": "瑞芳區",
      "name": "鼻頭角",
      "temp": 29.3,
      "at": 33.93579539967168,
      "lat": 25.130833,
      "lon": 121.915278
    },
    {
      "city": "臺東縣",
      "town": "臺東市",
      "name": "富岡",
      "temp": 30.0,
      "at": 33.108334291495396,
      "lat": 22.794274,
      "lon": 121.184602
    },
    {
      "city": "宜蘭縣",
      "town": "礁溪鄉",
      "name": "淡江大學蘭陽校園",
      "temp": 30.4,
      "at": 35.97717699748867,
      "lat": 24.825033,
      "lon": 121.722172
    },
    {
      "city": "臺北市",
      "town": "內湖區",
      "name": "內湖",
      "temp": 29.6,
      "at": 34.513110260987325,
      "lat": 25.081206,
      "lon": 121.567222
    },
    {
      "city": "臺南市",
      "town": "將軍區",
      "name": "鯤鯓國小",
      "temp": 29.5,
      "at": 34.799217676766304,
      "lat": 23.189624,
      "lon": 120.080813
    },
    {
      "city": "臺中市",
      "town": "大安區",
      "name": "溫寮",
      "temp": 29.4,
      "at": 33.88615467127224,
      "lat": 24.373925,
      "lon": 120.574953
    },
    {
      "city": "臺東縣",
      "town": "太麻里鄉",
      "name": "歷坵",
      "temp": 26.7,
      "at": 31.0382073137556,
      "lat": 22.522769,
      "lon": 120.883803
    },
    {
      "city": "南投縣",
      "town": "仁愛鄉",
      "name": "合歡山頂",
      "temp": 15.0,
      "at": 14.104863408061103,
      "lat": 24.144778,
      "lon": 121.264083
    },
    {
      "city": "屏東縣",
      "town": "枋寮鄉",
      "name": "下寮",
      "temp": 30.8,
      "at": 36.477143005247484,
      "lat": 22.394648,
      "lon": 120.546743
    },
    {
      "city": "高雄市",
      "town": "小港區",
      "name": "鳳鼻頭",
      "temp": 30.8,
      "at": 37.1953572971328,
      "lat": 22.510051,
      "lon": 120.351098
    },
    {
      "city": "屏東縣",
      "town": "來義鄉",
      "name": "白鷺",
      "temp": 27.5,
      "at": 31.755865435082946,
      "lat": 22.456067,
      "lon": 120.658178
    },
    {
      "city": "嘉義縣",
      "town": "竹崎鄉",
      "name": "竹崎",
      "temp": 29.8,
      "at": 35.17493538329954,
      "lat": 23.527931,
      "lon": 120.547378
    },
    {
      "city": "臺中市",
      "town": "大雅區",
      "name": "大雅",
      "temp": 27.8,
      "at": 31.495897183312728,
      "lat": 24.217056,
      "lon": 120.616239
    },
    {
      "city": "臺中市",
      "town": "北屯區",
      "name": "大坑",
      "temp": 29.6,
      "at": 35.6886375996345,
      "lat": 24.174889,
      "lon": 120.714139
    },
    {
      "city": "雲林縣",
      "town": "口湖鄉",
      "name": "宜梧",
      "temp": 30.3,
      "at": 36.88513487603395,
      "lat": 23.538014,
      "lon": 120.1612
    },
    {
      "city": "屏東縣",
      "town": "恆春鎮",
      "name": "山海",
      "temp": 29.7,
      "at": 35.894891664460594,
      "lat": 21.989579,
      "lon": 120.701107
    },
    {
      "city": "臺中市",
      "town": "和平區",
      "name": "出雲山苗圃",
      "temp": 23.6,
      "at": 26.45409684383707,
      "lat": 24.2328,
      "lon": 120.8965
    },
    {
      "city": "屏東縣",
      "town": "枋山鄉",
      "name": "楓港",
      "temp": 30.3,
      "at": 36.66531621299383,
      "lat": 22.191928,
      "lon": 120.684131
    },
    {
      "city": "苗栗縣",
      "town": "三灣鄉",
      "name": "大河",
      "temp": 28.3,
      "at": 33.172502077210595,
      "lat": 24.619833,
      "lon": 120.94055
    },
    {
      "city": "宜蘭縣",
      "town": "南澳鄉",
      "name": "南澳",
      "temp": 29.8,
      "at": 35.02471956522205,
      "lat": 24.451153,
      "lon": 121.802036
    },
    {
      "city": "新竹縣",
      "town": "寶山鄉",
      "name": "寶山",
      "temp": 25.3,
      "at": 30.95493713118745,
      "lat": 24.736722,
      "lon": 121.016769
    },
    {
      "city": "高雄市",
      "town": "鳳山區",
      "name": "鳳山",
      "temp": 30.5,
      "at": 38.064757019719856,
      "lat": 22.648611,
      "lon": 120.348056
    },
    {
      "city": "屏東縣",
      "town": "恆春鎮",
      "name": "大坪頂",
      "temp": 30.7,
      "at": 39.782238768482756,
      "lat": 22.026433,
      "lon": 120.685536
    },
    {
      "city": "臺中市",
      "town": "和平區",
      "name": "中橫21.6k",
      "temp": 21.7,
      "at": 23.52385969208635,
      "lat": 24.2516,
      "lon": 121.1373
    },
    {
      "city": "花蓮縣",
      "town": "秀林鄉",
      "name": "和平",
      "temp": 29.7,
      "at": 32.52437690598261,
      "lat": 24.308961,
      "lon": 121.761903
    },
    {
      "city": "宜蘭縣",
      "town": "蘇澳鎮",
      "name": "蘇澳",
      "temp": 30.8,
      "at": 35.68285728273375,
      "lat": 24.59875,
      "lon": 121.848895
    },
    {
      "city": "臺中市",
      "town": "烏日區",
      "name": "烏日",
      "temp": 28.2,
      "at": 32.33253212258585,
      "lat": 24.108833,
      "lon": 120.615917
    },
    {
      "city": "南投縣",
      "town": "仁愛鄉",
      "name": "小奇萊",
      "temp": 15.1,
      "at": 14.299843367922072,
      "lat": 24.13355,
      "lon": 121.287556
    },
    {
      "city": "宜蘭縣",
      "town": "羅東鎮",
      "name": "羅東",
      "temp": 31.7,
      "at": 37.495921840791915,
      "lat": 24.683636,
      "lon": 121.741144
    },
    {
      "city": "屏東縣",
      "town": "牡丹鄉",
      "name": "高士",
      "temp": 28.0,
      "at": 33.635453170541304,
      "lat": 22.123631,
      "lon": 120.828758
    },
    {
      "city": "高雄市",
      "town": "茄萣區",
      "name": "興達",
      "temp": 30.4,
      "at": 36.553839842346875,
      "lat": 22.879517,
      "lon": 120.204681
    },
    {
      "city": "臺東縣",
      "town": "延平鄉",
      "name": "延平",
      "temp": 29.7,
      "at": 35.57605060049593,
      "lat": 22.904381,
      "lon": 121.075983
    },
    {
      "city": "花蓮縣",
      "town": "萬榮鄉",
      "name": "西林林道12.5K",
      "temp": 26.4,
      "at": 30.827996989327254,
      "lat": 23.83143,
      "lon": 121.40419
    },
    {
      "city": "屏東縣",
      "town": "滿州鄉",
      "name": "九棚",
      "temp": 31.6,
      "at": 38.00154477786203,
      "lat": 22.143756,
      "lon": 120.886331
    },
    {
      "city": "彰化縣",
      "town": "芬園鄉",
      "name": "芬園",
      "temp": 27.8,
      "at": 34.527754478395295,
      "lat": 24.017222,
      "lon": 120.613056
    },
    {
      "city": "彰化縣",
      "town": "埔心鄉",
      "name": "埔心",
      "temp": 30.7,
      "at": 37.334096333805846,
      "lat": 23.948694,
      "lon": 120.517611
    },
    {
      "city": "桃園市",
      "town": "楊梅區",
      "name": "楊梅",
      "temp": 29.2,
      "at": 33.55622953001422,
      "lat": 24.914139,
      "lon": 121.134833
    },
    {
      "city": "宜蘭縣",
      "town": "礁溪鄉",
      "name": "礁溪",
      "temp": 31.2,
      "at": 37.221347987981474,
      "lat": 24.819336,
      "lon": 121.757397
    },
    {
      "city": "苗栗縣",
      "town": "西湖鄉",
      "name": "西湖",
      "temp": 29.1,
      "at": 34.51100553343318,
      "lat": 24.564417,
      "lon": 120.740278
    },
    {
      "city": "高雄市",
      "town": "彌陀區",
      "name": "南寮",
      "temp": 30.0,
      "at": 35.97426298611623,
      "lat": 22.763381,
      "lon": 120.225866
    },
    {
      "city": "宜蘭縣",
      "town": "大同鄉",
      "name": "白嶺",
      "temp": 25.1,
      "at": 29.06824682877061,
      "lat": 24.529611,
      "lon": 121.510844
    },
    {
      "city": "高雄市",
      "town": "梓官區",
      "name": "梓官",
      "temp": 29.7,
      "at": 35.419054817203936,
      "lat": 22.762444,
      "lon": 120.25925
    },
    {
      "city": "南投縣",
      "town": "仁愛鄉",
      "name": "萬大林道",
      "temp": 20.5,
      "at": 21.94444964244143,
      "lat": 23.930008,
      "lon": 121.083267
    },
    {
      "city": "屏東縣",
      "town": "恆春鎮",
      "name": "後壁湖",
      "temp": 29.9,
      "at": 37.33627292846654,
      "lat": 21.94747,
      "lon": 120.737695
    },
    {
      "city": "宜蘭縣",
      "town": "頭城鎮",
      "name": "大溪漁港",
      "temp": 29.3,
      "at": 34.495795399671685,
      "lat": 24.943603,
      "lon": 121.894736
    },
    {
      "city": "臺中市",
      "town": "后里區",
      "name": "后里",
      "temp": 29.3,
      "at": 34.23960076379109,
      "lat": 24.312111,
      "lon": 120.7215
    },
    {
      "city": "新北市",
      "town": "石碇區",
      "name": "石碇",
      "temp": 25.5,
      "at": 31.27013312955441,
      "lat": 24.995758,
      "lon": 121.654639
    },
    {
      "city": "連江縣",
      "town": "北竿鄉",
      "name": "北竿",
      "temp": 28.3,
      "at": 32.4507456572988,
      "lat": 26.222038,
      "lon": 119.966574
    },
    {
      "city": "屏東縣",
      "town": "高樹鄉",
      "name": "高樹",
      "temp": 28.6,
      "at": 32.984176416095856,
      "lat": 22.828222,
      "lon": 120.592722
    },
    {
      "city": "嘉義縣",
      "town": "新港鄉",
      "name": "新港",
      "temp": 29.9,
      "at": 36.23251965297132,
      "lat": 23.555011,
      "lon": 120.3376
    },
    {
      "city": "嘉義縣",
      "town": "大林鎮",
      "name": "大林",
      "temp": 30.3,
      "at": 35.81746128256173,
      "lat": 23.602361,
      "lon": 120.450281
    },
    {
      "city": "宜蘭縣",
      "town": "頭城鎮",
      "name": "北關",
      "temp": 30.6,
      "at": 36.950041275941416,
      "lat": 24.90902,
      "lon": 121.865211
    },
    {
      "city": "花蓮縣",
      "town": "秀林鄉",
      "name": "富世",
      "temp": 30.1,
      "at": 35.363033690908345,
      "lat": 24.149236,
      "lon": 121.621542
    },
    {
      "city": "新北市",
      "town": "金山區",
      "name": "金山",
      "temp": 28.9,
      "at": 35.117361690268694,
      "lat": 25.225278,
      "lon": 121.635556
    },
    {
      "city": "屏東縣",
      "town": "滿州鄉",
      "name": "檳榔",
      "temp": 28.6,
      "at": 35.57904637653205,
      "lat": 22.077883,
      "lon": 120.828758
    },
    {
      "city": "新北市",
      "town": "永和區",
      "name": "永和",
      "temp": 29.4,
      "at": 34.422752209202365,
      "lat": 25.013028,
      "lon": 121.499889
    },
    {
      "city": "花蓮縣",
      "town": "豐濱鄉",
      "name": "靜浦",
      "temp": 30.2,
      "at": 35.8754223712424,
      "lat": 23.456944,
      "lon": 121.486667
    },
    {
      "city": "臺南市",
      "town": "新市區",
      "name": "新市",
      "temp": 29.4,
      "at": 35.30686468813008,
      "lat": 23.063556,
      "lon": 120.290417
    },
    {
      "city": "雲林縣",
      "town": "褒忠鄉",
      "name": "褒忠",
      "temp": 29.5,
      "at": 35.166816814485024,
      "lat": 23.692672,
      "lon": 120.295503
    },
    {
      "city": "花蓮縣",
      "town": "富里鄉",
      "name": "富里",
      "temp": 29.5,
      "at": 33.89401401207085,
      "lat": 23.173442,
      "lon": 121.241286
    },
    {
      "city": "屏東縣",
      "town": "泰武鄉",
      "name": "舊泰武",
      "temp": 25.1,
      "at": 29.137318946831442,
      "lat": 22.58995,
      "lon": 120.656922
    },
    {
      "city": "臺南市",
      "town": "北門區",
      "name": "蚵寮",
      "temp": 29.9,
      "at": 35.80502116473835,
      "lat": 23.302745,
      "lon": 120.102281
    },
    {
      "city": "宜蘭縣",
      "town": "員山鄉",
      "name": "內城",
      "temp": 31.9,
      "at": 37.53936782155669,
      "lat": 24.719928,
      "lon": 121.679461
    },
    {
      "city": "屏東縣",
      "town": "滿州鄉",
      "name": "南仁湖",
      "temp": 29.2,
      "at": 34.65885248494444,
      "lat": 22.086486,
      "lon": 120.855333
    },
    {
      "city": "新北市",
      "town": "鶯歌區",
      "name": "鶯歌",
      "temp": 30.1,
      "at": 36.90722163470986,
      "lat": 24.953,
      "lon": 121.33725
    },
    {
      "city": "宜蘭縣",
      "town": "大同鄉",
      "name": "南山",
      "temp": 25.9,
      "at": 27.416513536462695,
      "lat": 24.439167,
      "lon": 121.373333
    },
    {
      "city": "臺東縣",
      "town": "蘭嶼鄉",
      "name": "東清國小",
      "temp": 30.7,
      "at": 35.76264597933958,
      "lat": 22.058965,
      "lon": 121.556901
    },
    {
      "city": "高雄市",
      "town": "大樹區",
      "name": "大樹",
      "temp": 28.9,
      "at": 33.333394424101066,
      "lat": 22.686423,
      "lon": 120.424748
    },
    {
      "city": "彰化縣",
      "town": "福興鄉",
      "name": "福興",
      "temp": 30.9,
      "at": 36.5740834083107,
      "lat": 24.042972,
      "lon": 120.429528
    },
    {
      "city": "高雄市",
      "town": "小港區",
      "name": "鳳森",
      "temp": 29.5,
      "at": 35.85801724562566,
      "lat": 22.546944,
      "lon": 120.3845
    },
    {
      "city": "彰化縣",
      "town": "福興鄉",
      "name": "福寶",
      "temp": 30.1,
      "at": 35.64791962534345,
      "lat": 24.046048,
      "lon": 120.373213
    },
    {
      "city": "南投縣",
      "town": "水里鄉",
      "name": "水里",
      "temp": 26.4,
      "at": 30.105422252761123,
      "lat": 23.814322,
      "lon": 120.841658
    },
    {
      "city": "嘉義縣",
      "town": "布袋鎮",
      "name": "好美里",
      "temp": 30.8,
      "at": 36.16357158901812,
      "lat": 23.338176,
      "lon": 120.129936
    },
    {
      "city": "花蓮縣",
      "town": "萬榮鄉",
      "name": "西林",
      "temp": 29.8,
      "at": 35.584719565222045,
      "lat": 23.813667,
      "lon": 121.433194
    },
    {
      "city": "屏東縣",
      "town": "新埤鄉",
      "name": "萬隆國小",
      "temp": 31.5,
      "at": 37.26370473095948,
      "lat": 22.509453,
      "lon": 120.579772
    },
    {
      "city": "花蓮縣",
      "town": "秀林鄉",
      "name": "和平林道",
      "temp": 27.8,
      "at": 32.631416594638836,
      "lat": 24.345722,
      "lon": 121.648142
    },
    {
      "city": "臺中市",
      "town": "和平區",
      "name": "雪山圈谷",
      "temp": 12.3,
      "at": 10.151335391527065,
      "lat": 24.390375,
      "lon": 121.228197
    },
    {
      "city": "金門縣",
      "town": "烏坵鄉",
      "name": "烏坵",
      "temp": 26.6,
      "at": 31.65733001818063,
      "lat": 24.996081,
      "lon": 119.441347
    },
    {
      "city": "臺南市",
      "town": "佳里區",
      "name": "佳里",
      "temp": 29.6,
      "at": 36.5443651195614,
      "lat": 23.175,
      "lon": 120.136667
    },
    {
      "city": "花蓮縣",
      "town": "壽豐鄉",
      "name": "東華",
      "temp": 30.9,
      "at": 36.532651895298855,
      "lat": 23.897056,
      "lon": 121.541694
    },
    {
      "city": "屏東縣",
      "town": "佳冬鄉",
      "name": "佳冬",
      "temp": 32.8,
      "at": 39.17450542744868,
      "lat": 22.421194,
      "lon": 120.544222
    },
    {
      "city": "宜蘭縣",
      "town": "南澳鄉",
      "name": "樟樹山",
      "temp": 29.1,
      "at": 33.75336727258611,
      "lat": 24.415731,
      "lon": 121.775067
    },
    {
      "city": "新北市",
      "town": "蘆洲區",
      "name": "蘆洲",
      "temp": 30.4,
      "at": 36.39995413829838,
      "lat": 25.088528,
      "lon": 121.464056
    },
    {
      "city": "桃園市",
      "town": "龜山區",
      "name": "國一五楊N44K",
      "temp": 28.9,
      "at": 34.706369873726786,
      "lat": 25.065633,
      "lon": 121.332769
    },
    {
      "city": "臺東縣",
      "town": "卑南鄉",
      "name": "知本",
      "temp": 29.4,
      "at": 34.562752209202365,
      "lat": 22.686667,
      "lon": 120.997583
    },
    {
      "city": "臺中市",
      "town": "清水區",
      "name": "清水",
      "temp": 30.0,
      "at": 34.50562008790928,
      "lat": 24.314028,
      "lon": 120.554083
    },
    {
      "city": "高雄市",
      "town": "大寮區",
      "name": "大寮",
      "temp": 29.7,
      "at": 35.42472007830126,
      "lat": 22.607389,
      "lon": 120.387667
    },
    {
      "city": "雲林縣",
      "town": "大埤鄉",
      "name": "大埤",
      "temp": 29.6,
      "at": 34.785873930310906,
      "lat": 23.647817,
      "lon": 120.4234
    },
    {
      "city": "新北市",
      "town": "石門區",
      "name": "石門",
      "temp": 29.6,
      "at": 34.69778310361988,
      "lat": 25.275453,
      "lon": 121.592956
    },
    {
      "city": "花蓮縣",
      "town": "吉安鄉",
      "name": "吉安光華",
      "temp": 28.5,
      "at": 33.40966468915591,
      "lat": 23.932733,
      "lon": 121.587003
    },
    {
      "city": "花蓮縣",
      "town": "壽豐鄉",
      "name": "大坑",
      "temp": 28.8,
      "at": 34.82826065762535,
      "lat": 23.882433,
      "lon": 121.573839
    },
    {
      "city": "臺北市",
      "town": "信義區",
      "name": "信義",
      "temp": 29.5,
      "at": 34.85641487435213,
      "lat": 25.039606,
      "lon": 121.556372
    },
    {
      "city": "高雄市",
      "town": "六龜區",
      "name": "六龜",
      "temp": 28.3,
      "at": 33.14554267389196,
      "lat": 22.99975,
      "lon": 120.625528
    },
    {
      "city": "屏東縣",
      "town": "恆春鎮",
      "name": "墾丁",
      "temp": 27.2,
      "at": 33.55733515730618,
      "lat": 21.968561,
      "lon": 120.802258
    },
    {
      "city": "屏東縣",
      "town": "屏東市",
      "name": "屏東",
      "temp": 29.0,
      "at": 35.19827241828066,
      "lat": 22.662048,
      "lon": 120.485974
    },
    {
      "city": "南投縣",
      "town": "鹿谷鄉",
      "name": "鳳凰",
      "temp": 24.9,
      "at": 28.799249482571632,
      "lat": 23.729722,
      "lon": 120.779167
    },
    {
      "city": "苗栗縣",
      "town": "南庄鄉",
      "name": "拉庫斯",
      "temp": 23.1,
      "at": 25.2366528511444,
      "lat": 24.538136,
      "lon": 121.013183
    },
    {
      "city": "臺中市",
      "town": "梧棲區",
      "name": "梧棲",
      "temp": 29.4,
      "at": 35.25508964598549,
      "lat": 24.257753,
      "lon": 120.515211
    },
    {
      "city": "雲林縣",
      "town": "古坑鄉",
      "name": "草嶺石壁",
      "temp": 23.7,
      "at": 26.415883758062577,
      "lat": 23.604239,
      "lon": 120.699612
    },
    {
      "city": "雲林縣",
      "town": "元長鄉",
      "name": "鹿南",
      "temp": 30.3,
      "at": 35.829243678209885,
      "lat": 23.645083,
      "lon": 120.360167
    },
    {
      "city": "嘉義市",
      "town": "西區",
      "name": "嘉義",
      "temp": 29.5,
      "at": 34.8212165989147,
      "lat": 23.497684,
      "lon": 120.424796
    },
    {
      "city": "花蓮縣",
      "town": "富里鄉",
      "name": "六十石",
      "temp": 24.9,
      "at": 28.102038651666298,
      "lat": 23.226575,
      "lon": 121.310513
    },
    {
      "city": "花蓮縣",
      "town": "鳳林鎮",
      "name": "庄子底",
      "temp": 28.5,
      "at": 33.31768145469812,
      "lat": 23.719744,
      "lon": 121.486249
    },
    {
      "city": "澎湖縣",
      "town": "西嶼鄉",
      "name": "畜試所澎湖",
      "temp": 28.8,
      "at": 35.4615807771936,
      "lat": 23.630055,
      "lon": 119.505094
    },
    {
      "city": "臺北市",
      "town": "文山區",
      "name": "國三甲005K",
      "temp": 28.5,
      "at": 33.875656306384805,
      "lat": 25.003726,
      "lon": 121.589277
    },
    {
      "city": "臺東縣",
      "town": "鹿野鄉",
      "name": "二層坪",
      "temp": 29.2,
      "at": 34.096065596536576,
      "lat": 22.942853,
      "lon": 121.160303
    },
    {
      "city": "臺中市",
      "town": "大甲區",
      "name": "大甲",
      "temp": 28.9,
      "at": 34.76736169026869,
      "lat": 24.349917,
      "lon": 120.632361
    },
    {
      "city": "高雄市",
      "town": "美濃區",
      "name": "吉東",
      "temp": 29.4,
      "at": 34.61721969655898,
      "lat": 22.855957,
      "lon": 120.537323
    },
    {
      "city": "南投縣",
      "town": "仁愛鄉",
      "name": "馬烈霸",
      "temp": 21.1,
      "at": 22.280234683032997,
      "lat": 24.152982,
      "lon": 121.193613
    },
    {
      "city": "新北市",
      "town": "石碇區",
      "name": "國五S006K",
      "temp": 28.6,
      "at": 35.122828886422994,
      "lat": 24.991753,
      "lon": 121.64875
    },
    {
      "city": "新北市",
      "town": "石碇區",
      "name": "國五S005K",
      "temp": 28.6,
      "at": 34.23291557946554,
      "lat": 24.998202,
      "lon": 121.643708
    },
    {
      "city": "屏東縣",
      "town": "萬巒鄉",
      "name": "萬巒",
      "temp": 28.1,
      "at": 33.64464999268133,
      "lat": 22.529093,
      "lon": 120.617065
    },
    {
      "city": "臺中市",
      "town": "龍井區",
      "name": "國三N183K",
      "temp": 28.1,
      "at": 31.654769223262896,
      "lat": 24.19538,
      "lon": 120.562148
    },
    {
      "city": "金門縣",
      "town": "金城鎮",
      "name": "金門",
      "temp": 27.6,
      "at": 34.59425169450041,
      "lat": 24.408942,
      "lon": 118.281127
    },
    {
      "city": "臺南市",
      "town": "善化區",
      "name": "國三S342K",
      "temp": 29.7,
      "at": 34.5903853393986,
      "lat": 23.108456,
      "lon": 120.319446
    },
    {
      "city": "嘉義縣",
      "town": "梅山鄉",
      "name": "大巃頂",
      "temp": 23.2,
      "at": 25.63789870879458,
      "lat": 23.556466,
      "lon": 120.606275
    },
    {
      "city": "彰化縣",
      "town": "鹿港鎮",
      "name": "鹿港",
      "temp": 30.5,
      "at": 36.363189432911085,
      "lat": 24.076944,
      "lon": 120.422222
    },
    {
      "city": "臺南市",
      "town": "下營區",
      "name": "下營",
      "temp": 30.1,
      "at": 35.647221634709865,
      "lat": 23.228563,
      "lon": 120.248201
    },
    {
      "city": "南投縣",
      "town": "名間鄉",
      "name": "苗改南投蜂場",
      "temp": 29.5,
      "at": 34.22641487435213,
      "lat": 23.854353,
      "lon": 120.685345
    },
    {
      "city": "臺北市",
      "town": "大安區",
      "name": "大安森林",
      "temp": 28.3,
      "at": 34.04206297223264,
      "lat": 25.031331,
      "lon": 121.528056
    },
    {
      "city": "南投縣",
      "town": "竹山鎮",
      "name": "臺大竹山",
      "temp": 27.4,
      "at": 33.59553459595471,
      "lat": 23.758731,
      "lon": 120.67342
    },
    {
      "city": "屏東縣",
      "town": "恆春鎮",
      "name": "畜試南區分所",
      "temp": 29.2,
      "at": 34.60901641842209,
      "lat": 21.947348,
      "lon": 120.794139
    },
    {
      "city": "花蓮縣",
      "town": "吉安鄉",
      "name": "花蓮農改",
      "temp": 31.2,
      "at": 36.78248481186437,
      "lat": 23.977028,
      "lon": 121.555752
    },
    {
      "city": "新北市",
      "town": "平溪區",
      "name": "火燒寮",
      "temp": 26.3,
      "at": 31.350184167152705,
      "lat": 25.004411,
      "lon": 121.734572
    },
    {
      "city": "嘉義縣",
      "town": "東石鄉",
      "name": "西濱S257K",
      "temp": 29.7,
      "at": 35.20055692555793,
      "lat": 23.504025,
      "lon": 120.163753
    },
    {
      "city": "桃園市",
      "town": "觀音區",
      "name": "觀音",
      "temp": 30.8,
      "at": 36.40714300524749,
      "lat": 25.028835,
      "lon": 121.145094
    },
    {
      "city": "苗栗縣",
      "town": "竹南鎮",
      "name": "竹南",
      "temp": 30.3,
      "at": 35.889425015169756,
      "lat": 24.710737,
      "lon": 120.880772
    },
    {
      "city": "嘉義縣",
      "town": "朴子市",
      "name": "朴子農改",
      "temp": 30.4,
      "at": 35.495508419917776,
      "lat": 23.47164,
      "lon": 120.251277
    },
    {
      "city": "南投縣",
      "town": "埔里鎮",
      "name": "中台",
      "temp": 24.2,
      "at": 28.384186903112855,
      "lat": 24.001373,
      "lon": 120.930591
    },
    {
      "city": "苗栗縣",
      "town": "西湖鄉",
      "name": "畜試北區分所",
      "temp": 29.5,
      "at": 33.5612165989147,
      "lat": 24.529569,
      "lon": 120.762788
    },
    {
      "city": "嘉義縣",
      "town": "大埔鄉",
      "name": "馬頭山",
      "temp": 28.3,
      "at": 34.155103568914015,
      "lat": 23.326389,
      "lon": 120.573611
    },
    {
      "city": "宜蘭縣",
      "town": "南澳鄉",
      "name": "金洋",
      "temp": 28.4,
      "at": 34.04598299205871,
      "lat": 24.426453,
      "lon": 121.737548
    },
    {
      "city": "嘉義縣",
      "town": "竹崎鄉",
      "name": "大華",
      "temp": 24.8,
      "at": 28.273239998093075,
      "lat": 23.484171,
      "lon": 120.6668
    },
    {
      "city": "臺東縣",
      "town": "太麻里鄉",
      "name": "太麻里(1)",
      "temp": 31.9,
      "at": 38.16126251972163,
      "lat": 22.600724,
      "lon": 120.971991
    },
    {
      "city": "苗栗縣",
      "town": "苑裡鎮",
      "name": "國三S156K",
      "temp": 29.5,
      "at": 34.18681681448502,
      "lat": 24.399738,
      "lon": 120.66131
    },
    {
      "city": "臺南市",
      "town": "官田區",
      "name": "西拉雅風管處",
      "temp": 30.4,
      "at": 35.69717699748867,
      "lat": 23.191241,
      "lon": 120.327209
    },
    {
      "city": "雲林縣",
      "town": "古坑鄉",
      "name": "古坑",
      "temp": 29.2,
      "at": 35.02229510726286,
      "lat": 23.635298,
      "lon": 120.543786
    },
    {
      "city": "嘉義縣",
      "town": "民雄鄉",
      "name": "何竹子腳",
      "temp": 30.1,
      "at": 36.76652364407628,
      "lat": 23.538166,
      "lon": 120.373918
    },
    {
      "city": "臺東縣",
      "town": "太麻里鄉",
      "name": "太麻里(2)",
      "temp": 32.3,
      "at": 37.1222203365692,
      "lat": 22.599802,
      "lon": 120.9897
    },
    {
      "city": "花蓮縣",
      "town": "鳳林鎮",
      "name": "長橋",
      "temp": 29.5,
      "at": 35.044415952203735,
      "lat": 23.689203,
      "lon": 121.453731
    },
    {
      "city": "臺南市",
      "town": "安南區",
      "name": "安南",
      "temp": 30.4,
      "at": 36.833839842346876,
      "lat": 23.078333,
      "lon": 120.136667
    },
    {
      "city": "南投縣",
      "town": "仁愛鄉",
      "name": "發祥",
      "temp": 20.3,
      "at": 22.15229939448035,
      "lat": 24.155875,
      "lon": 121.156357
    },
    {
      "city": "嘉義縣",
      "town": "阿里山鄉",
      "name": "阿里山",
      "temp": 16.0,
      "at": 16.768512361099955,
      "lat": 23.509984,
      "lon": 120.805129
    },
    {
      "city": "屏東縣",
      "town": "內埔鄉",
      "name": "屏科大",
      "temp": 30.8,
      "at": 37.323214435875926,
      "lat": 22.65006,
      "lon": 120.611193
    },
    {
      "city": "彰化縣",
      "town": "彰化市",
      "name": "國一N198K",
      "temp": 30.3,
      "at": 36.47102607385803,
      "lat": 24.065639,
      "lon": 120.514899
    },
    {
      "city": "臺南市",
      "town": "白河區",
      "name": "國三S311K",
      "temp": 30.8,
      "at": 36.102857282733744,
      "lat": 23.34815,
      "lon": 120.430789
    },
    {
      "city": "嘉義縣",
      "town": "溪口鄉",
      "name": "農試溪口農場",
      "temp": 30.6,
      "at": 36.297960673607555,
      "lat": 23.587406,
      "lon": 120.399994
    },
    {
      "city": "臺南市",
      "town": "大內區",
      "name": "環湖",
      "temp": 29.1,
      "at": 34.53346782592943,
      "lat": 23.150431,
      "lon": 120.410514
    },
    {
      "city": "基隆市",
      "town": "七堵區",
      "name": "國三S007K",
      "temp": 29.6,
      "at": 36.63607411159064,
      "lat": 25.098727,
      "lon": 121.65957
    },
    {
      "city": "基隆市",
      "town": "七堵區",
      "name": "國一S006K",
      "temp": 29.7,
      "at": 35.40772429500926,
      "lat": 25.088729,
      "lon": 121.678671
    },
    {
      "city": "高雄市",
      "town": "楠梓區",
      "name": "高雄",
      "temp": 29.5,
      "at": 35.71361746119598,
      "lat": 22.732201,
      "lon": 120.304459
    },
    {
      "city": "宜蘭縣",
      "town": "大同鄉",
      "name": "出水溪",
      "temp": 29.1,
      "at": 34.49341754925777,
      "lat": 24.617617,
      "lon": 121.644058
    },
    {
      "city": "臺東縣",
      "town": "卑南鄉",
      "name": "明峰",
      "temp": 27.9,
      "at": 31.911022556822573,
      "lat": 22.868903,
      "lon": 121.110178
    },
    {
      "city": "宜蘭縣",
      "town": "羅東鎮",
      "name": "國五S047K",
      "temp": 30.3,
      "at": 35.749425015169756,
      "lat": 24.677257,
      "lon": 121.786384
    },
    {
      "city": "南投縣",
      "town": "魚池鄉",
      "name": "茶改中部分場",
      "temp": 23.1,
      "at": 27.120816063930498,
      "lat": 23.877382,
      "lon": 120.905442
    },
    {
      "city": "雲林縣",
      "town": "四湖鄉",
      "name": "四湖",
      "temp": 30.9,
      "at": 37.29479916481661,
      "lat": 23.632147,
      "lon": 120.219053
    },
    {
      "city": "南投縣",
      "town": "中寮鄉",
      "name": "中寮",
      "temp": 25.3,
      "at": 30.63664250048896,
      "lat": 23.886278,
      "lon": 120.758528
    },
    {
      "city": "屏東縣",
      "town": "長治鄉",
      "name": "高雄農改",
      "temp": 29.8,
      "at": 34.345151201377035,
      "lat": 22.711084,
      "lon": 120.517814
    },
    {
      "city": "臺中市",
      "town": "北區",
      "name": "臺中",
      "temp": 28.2,
      "at": 33.35410834512245,
      "lat": 24.147494,
      "lon": 120.675919
    },
    {
      "city": "南投縣",
      "town": "信義鄉",
      "name": "臺大內茅埔",
      "temp": 24.8,
      "at": 28.689220510864693,
      "lat": 23.691497,
      "lon": 120.842992
    },
    {
      "city": "新北市",
      "town": "坪林區",
      "name": "四堵",
      "temp": 29.5,
      "at": 31.868810347375394,
      "lat": 24.894394,
      "lon": 121.737519
    },
    {
      "city": "嘉義縣",
      "town": "中埔鄉",
      "name": "國三N303K",
      "temp": 30.5,
      "at": 37.567567824116935,
      "lat": 23.413742,
      "lon": 120.444389
    },
    {
      "city": "新北市",
      "town": "坪林區",
      "name": "國五N013K",
      "temp": 27.2,
      "at": 33.292668411336344,
      "lat": 24.949395,
      "lon": 121.697289
    },
    {
      "city": "新北市",
      "town": "瑞芳區",
      "name": "瑞芳",
      "temp": 29.4,
      "at": 35.151332175486694,
      "lat": 25.114861,
      "lon": 121.792639
    },
    {
      "city": "新竹縣",
      "town": "新豐鄉",
      "name": "西濱N066K",
      "temp": 29.5,
      "at": 34.965616383344376,
      "lat": 24.897357,
      "lon": 120.956688
    },
    {
      "city": "南投縣",
      "town": "鹿谷鄉",
      "name": "臺大溪頭",
      "temp": 19.1,
      "at": 21.675791102897108,
      "lat": 23.672071,
      "lon": 120.790065
    },
    {
      "city": "桃園市",
      "town": "楊梅區",
      "name": "茶改場",
      "temp": 29.1,
      "at": 32.87331699591445,
      "lat": 24.910258,
      "lon": 121.17713
    },
    {
      "city": "雲林縣",
      "town": "虎尾鎮",
      "name": "雲林臺大",
      "temp": 29.5,
      "at": 35.24561638334438,
      "lat": 23.732381,
      "lon": 120.415777
    },
    {
      "city": "雲林縣",
      "town": "口湖鄉",
      "name": "西濱S241K",
      "temp": 29.1,
      "at": 34.496030671769006,
      "lat": 23.625171,
      "lon": 120.164529
    },
    {
      "city": "臺北市",
      "town": "北投區",
      "name": "鞍部",
      "temp": 22.5,
      "at": 26.65998723929678,
      "lat": 25.184365,
      "lon": 121.521495
    },
    {
      "city": "新竹縣",
      "town": "關西鎮",
      "name": "國三N077K",
      "temp": 27.8,
      "at": 33.7032738897214,
      "lat": 24.799064,
      "lon": 121.181827
    },
    {
      "city": "金門縣",
      "town": "金湖鎮",
      "name": "金門(東)",
      "temp": 30.8,
      "at": 37.37178588090343,
      "lat": 24.450074,
      "lon": 118.443627
    },