{
  "meta": {
    "updated_at": "2026-07-23 09:02:02",
    "source": "CWA Auto Stations",
    "count": 851
  },
  "data": [
    {
      "city": "高雄市",
      "town": "內門區",
      "name": "內門",
      "temp": 28.9,
      "at": 36.12025530531347,
      "lat": 22.976944,
      "lon": 120.458333
    },
    {
      "city": "臺南市",
      "town": "南區",
      "name": "臺南市南區",
      "temp": 29.9,
      "at": 36.37251965297132,
      "lat": 22.963028,
      "lon": 120.180417
    },
    {
      "city": "屏東縣",
      "town": "潮州鎮",
      "name": "潮州",
      "temp": 30.2,
      "at": 36.930039796714965,
      "lat": 22.536139,
      "lon": 120.531972
    },
    {
      "city": "宜蘭縣",
      "town": "南澳鄉",
      "name": "東澳",
      "temp": 30.3,
      "at": 36.38531621299383,
      "lat": 24.523767,
      "lon": 121.824986
    },
    {
      "city": "臺南市",
      "town": "後壁區",
      "name": "後壁",
      "temp": 29.9,
      "at": 35.673769401010155,
      "lat": 23.368094,
      "lon": 120.354211
    },
    {
      "city": "嘉義市",
      "town": "東區",
      "name": "嘉義市東區",
      "temp": 30.1,
      "at": 37.047570630026655,
      "lat": 23.459414,
      "lon": 120.452408
    },
    {
      "city": "新北市",
      "town": "汐止區",
      "name": "汐止",
      "temp": 31.0,
      "at": 37.40397018268563,
      "lat": 25.068667,
      "lon": 121.650556
    },
    {
      "city": "臺東縣",
      "town": "成功鎮",
      "name": "小港漁港",
      "temp": 31.0,
      "at": 36.82848376774498,
      "lat": 23.160368,
      "lon": 121.392338
    },
    {
      "city": "臺東縣",
      "town": "鹿野鄉",
      "name": "鹿野",
      "temp": 29.4,
      "at": 35.02168718391561,
      "lat": 22.919517,
      "lon": 121.114908
    },
    {
      "city": "彰化縣",
      "town": "田尾鄉",
      "name": "田尾",
      "temp": 30.5,
      "at": 38.208351617521316,
      "lat": 23.903417,
      "lon": 120.501389
    },
    {
      "city": "苗栗縣",
      "town": "頭屋鄉",
      "name": "明德",
      "temp": 30.3,
      "at": 36.66335248038581,
      "lat": 24.58525,
      "lon": 120.877222
    },
    {
      "city": "桃園市",
      "town": "大溪區",
      "name": "大溪",
      "temp": 27.1,
      "at": 31.134017216626894,
      "lat": 24.884722,
      "lon": 121.256944
    },
    {
      "city": "屏東縣",
      "town": "內埔鄉",
      "name": "內埔",
      "temp": 31.1,
      "at": 37.31672789970765,
      "lat": 22.610267,
      "lon": 120.562662
    },
    {
      "city": "新北市",
      "town": "林口區",
      "name": "太平里",
      "temp": 30.3,
      "at": 35.68138874777778,
      "lat": 25.136709,
      "lon": 121.356668
    },
    {
      "city": "宜蘭縣",
      "town": "大同鄉",
      "name": "太平山莊",
      "temp": 20.2,
      "at": 19.62580000511645,
      "lat": 24.4959,
      "lon": 121.5281
    },
    {
      "city": "花蓮縣",
      "town": "秀林鄉",
      "name": "和中",
      "temp": 31.9,
      "at": 37.82673619426287,
      "lat": 24.268567,
      "lon": 121.732861
    },
    {
      "city": "臺中市",
      "town": "大甲區",
      "name": "松柏",
      "temp": 30.2,
      "at": 35.45657672761055,
      "lat": 24.430864,
      "lon": 120.609306
    },
    {
      "city": "苗栗縣",
      "town": "卓蘭鎮",
      "name": "卓蘭",
      "temp": 29.0,
      "at": 34.53127128317784,
      "lat": 24.314319,
      "lon": 120.816192
    },
    {
      "city": "嘉義縣",
      "town": "太保市",
      "name": "太保",
      "temp": 29.9,
      "at": 35.25876839316546,
      "lat": 23.456792,
      "lon": 120.323303
    },
    {
      "city": "彰化縣",
      "town": "溪湖鎮",
      "name": "溪湖",
      "temp": 32.8,
      "at": 39.875164765059985,
      "lat": 23.95175,
      "lon": 120.471056
    },
    {
      "city": "宜蘭縣",
      "town": "大同鄉",
      "name": "鴛鴦湖",
      "temp": 20.6,
      "at": 24.027547584354032,
      "lat": 24.592053,
      "lon": 121.404039
    },
    {
      "city": "桃園市",
      "town": "大溪區",
      "name": "大溪永福",
      "temp": 28.1,
      "at": 34.24006729971683,
      "lat": 24.894711,
      "lon": 121.316761
    },
    {
      "city": "宜蘭縣",
      "town": "大同鄉",
      "name": "玉蘭",
      "temp": 29.0,
      "at": 33.46076958052361,
      "lat": 24.677222,
      "lon": 121.578889
    },
    {
      "city": "臺東縣",
      "town": "東河鄉",
      "name": "東河",
      "temp": 32.0,
      "at": 39.49560580551689,
      "lat": 22.973611,
      "lon": 121.298333
    },
    {
      "city": "屏東縣",
      "town": "獅子鄉",
      "name": "獅子",
      "temp": 31.6,
      "at": 38.03296863821897,
      "lat": 22.204106,
      "lon": 120.69721
    },
    {
      "city": "高雄市",
      "town": "旗山區",
      "name": "旗山",
      "temp": 29.6,
      "at": 36.22692860760526,
      "lat": 22.890389,
      "lon": 120.475528
    },
    {
      "city": "高雄市",
      "town": "彌陀區",
      "name": "彌陀",
      "temp": 30.2,
      "at": 36.50426801487426,
      "lat": 22.785583,
      "lon": 120.238278
    },
    {
      "city": "彰化縣",
      "town": "埔鹽鄉",
      "name": "埔鹽",
      "temp": 30.6,
      "at": 37.37445739640819,
      "lat": 24.002167,
      "lon": 120.423583
    },
    {
      "city": "臺東縣",
      "town": "太麻里鄉",
      "name": "金崙山",
      "temp": 23.9,
      "at": 27.775627272275997,
      "lat": 22.569219,
      "lon": 120.951617
    },
    {
      "city": "高雄市",
      "town": "六龜區",
      "name": "花菓",
      "temp": 22.2,
      "at": 26.58521292468415,
      "lat": 23.03655,
      "lon": 120.67607
    },
    {
      "city": "宜蘭縣",
      "town": "壯圍鄉",
      "name": "大福",
      "temp": 30.9,
      "at": 37.91789391264797,
      "lat": 24.802436,
      "lon": 121.805683
    },
    {
      "city": "新北市",
      "town": "新莊區",
      "name": "新莊",
      "temp": 30.8,
      "at": 37.171071574619056,
      "lat": 25.05325,
      "lon": 121.438528
    },
    {
      "city": "新北市",
      "town": "土城區",
      "name": "土城",
      "temp": 27.3,
      "at": 32.49901283210174,
      "lat": 24.974944,
      "lon": 121.436917
    },
    {
      "city": "臺南市",
      "town": "新化區",
      "name": "虎頭埤",
      "temp": 29.1,
      "at": 35.53854324093691,
      "lat": 23.023139,
      "lon": 120.339806
    },
    {
      "city": "新竹縣",
      "town": "竹東鎮",
      "name": "竹東",
      "temp": 29.7,
      "at": 34.8003853393986,
      "lat": 24.76925,
      "lon": 121.049861
    },
    {
      "city": "嘉義縣",
      "town": "竹崎鄉",
      "name": "水社寮",
      "temp": 21.7,
      "at": 25.12450297410074,
      "lat": 23.50594,
      "lon": 120.65223
    },
    {
      "city": "臺南市",
      "town": "安南區",
      "name": "城西",
      "temp": 29.7,
      "at": 35.82205903391193,
      "lat": 23.058558,
      "lon": 120.087492
    },
    {
      "city": "屏東縣",
      "town": "林邊鄉",
      "name": "林邊",
      "temp": 30.9,
      "at": 37.86860966915389,
      "lat": 22.465232,
      "lon": 120.52585
    },
    {
      "city": "屏東縣",
      "town": "車城鄉",
      "name": "保力",
      "temp": 31.2,
      "at": 38.505663868566984,
      "lat": 22.072925,
      "lon": 120.756094
    },
    {
      "city": "花蓮縣",
      "town": "秀林鄉",
      "name": "新白楊",
      "temp": 18.6,
      "at": 20.24683166889306,
      "lat": 24.19999,
      "lon": 121.424797
    },
    {
      "city": "臺南市",
      "town": "北門區",
      "name": "蘆竹溝",
      "temp": 30.6,
      "at": 36.52562515547465,
      "lat": 23.236154,
      "lon": 120.088035
    },
    {
      "city": "新北市",
      "town": "瑞芳區",
      "name": "水湳洞",
      "temp": 30.1,
      "at": 36.20687263939307,
      "lat": 25.125492,
      "lon": 121.854006
    },
    {
      "city": "宜蘭縣",
      "town": "大同鄉",
      "name": "太平山",
      "temp": 19.1,
      "at": 21.074004572155122,
      "lat": 24.507222,
      "lon": 121.5175
    },
    {
      "city": "花蓮縣",
      "town": "新城鄉",
      "name": "新城",
      "temp": 30.7,
      "at": 35.65595389912893,
      "lat": 24.042289,
      "lon": 121.596724
    },
    {
      "city": "屏東縣",
      "town": "滿州鄉",
      "name": "佳樂水",
      "temp": 30.8,
      "at": 35.94750015838968,
      "lat": 21.995386,
      "lon": 120.853619
    },
    {
      "city": "宜蘭縣",
      "town": "員山鄉",
      "name": "員山",
      "temp": 30.9,
      "at": 37.28789391264797,
      "lat": 24.746147,
      "lon": 121.714269
    },
    {
      "city": "新竹縣",
      "town": "五峰鄉",
      "name": "雪霸",
      "temp": 18.0,
      "at": 20.5910180737044,
      "lat": 24.528722,
      "lon": 121.107917
    },
    {
      "city": "新北市",
      "town": "深坑區",
      "name": "深坑",
      "temp": 30.0,
      "at": 38.00109641526576,
      "lat": 25.004489,
      "lon": 121.620106
    },
    {
      "city": "嘉義縣",
      "town": "梅山鄉",
      "name": "梅山",
      "temp": 28.4,
      "at": 33.74049537647047,
      "lat": 23.587147,
      "lon": 120.547464
    },
    {
      "city": "花蓮縣",
      "town": "鳳林鎮",
      "name": "萬榮",
      "temp": 29.6,
      "at": 35.01034659166373,
      "lat": 23.711022,
      "lon": 121.411969
    },
    {
      "city": "嘉義縣",
      "town": "六腳鄉",
      "name": "六腳",
      "temp": 29.7,
      "at": 36.3233895561066,
      "lat": 23.494611,
      "lon": 120.2825
    },
    {
      "city": "花蓮縣",
      "town": "玉里鎮",
      "name": "赤柯山",
      "temp": 26.6,
      "at": 30.746908993691108,
      "lat": 23.370733,
      "lon": 121.374825
    },
    {
      "city": "高雄市",
      "town": "鼓山區",
      "name": "鼓山",
      "temp": 29.3,
      "at": 35.381990035552285,
      "lat": 22.625139,
      "lon": 120.2675
    },
    {
      "city": "屏東縣",
      "town": "里港鄉",
      "name": "里港",
      "temp": 29.3,
      "at": 35.11389271761199,
      "lat": 22.780972,
      "lon": 120.486528
    },
    {
      "city": "花蓮縣",
      "town": "秀林鄉",
      "name": "水源",
      "temp": 26.5,
      "at": 31.22701713344432,
      "lat": 23.993718,
      "lon": 121.529043
    },
    {
      "city": "新竹縣",
      "town": "橫山鄉",
      "name": "橫山",
      "temp": 29.4,
      "at": 36.31026715019995,
      "lat": 24.712925,
      "lon": 121.108733
    },
    {
      "city": "雲林縣",
      "town": "虎尾鎮",
      "name": "高鐵雲林",
      "temp": 30.6,
      "at": 36.735625155474644,
      "lat": 23.739206,
      "lon": 120.409817
    },
    {
      "city": "高雄市",
      "town": "甲仙區",
      "name": "五指寮林道3.5K",
      "temp": 25.5,
      "at": 30.490676728255316,
      "lat": 23.13855,
      "lon": 120.63219
    },
    {
      "city": "新北市",
      "town": "石門區",
      "name": "白沙灣",
      "temp": 30.4,
      "at": 36.634948405585675,
      "lat": 25.284903,
      "lon": 121.510814
    },
    {
      "city": "臺東縣",
      "town": "東河鄉",
      "name": "七塊厝",
      "temp": 30.3,
      "at": 35.749425015169756,
      "lat": 22.957525,
      "lon": 121.221089
    },
    {
      "city": "高雄市",
      "town": "阿蓮區",
      "name": "阿蓮",
      "temp": 28.9,
      "at": 35.43132895643632,
      "lat": 22.884944,
      "lon": 120.319528
    },
    {
      "city": "臺東縣",
      "town": "蘭嶼鄉",
      "name": "蘭嶼高中",
      "temp": 29.5,
      "at": 35.28041810790695,
      "lat": 22.050931,
      "lon": 121.504119
    },
    {
      "city": "臺東縣",
      "town": "海端鄉",
      "name": "下馬",
      "temp": 26.9,
      "at": 28.89299594135781,
      "lat": 23.152222,
      "lon": 121.062222
    },
    {
      "city": "臺東縣",
      "town": "成功鎮",
      "name": "白守蓮",
      "temp": 30.6,
      "at": 36.09679291454111,
      "lat": 23.12858,
      "lon": 121.393824
    },
    {
      "city": "宜蘭縣",
      "town": "大同鄉",
      "name": "翠峰湖",
      "temp": 21.2,
      "at": 22.854688437034273,
      "lat": 24.51265,
      "lon": 121.599858
    },
    {
      "city": "臺東縣",
      "town": "達仁鄉",
      "name": "勝林山",
      "temp": 26.0,
      "at": 29.372821387626104,
      "lat": 22.432239,
      "lon": 120.885742
    },
    {
      "city": "臺中市",
      "town": "豐原區",
      "name": "豐原",
      "temp": 29.6,
      "at": 34.57587393031091,
      "lat": 24.256306,
      "lon": 120.712333
    },
    {
      "city": "臺中市",
      "town": "龍井區",
      "name": "臺中電廠",
      "temp": 31.1,
      "at": 36.96672789970766,
      "lat": 24.216388,
      "lon": 120.482584
    },
    {
      "city": "雲林縣",
      "town": "西螺鎮",
      "name": "西螺",
      "temp": 30.0,
      "at": 35.83607245517363,
      "lat": 23.80215,
      "lon": 120.459253
    },
    {
      "city": "臺東縣",
      "town": "大武鄉",
      "name": "山豬窟",
      "temp": 27.7,
      "at": 31.916760646641748,
      "lat": 22.320422,
      "lon": 120.849339
    },
    {
      "city": "臺北市",
      "town": "士林區",
      "name": "社子",
      "temp": 32.3,
      "at": 39.11340648960518,
      "lat": 25.111389,
      "lon": 121.461389
    },
    {
      "city": "新北市",
      "town": "淡水區",
      "name": "淡水觀海",
      "temp": 31.2,
      "at": 37.53907434021568,
      "lat": 25.186364,
      "lon": 121.400381
    },
    {
      "city": "臺東縣",
      "town": "大武鄉",
      "name": "加津林",
      "temp": 30.1,
      "at": 34.526174648759486,
      "lat": 22.418014,
      "lon": 120.9189
    },
    {
      "city": "臺南市",
      "town": "東山區",
      "name": "東河",
      "temp": 29.4,
      "at": 35.10204219234453,
      "lat": 23.298339,
      "lon": 120.377492
    },
    {
      "city": "屏東縣",
      "town": "車城鄉",
      "name": "竹坑",
      "temp": 29.6,
      "at": 35.74054677294346,
      "lat": 22.140248,
      "lon": 120.694128
    },
    {
      "city": "高雄市",
      "town": "林園區",
      "name": "汕尾",
      "temp": 29.9,
      "at": 36.22627091277718,
      "lat": 22.479984,
      "lon": 120.407094
    },
    {
      "city": "桃園市",
      "town": "新屋區",
      "name": "中大臨海站",
      "temp": 30.5,
      "at": 36.65037862851401,
      "lat": 24.967883,
      "lon": 121.000364
    },
    {
      "city": "臺東縣",
      "town": "達仁鄉",
      "name": "南田",
      "temp": 32.3,
      "at": 38.133406489605186,
      "lat": 22.291944,
      "lon": 120.881944
    },
    {
      "city": "新北市",
      "town": "新店區",
      "name": "屈尺",
      "temp": 29.0,
      "at": 35.73752553981341,
      "lat": 24.923619,
      "lon": 121.536533
    },
    {
      "city": "高雄市",
      "town": "岡山區",
      "name": "岡山",
      "temp": 30.6,
      "at": 37.807705757808506,
      "lat": 22.798844,
      "lon": 120.286889
    },
    {
      "city": "桃園市",
      "town": "觀音區",
      "name": "觀音工業區",
      "temp": 29.5,
      "at": 34.869217676766304,
      "lat": 25.066525,
      "lon": 121.106631
    },
    {
      "city": "屏東縣",
      "town": "獅子鄉",
      "name": "內獅",
      "temp": 30.7,
      "at": 39.04554668827211,
      "lat": 22.306856,
      "lon": 120.634956
    },
    {
      "city": "花蓮縣",
      "town": "卓溪鄉",
      "name": "瑞穗林道",
      "temp": 26.5,
      "at": 30.744193461207566,
      "lat": 23.494642,
      "lon": 121.298764
    },
    {
      "city": "臺東縣",
      "town": "海端鄉",
      "name": "向陽",
      "temp": 17.0,
      "at": 17.830032790305705,
      "lat": 23.25,
      "lon": 120.978056
    },
    {
      "city": "臺東縣",
      "town": "長濱鄉",
      "name": "石寧山",
      "temp": 30.3,
      "at": 36.74317114342593,
      "lat": 23.225581,
      "lon": 121.398542
    },
    {
      "city": "高雄市",
      "town": "橋頭區",
      "name": "橋頭",
      "temp": 31.1,
      "at": 37.535313213402276,
      "lat": 22.759583,
      "lon": 120.297694
    },
    {
      "city": "花蓮縣",
      "town": "壽豐鄉",
      "name": "蕃薯寮",
      "temp": 28.4,
      "at": 33.67049537647048,
      "lat": 23.740156,
      "lon": 121.531975
    },
    {
      "city": "屏東縣",
      "town": "枋寮鄉",
      "name": "枋寮",
      "temp": 30.4,
      "at": 36.914948405585676,
      "lat": 22.369511,
      "lon": 120.582611
    },
    {
      "city": "花蓮縣",
      "town": "壽豐鄉",
      "name": "月眉山",
      "temp": 27.1,
      "at": 33.05781121315956,
      "lat": 23.811736,
      "lon": 121.531686
    },
    {
      "city": "屏東縣",
      "town": "枋山鄉",
      "name": "枋山",
      "temp": 30.0,
      "at": 34.858334291495396,
      "lat": 22.249572,
      "lon": 120.652748
    },
    {
      "city": "屏東縣",
      "town": "崁頂鄉",
      "name": "崁頂",
      "temp": 30.6,
      "at": 37.58004127594142,
      "lat": 22.516639,
      "lon": 120.498972
    },
    {
      "city": "臺東縣",
      "town": "蘭嶼鄉",
      "name": "蘭嶼燈塔",
      "temp": 31.7,
      "at": 38.852004460269846,
      "lat": 22.083031,
      "lon": 121.495094
    },
    {
      "city": "花蓮縣",
      "town": "壽豐鄉",
      "name": "水璉",
      "temp": 28.9,
      "at": 35.903312589520134,
      "lat": 23.798889,
      "lon": 121.534167
    },
    {
      "city": "南投縣",
      "town": "仁愛鄉",
      "name": "奧萬大",
      "temp": 24.9,
      "at": 28.359589912592263,
      "lat": 23.95473,
      "lon": 121.170332
    },
    {
      "city": "臺南市",
      "town": "學甲區",
      "name": "學甲",
      "temp": 31.2,
      "at": 37.95907434021568,
      "lat": 23.2321,
      "lon": 120.174072
    },
    {
      "city": "新北市",
      "town": "八里區",
      "name": "八里",
      "temp": 29.6,
      "at": 35.38692860760526,
      "lat": 25.15225,
      "lon": 121.395306
    },
    {
      "city": "嘉義縣",
      "town": "阿里山鄉",
      "name": "新美",
      "temp": 26.7,
      "at": 32.26488430318046,
      "lat": 23.339792,
      "lon": 120.675231
    },
    {
      "city": "臺東縣",
      "town": "海端鄉",
      "name": "紅石",
      "temp": 18.7,
      "at": 21.021361077888503,
      "lat": 23.070902,
      "lon": 121.11777
    },
    {
      "city": "苗栗縣",
      "town": "泰安鄉",
      "name": "馬都安",
      "temp": 23.5,
      "at": 28.265599655113277,
      "lat": 24.453056,
      "lon": 120.921944
    },
    {
      "city": "臺東縣",
      "town": "長濱鄉",
      "name": "樟原南溪",
      "temp": 28.1,
      "at": 34.339948069135254,
      "lat": 23.40411,
      "lon": 121.41507
    },
    {
      "city": "臺東縣",
      "town": "東河鄉",
      "name": "新蘭",
      "temp": 30.8,
      "at": 36.83928586650436,
      "lat": 22.871021,
      "lon": 121.215155
    },
    {
      "city": "臺東縣",
      "town": "成功鎮",
      "name": "叭嗡嗡",
      "temp": 29.8,
      "at": 35.36654691076005,
      "lat": 23.048871,
      "lon": 121.335138
    },
    {
      "city": "新北市",
      "town": "金山區",
      "name": "三和",
      "temp": 29.6,
      "at": 36.765219615576015,
      "lat": 25.234933,
      "lon": 121.586997
    },
    {
      "city": "臺南市",
      "town": "六甲區",
      "name": "王爺宮",
      "temp": 30.1,
      "at": 38.10001359724421,
      "lat": 23.223828,
      "lon": 120.392758
    },
    {
      "city": "臺南市",
      "town": "龍崎區",
      "name": "崎頂",
      "temp": 30.3,
      "at": 36.66335248038581,
      "lat": 22.961306,
      "lon": 120.361194
    },
    {
      "city": "臺東縣",
      "town": "成功鎮",
      "name": "都歷",
      "temp": 30.8,
      "at": 36.27928586650437,
      "lat": 23.022142,
      "lon": 121.315558
    },
    {
      "city": "苗栗縣",
      "town": "獅潭鄉",
      "name": "獅潭",
      "temp": 28.6,
      "at": 33.1466980893565,
      "lat": 24.541028,
      "lon": 120.911972
    },
    {
      "city": "基隆市",
      "town": "中正區",
      "name": "八斗子",
      "temp": 31.9,
      "at": 36.979367821556686,
      "lat": 25.146547,
      "lon": 121.783436
    },
    {
      "city": "桃園市",
      "town": "龜山區",
      "name": "龜山",
      "temp": 28.7,
      "at": 34.54095669690774,
      "lat": 25.030231,
      "lon": 121.378336
    },
    {
      "city": "臺中市",
      "town": "和平區",
      "name": "南湖圈谷",
      "temp": 13.6,
      "at": 10.228425571922708,
      "lat": 24.365503,
      "lon": 121.436489
    },
    {
      "city": "高雄市",
      "town": "梓官區",
      "name": "蚵仔寮",
      "temp": 30.4,
      "at": 36.54828556072747,
      "lat": 22.727414,
      "lon": 120.244618
    },
    {
      "city": "高雄市",
      "town": "永安區",
      "name": "永安",
      "temp": 30.6,
      "at": 37.015625155474645,
      "lat": 22.824944,
      "lon": 120.228806
    },
    {
      "city": "高雄市",
      "town": "路竹區",
      "name": "路竹",
      "temp": 29.7,
      "at": 35.2818874477526,
      "lat": 22.856639,
      "lon": 120.251361
    },
    {
      "city": "新北市",
      "town": "烏來區",
      "name": "福山植物園",
      "temp": 28.4,
      "at": 33.81695822323519,
      "lat": 24.762506,
      "lon": 121.573147
    },
    {
      "city": "臺南市",
      "town": "南化區",
      "name": "北寮",
      "temp": 28.8,
      "at": 35.730157868807204,
      "lat": 23.081611,
      "lon": 120.486944
    },
    {
      "city": "高雄市",
      "town": "大社區",
      "name": "大社",
      "temp": 30.5,
      "at": 37.637567824116935,
      "lat": 22.731944,
      "lon": 120.338583
    },
    {
      "city": "雲林縣",
      "town": "元長鄉",
      "name": "元長",
      "temp": 29.5,
      "at": 35.23681681448502,
      "lat": 23.644608,
      "lon": 120.311544
    },
    {
      "city": "苗栗縣",
      "town": "頭份市",
      "name": "頭份",
      "temp": 30.1,
      "at": 36.48582565344269,
      "lat": 24.69,
      "lon": 120.904167
    },
    {
      "city": "臺南市",
      "town": "白河區",
      "name": "鹿寮",
      "temp": 29.3,
      "at": 36.95033064834333,
      "lat": 23.387811,
      "lon": 120.469225
    },
    {
      "city": "臺南市",
      "town": "北門區",
      "name": "北門",
      "temp": 30.0,
      "at": 36.04426298611623,
      "lat": 23.269517,
      "lon": 120.117367
    },
    {
      "city": "嘉義縣",
      "town": "溪口鄉",
      "name": "溪口",
      "temp": 29.6,
      "at": 35.26140126895808,
      "lat": 23.605872,
      "lon": 120.395439
    },
    {
      "city": "花蓮縣",
      "town": "玉里鎮",
      "name": "德武",
      "temp": 30.9,
      "at": 36.6795571474675,
      "lat": 23.476069,
      "lon": 121.402597
    },
    {
      "city": "花蓮縣",
      "town": "玉里鎮",
      "name": "安通山",
      "temp": 25.0,
      "at": 29.12479721070781,
      "lat": 23.292536,
      "lon": 121.340419
    },
    {
      "city": "高雄市",
      "town": "湖內區",
      "name": "湖內",
      "temp": 30.8,
      "at": 36.77535729713281,
      "lat": 22.888889,
      "lon": 120.236444
    },
    {
      "city": "臺南市",
      "town": "將軍區",
      "name": "將軍",
      "temp": 30.9,
      "at": 38.00860966915389,
      "lat": 23.216733,
      "lon": 120.127656
    },
    {
      "city": "臺中市",
      "town": "和平區",
      "name": "大雪山埡口",
      "temp": 19.3,
      "at": 19.965085089233217,
      "lat": 24.2744,
      "lon": 121.0224
    },
    {
      "city": "臺南市",
      "town": "官田區",
      "name": "官田",
      "temp": 29.8,
      "at": 37.92998578375855,
      "lat": 23.195028,
      "lon": 120.307528
    },
    {
      "city": "雲林縣",
      "town": "斗南鎮",
      "name": "斗南",
      "temp": 28.9,
      "at": 34.65232077297823,
      "lat": 23.680478,
      "lon": 120.470231
    },
    {
      "city": "苗栗縣",
      "town": "通霄鎮",
      "name": "通霄",
      "temp": 31.5,
      "at": 37.52168710295706,
      "lat": 24.473639,
      "lon": 120.696444
    },
    {
      "city": "臺北市",
      "town": "士林區",
      "name": "科教館",
      "temp": 31.5,
      "at": 39.20366066095343,
      "lat": 25.098133,
      "lon": 121.508275
    },
    {
      "city": "雲林縣",
      "town": "水林鄉",
      "name": "蔦松",
      "temp": 30.7,
      "at": 37.603612882317094,
      "lat": 23.516064,
      "lon": 120.221625
    },
    {
      "city": "花蓮縣",
      "town": "卓溪鄉",
      "name": "清水林道",
      "temp": 28.0,
      "at": 30.90008768576193,
      "lat": 23.273047,
      "lon": 121.180172
    },
    {
      "city": "新竹縣",
      "town": "新豐鄉",
      "name": "新豐",
      "temp": 28.9,
      "at": 34.6793453233525,
      "lat": 24.872436,
      "lon": 120.969
    },
    {
      "city": "嘉義縣",
      "town": "阿里山鄉",
      "name": "二萬平",
      "temp": 18.9,
      "at": 20.66960700069067,
      "lat": 23.51016,
      "lon": 120.78199
    },
    {
      "city": "新北市",
      "town": "雙溪區",
      "name": "雙溪",
      "temp": 29.8,
      "at": 36.97450374714455,
      "lat": 25.037861,
      "lon": 121.856056
    },
    {
      "city": "雲林縣",
      "town": "林內鄉",
      "name": "林內",
      "temp": 29.2,
      "at": 35.3157377295813,
      "lat": 23.750436,
      "lon": 120.601508
    },
    {
      "city": "臺北市",
      "town": "士林區",
      "name": "平等",
      "temp": 26.4,
      "at": 33.442496236659075,
      "lat": 25.130925,
      "lon": 121.568856
    },
    {
      "city": "臺南市",
      "town": "關廟區",
      "name": "關廟",
      "temp": 31.1,
      "at": 37.84965446818077,
      "lat": 22.964861,
      "lon": 120.319722
    },
    {
      "city": "桃園市",
      "town": "中壢區",
      "name": "中壢",
      "temp": 28.7,
      "at": 33.62044296923548,
      "lat": 24.979428,
      "lon": 121.248156
    },
    {
      "city": "高雄市",
      "town": "茂林區",
      "name": "萬山",
      "temp": 27.6,
      "at": 32.58070039743912,
      "lat": 22.907694,
      "lon": 120.68
    },
    {
      "city": "臺南市",
      "town": "新營區",
      "name": "新營",
      "temp": 30.6,
      "at": 37.57562515547465,
      "lat": 23.312447,
      "lon": 120.308586
    },
    {
      "city": "新北市",
      "town": "貢寮區",
      "name": "澳底",
      "temp": 28.9,
      "at": 33.89132895643632,
      "lat": 25.056993,
      "lon": 121.917036
    },
    {
      "city": "臺東縣",
      "town": "金峰鄉",
      "name": "金峰嘉蘭",
      "temp": 30.7,
      "at": 35.50547044764018,
      "lat": 22.596589,
      "lon": 120.952772
    },
    {
      "city": "臺南市",
      "town": "安平區",
      "name": "安平",
      "temp": 31.0,
      "at": 36.051051693041686,
      "lat": 22.994972,
      "lon": 120.144111
    },
    {
      "city": "臺東縣",
      "town": "太麻里鄉",
      "name": "美和",
      "temp": 29.6,
      "at": 34.97778310361988,
      "lat": 22.683881,
      "lon": 121.052177
    },
    {
      "city": "彰化縣",
      "town": "線西鄉",
      "name": "線西",
      "temp": 30.4,
      "at": 36.13383984234688,
      "lat": 24.141081,
      "lon": 120.435381
    },
    {
      "city": "新竹縣",
      "town": "五峰鄉",
      "name": "大坪苗圃",
      "temp": 21.7,
      "at": 24.502766579634773,
      "lat": 24.5379,
      "lon": 121.1026
    },
    {
      "city": "臺中市",
      "town": "神岡區",
      "name": "神岡",
      "temp": 29.2,
      "at": 33.38262297421816,
      "lat": 24.274222,
      "lon": 120.650306
    },
    {
      "city": "新北市",
      "town": "汐止區",
      "name": "五指山",
      "temp": 26.2,
      "at": 32.59230422386195,
      "lat": 25.133889,
      "lon": 121.600278
    },
    {
      "city": "高雄市",
      "town": "桃源區",
      "name": "美瓏山",
      "temp": 22.4,
      "at": 25.927015881954894,
      "lat": 23.12148,
      "lon": 120.73922
    },
    {
      "city": "雲林縣",
      "town": "口湖鄉",
      "name": "箔子寮",
      "temp": 30.2,
      "at": 35.532348509451246,
      "lat": 23.621487,
      "lon": 120.13192
    },
    {
      "city": "屏東縣",
      "town": "三地門鄉",
      "name": "上德文",
      "temp": 23.9,
      "at": 27.762840427372137,
      "lat": 22.76515,
      "lon": 120.696523
    },
    {
      "city": "新竹市",
      "town": "北區",
      "name": "海天一線",
      "temp": 29.9,
      "at": 35.667520660816,
      "lat": 24.833742,
      "lon": 120.906231
    },
    {
      "city": "花蓮縣",
      "town": "秀林鄉",
      "name": "立霧山",
      "temp": 23.1,
      "at": 26.07470725540643,
      "lat": 24.185061,
      "lon": 121.633735
    },
    {
      "city": "臺東縣",
      "town": "臺東市",
      "name": "知本(水試所)",
      "temp": 33.9,
      "at": 40.784866075128065,
      "lat": 22.704053,
      "lon": 121.074603
    },
    {
      "city": "屏東縣",
      "town": "佳冬鄉",
      "name": "塭仔",
      "temp": 30.8,
      "at": 35.58250012959155,
      "lat": 22.418718,
      "lon": 120.511622
    },
    {
      "city": "彰化縣",
      "town": "秀水鄉",
      "name": "秀水",
      "temp": 31.3,
      "at": 38.14087153980108,
      "lat": 24.035917,
      "lon": 120.495722
    },
    {
      "city": "花蓮縣",
      "town": "壽豐鄉",
      "name": "鯉魚潭",
      "temp": 28.1,
      "at": 34.074888453844466,
      "lat": 23.937444,
      "lon": 121.500806
    },
    {
      "city": "花蓮縣",
      "town": "瑞穗鄉",
      "name": "瑞穗",
      "temp": 28.0,
      "at": 33.759787965304,
      "lat": 23.525708,
      "lon": 121.382086
    },
    {
      "city": "南投縣",
      "town": "仁愛鄉",
      "name": "廬山",
      "temp": 22.4,
      "at": 24.81889701745061,
      "lat": 24.035,
      "lon": 121.173333
    },
    {
      "city": "臺南市",
      "town": "左鎮區",
      "name": "左鎮",
      "temp": 30.5,
      "at": 36.860378628514006,
      "lat": 23.058528,
      "lon": 120.400444
    },
    {
      "city": "嘉義縣",
      "town": "竹崎鄉",
      "name": "交力坪",
      "temp": 24.0,
      "at": 27.561884560351633,
      "lat": 23.53344,
      "lon": 120.63544
    },
    {
      "city": "雲林縣",
      "town": "土庫鎮",
      "name": "土庫",
      "temp": 29.9,
      "at": 35.95501914904898,
      "lat": 23.680772,
      "lon": 120.387436
    },
    {
      "city": "高雄市",
      "town": "茄萣區",
      "name": "茄萣",
      "temp": 32.1,
      "at": 39.175648426832026,
      "lat": 22.908444,
      "lon": 120.174583
    },
    {
      "city": "屏東縣",
      "town": "霧臺鄉",
      "name": "阿禮",
      "temp": 22.1,
      "at": 24.683468873611357,
      "lat": 22.744444,
      "lon": 120.735556
    },
    {
      "city": "宜蘭縣",
      "town": "員山鄉",
      "name": "雙連埤",
      "temp": 26.7,
      "at": 32.88632172268748,
      "lat": 24.754722,
      "lon": 121.633056
    },
    {
      "city": "屏東縣",
      "town": "車城鄉",
      "name": "車城",
      "temp": 29.9,
      "at": 36.44126990493249,
      "lat": 22.075833,
      "lon": 120.708056
    },
    {
      "city": "新北市",
      "town": "五股區",
      "name": "五股",
      "temp": 30.1,
      "at": 37.39931560661062,
      "lat": 25.076228,
      "lon": 121.419053
    },
    {
      "city": "澎湖縣",
      "town": "七美鄉",
      "name": "七美",
      "temp": 28.7,
      "at": 34.0753056925128,
      "lat": 23.221053,
      "lon": 119.436809
    },
    {
      "city": "臺中市",
      "town": "南屯區",
      "name": "南屯",
      "temp": 30.6,
      "at": 35.93912843267402,
      "lat": 24.138861,
      "lon": 120.630111
    },
    {
      "city": "臺北市",
      "town": "北投區",
      "name": "石牌",
      "temp": 30.4,
      "at": 37.25106270153718,
      "lat": 25.117336,
      "lon": 121.504825
    },
    {
      "city": "屏東縣",
      "town": "琉球鄉",
      "name": "琉球嶼",
      "temp": 30.2,
      "at": 36.722348509451244,
      "lat": 22.334025,
      "lon": 120.354194
    },
    {
      "city": "臺中市",
      "town": "和平區",
      "name": "雪山橋",
      "temp": 20.5,
      "at": 22.528209867433407,
      "lat": 24.2336,
      "lon": 120.9704
    },
    {
      "city": "高雄市",
      "town": "前鎮區",
      "name": "前鎮",
      "temp": 30.0,
      "at": 35.905167720644926,
      "lat": 22.573925,
      "lon": 120.303144
    },
    {
      "city": "花蓮縣",
      "town": "壽豐鄉",
      "name": "鹽寮",
      "temp": 31.2,
      "at": 36.84850592827423,
      "lat": 23.847418,
      "lon": 121.584524
    },
    {
      "city": "臺南市",
      "town": "麻豆區",
      "name": "麻豆",
      "temp": 30.4,
      "at": 37.13327982801477,
      "lat": 23.185056,
      "lon": 120.2405
    },
    {
      "city": "南投縣",
      "town": "信義鄉",
      "name": "信義",
      "temp": 27.3,
      "at": 31.774748888490294,
      "lat": 23.691389,
      "lon": 120.842778
    },
    {
      "city": "臺東縣",
      "town": "卑南鄉",
      "name": "檳榔四格山",
      "temp": 28.9,
      "at": 35.3793453233525,
      "lat": 22.811789,
      "lon": 121.101247
    },
    {
      "city": "金門縣",
      "town": "烈嶼鄉",
      "name": "九宮",
      "temp": 28.2,
      "at": 34.400930014146944,
      "lat": 24.425386,
      "lon": 118.232031
    },
    {
      "city": "宜蘭縣",
      "town": "頭城鎮",
      "name": "石城",
      "temp": 30.2,
      "at": 36.58119415308311,
      "lat": 24.982247,
      "lon": 121.942992
    },
    {
      "city": "苗栗縣",
      "town": "通霄鎮",
      "name": "白沙屯",
      "temp": 29.8,
      "at": 34.53063323799105,
      "lat": 24.551198,
      "lon": 120.688617
    },
    {
      "city": "桃園市",
      "town": "觀音區",
      "name": "新興坑尾",
      "temp": 29.1,
      "at": 33.20346782592943,
      "lat": 25.007827,
      "lon": 121.088851
    },
    {
      "city": "花蓮縣",
      "town": "卓溪鄉",
      "name": "卓溪",
      "temp": 28.4,
      "at": 33.6897020310293,
      "lat": 23.346133,
      "lon": 121.294748
    },
    {
      "city": "彰化縣",
      "town": "二水鄉",
      "name": "二水",
      "temp": 29.9,
      "at": 36.577520660816,
      "lat": 23.812778,
      "lon": 120.609028
    },
    {
      "city": "新北市",
      "town": "樹林區",
      "name": "山佳",
      "temp": 29.8,
      "at": 36.68837425629805,
      "lat": 24.976719,
      "lon": 121.393789
    },
    {
      "city": "臺東縣",
      "town": "達仁鄉",
      "name": "達仁林場",
      "temp": 27.3,
      "at": 33.42518879450937,
      "lat": 22.266147,
      "lon": 120.815942
    },
    {
      "city": "新北市",
      "town": "貢寮區",
      "name": "三貂角",
      "temp": 33.5,
      "at": 40.0656387347629,
      "lat": 25.009444,
      "lon": 121.993889
    },
    {
      "city": "嘉義縣",
      "town": "鹿草鄉",
      "name": "鹿草",
      "temp": 30.3,
      "at": 36.38335248038581,
      "lat": 23.413075,
      "lon": 120.300231
    },
    {
      "city": "澎湖縣",
      "town": "湖西鄉",
      "name": "湖西",
      "temp": 29.1,
      "at": 34.341055810104834,
      "lat": 23.598035,
      "lon": 119.664639
    },
    {
      "city": "嘉義縣",
      "town": "義竹鄉",
      "name": "東後寮",
      "temp": 30.3,
      "at": 37.731026073858025,
      "lat": 23.371644,
      "lon": 120.239936
    },
    {
      "city": "嘉義縣",
      "town": "水上鄉",
      "name": "水上",
      "temp": 29.5,
      "at": 35.51681681448502,
      "lat": 23.421475,
      "lon": 120.380792
    },
    {
      "city": "宜蘭縣",
      "town": "南澳鄉",
      "name": "西帽山",
      "temp": 29.2,
      "at": 34.64934428537737,
      "lat": 24.557164,
      "lon": 121.794436
    },
    {
      "city": "臺東縣",
      "town": "海端鄉",
      "name": "龍泉苗圃",
      "temp": 28.9,
      "at": 33.902402607559154,
      "lat": 23.1684,
      "lon": 121.17201
    },
    {
      "city": "臺中市",
      "town": "龍井區",
      "name": "龍井",
      "temp": 30.4,
      "at": 35.77550841991778,
      "lat": 24.186278,
      "lon": 120.520833
    },
    {
      "city": "高雄市",
      "town": "燕巢區",
      "name": "阿公店",
      "temp": 30.2,
      "at": 38.55389207313265,
      "lat": 22.805944,
      "lon": 120.347444
    },
    {
      "city": "臺南市",
      "town": "柳營區",
      "name": "柳營",
      "temp": 29.9,
      "at": 35.25626889708781,
      "lat": 23.255089,
      "lon": 120.367158
    },
    {
      "city": "花蓮縣",
      "town": "萬榮鄉",
      "name": "虎頭山",
      "temp": 25.2,
      "at": 29.287612768514386,
      "lat": 23.53029,
      "lon": 121.331805
    },
    {
      "city": "高雄市",
      "town": "新興區",
      "name": "新興",
      "temp": 29.4,
      "at": 35.77097716705778,
      "lat": 22.629111,
      "lon": 120.290583
    },
    {
      "city": "臺中市",
      "town": "大里區",
      "name": "大里",
      "temp": 28.9,
      "at": 33.9273616902687,
      "lat": 24.094389,
      "lon": 120.692194
    },
    {
      "city": "桃園市",
      "town": "大園區",
      "name": "竹圍",
      "temp": 30.0,
      "at": 35.413810618851876,
      "lat": 25.114458,
      "lon": 121.231594
    },
    {
      "city": "屏東縣",
      "town": "萬巒鄉",
      "name": "赤山",
      "temp": 29.9,
      "at": 37.27377141669952,
      "lat": 22.594139,
      "lon": 120.60625
    },
    {
      "city": "南投縣",
      "town": "埔里鎮",
      "name": "埔里",
      "temp": 25.5,
      "at": 30.271220326956218,
      "lat": 23.973944,
      "lon": 120.944278
    },
    {
      "city": "新竹縣",
      "town": "新豐鄉",
      "name": "外湖",
      "temp": 29.0,
      "at": 34.238774120934885,
      "lat": 24.919492,
      "lon": 120.960497
    },
    {
      "city": "苗栗縣",
      "town": "通霄鎮",
      "name": "通霄漁港",
      "temp": 31.1,
      "at": 36.37238664492915,
      "lat": 24.500339,
      "lon": 120.665694
    },
    {
      "city": "嘉義縣",
      "town": "阿里山鄉",
      "name": "達邦",
      "temp": 24.3,
      "at": 27.4572260310135,
      "lat": 23.455769,
      "lon": 120.741403
    },
    {
      "city": "基隆市",
      "town": "七堵區",
      "name": "七堵",
      "temp": 31.0,
      "at": 38.36042942750761,
      "lat": 25.096608,
      "lon": 121.708897
    },
    {
      "city": "新竹縣",
      "town": "關西鎮",
      "name": "關西",
      "temp": 29.3,
      "at": 35.35364942276124,
      "lat": 24.799421,
      "lon": 121.165033
    },
    {
      "city": "臺東縣",
      "town": "長濱鄉",
      "name": "長濱漁港",
      "temp": 30.2,
      "at": 35.32119415308311,
      "lat": 23.315454,
      "lon": 121.451891
    },
    {
      "city": "屏東縣",
      "town": "枋山鄉",
      "name": "加祿堂",
      "temp": 30.3,
      "at": 35.68138874777778,
      "lat": 22.338096,
      "lon": 120.613688
    },
    {
      "city": "桃園市",
      "town": "龍潭區",
      "name": "龍潭",
      "temp": 28.1,
      "at": 33.48970960797211,
      "lat": 24.871833,
      "lon": 121.213194
    },
    {
      "city": "臺南市",
      "town": "鹽水區",
      "name": "鹽水",
      "temp": 29.9,
      "at": 36.16126990493249,
      "lat": 23.274339,
      "lon": 120.239506
    },
    {
      "city": "南投縣",
      "town": "集集鎮",
      "name": "集集",
      "temp": 28.1,
      "at": 32.76453076209975,
      "lat": 23.829972,
      "lon": 120.793328
    },
    {
      "city": "彰化縣",
      "town": "和美鎮",
      "name": "和美",
      "temp": 30.9,
      "at": 36.427178156142055,
      "lat": 24.106919,
      "lon": 120.483978
    },
    {
      "city": "宜蘭縣",
      "town": "五結鄉",
      "name": "五結",
      "temp": 29.3,
      "at": 34.67150344585079,
      "lat": 24.688722,
      "lon": 121.790222
    },
    {
      "city": "嘉義縣",
      "town": "大埔鄉",
      "name": "表湖",
      "temp": 24.7,
      "at": 30.28593708805839,
      "lat": 23.243628,
      "lon": 120.633564
    },
    {
      "city": "嘉義縣",
      "town": "阿里山鄉",
      "name": "茶山",
      "temp": 25.8,
      "at": 30.09229735435354,
      "lat": 23.300847,
      "lon": 120.656664
    },
    {
      "city": "花蓮縣",
      "town": "富里鄉",
      "name": "東里",
      "temp": 30.6,
      "at": 36.07912843267402,
      "lat": 23.270336,
      "lon": 121.297364
    },
    {
      "city": "嘉義縣",
      "town": "中埔鄉",
      "name": "中埔",
      "temp": 29.6,
      "at": 35.34587393031091,
      "lat": 23.427144,
      "lon": 120.514797
    },
    {
      "city": "花蓮縣",
      "town": "秀林鄉",
      "name": "天祥",
      "temp": 27.9,
      "at": 31.741272581821924,
      "lat": 24.181389,
      "lon": 121.4875
    },
    {
      "city": "臺南市",
      "town": "白河區",
      "name": "關子嶺",
      "temp": 28.5,
      "at": 34.61166888054146,
      "lat": 23.332933,
      "lon": 120.499931
    },
    {
      "city": "宜蘭縣",
      "town": "礁溪鄉",
      "name": "大礁溪",
      "temp": 27.6,
      "at": 33.17775648530645,
      "lat": 24.792836,
      "lon": 121.666839
    },
    {
      "city": "屏東縣",
      "town": "牡丹鄉",
      "name": "牡丹",
      "temp": 27.9,
      "at": 35.104136140914825,
      "lat": 22.131817,
      "lon": 120.784589
    },
    {
      "city": "高雄市",
      "town": "三民區",
      "name": "三民",
      "temp": 29.5,
      "at": 36.754817892336625,
      "lat": 22.646917,
      "lon": 120.303278
    },
    {
      "city": "南投縣",
      "town": "仁愛鄉",
      "name": "昆陽",
      "temp": 13.7,
      "at": 12.742863611254553,
      "lat": 24.123139,
      "lon": 121.265361
    },
    {
      "city": "屏東縣",
      "town": "瑪家鄉",
      "name": "瑪家",
      "temp": 24.5,
      "at": 29.86940193937305,
      "lat": 22.684722,
      "lon": 120.678889
    },
    {
      "city": "南投縣",
      "town": "國姓鄉",
      "name": "國姓",
      "temp": 27.5,
      "at": 32.58892655481352,
      "lat": 24.039567,
      "lon": 120.846925
    },
    {
      "city": "臺南市",
      "town": "安南區",
      "name": "四草",
      "temp": 30.6,
      "at": 36.38120903500788,
      "lat": 23.025295,
      "lon": 120.103558
    },
    {
      "city": "臺東縣",
      "town": "長濱鄉",
      "name": "長濱",
      "temp": 30.2,
      "at": 36.5054223712424,
      "lat": 23.288611,
      "lon": 121.403889
    },
    {
      "city": "高雄市",
      "town": "大樹區",
      "name": "溪埔",
      "temp": 31.0,
      "at": 36.93751093786366,
      "lat": 22.740278,
      "lon": 120.438611
    },
    {
      "city": "雲林縣",
      "town": "二崙鄉",
      "name": "二崙",
      "temp": 30.0,
      "at": 36.044715353380575,
      "lat": 23.77455,
      "lon": 120.400811
    },
    {
      "city": "桃園市",
      "town": "蘆竹區",
      "name": "蘆竹",
      "temp": 30.2,
      "at": 35.035422371242404,
      "lat": 25.086111,
      "lon": 121.2575
    },
    {
      "city": "宜蘭縣",
      "town": "大同鄉",
      "name": "翠峰林道6K",
      "temp": 18.3,
      "at": 19.62608440191041,
      "lat": 24.4995,
      "lon": 121.5604
    },
    {
      "city": "基隆市",
      "town": "安樂區",
      "name": "大武崙",
      "temp": 29.9,
      "at": 35.532519652971324,
      "lat": 25.168464,
      "lon": 121.698758
    },
    {
      "city": "新竹市",
      "town": "香山區",
      "name": "香山濕地",
      "temp": 29.4,
      "at": 35.529912141771035,
      "lat": 24.785386,
      "lon": 120.906781
    },
    {
      "city": "宜蘭縣",
      "town": "大同鄉",
      "name": "土場",
      "temp": 27.6,
      "at": 32.04745279284214,
      "lat": 24.578356,
      "lon": 121.487153
    },
    {
      "city": "桃園市",
      "town": "復興區",
      "name": "復興",
      "temp": 25.1,
      "at": 29.697009652851726,
      "lat": 24.822,
      "lon": 121.344094
    },
    {
      "city": "臺東縣",
      "town": "池上鄉",
      "name": "池上",
      "temp": 28.0,
      "at": 33.11510960720241,
      "lat": 23.121389,
      "lon": 121.201667
    },
    {
      "city": "屏東縣",
      "town": "萬丹鄉",
      "name": "萬丹",
      "temp": 29.8,
      "at": 35.85859007437554,
      "lat": 22.590256,
      "lon": 120.477031
    },
    {
      "city": "桃園市",
      "town": "復興區",
      "name": "四稜",
      "temp": 20.4,
      "at": 23.50886013776102,
      "lat": 24.6796,
      "lon": 121.4211
    },
    {
      "city": "屏東縣",
      "town": "牡丹鄉",
      "name": "牡丹池山",
      "temp": 26.4,
      "at": 30.937021650626583,
      "lat": 22.170192,
      "lon": 120.8332
    },
    {
      "city": "屏東縣",
      "town": "滿州鄉",
      "name": "滿州",
      "temp": 29.6,
      "at": 35.10331044226705,
      "lat": 22.026208,
      "lon": 120.831875
    },
    {
      "city": "臺中市",
      "town": "和平區",
      "name": "小雪山林道",
      "temp": 17.3,
      "at": 17.90141572652151,
      "lat": 24.2968,
      "lon": 121.0283
    },
    {
      "city": "宜蘭縣",
      "town": "大同鄉",
      "name": "太平山中間站",
      "temp": 26.9,
      "at": 31.76139417031394,
      "lat": 24.5437,
      "lon": 121.5052
    },
    {
      "city": "嘉義縣",
      "town": "朴子市",
      "name": "朴子",
      "temp": 28.7,
      "at": 34.397360603201875,
      "lat": 23.436364,
      "lon": 120.230928
    },
    {
      "city": "屏東縣",
      "town": "竹田鄉",
      "name": "竹田",
      "temp": 30.4,
      "at": 37.47217126477597,
      "lat": 22.586642,
      "lon": 120.535392
    },
    {
      "city": "嘉義縣",
      "town": "民雄鄉",
      "name": "民雄",
      "temp": 29.8,
      "at": 35.654719565222045,
      "lat": 23.553497,
      "lon": 120.420331
    },
    {
      "city": "彰化縣",
      "town": "大城鄉",
      "name": "大城",
      "temp": 29.7,
      "at": 35.489054817203936,
      "lat": 23.854225,
      "lon": 120.312789
    },
    {
      "city": "宜蘭縣",
      "town": "南澳鄉",
      "name": "西德山",
      "temp": 28.4,
      "at": 32.41067726220577,
      "lat": 24.562447,
      "lon": 121.744417
    },
    {
      "city": "桃園市",
      "town": "八德區",
      "name": "八德",
      "temp": 28.7,
      "at": 34.07198415225227,
      "lat": 24.930528,
      "lon": 121.275
    },
    {
      "city": "花蓮縣",
      "town": "光復鄉",
      "name": "光復",
      "temp": 31.0,
      "at": 36.618794900512015,
      "lat": 23.662497,
      "lon": 121.416839
    },
    {
      "city": "苗栗縣",
      "town": "後龍鎮",
      "name": "高鐵苗栗",
      "temp": 30.4,
      "at": 36.54550841991777,
      "lat": 24.609,
      "lon": 120.817906
    },
    {
      "city": "新北市",
      "town": "坪林區",
      "name": "坪林",
      "temp": 26.4,
      "at": 33.04314646245953,
      "lat": 24.939975,
      "lon": 121.701531
    },
    {
      "city": "彰化縣",
      "town": "社頭鄉",
      "name": "社頭",
      "temp": 30.7,
      "at": 37.349821511038975,
      "lat": 23.899417,
      "lon": 120.578083
    },
    {
      "city": "屏東縣",
      "town": "麟洛鄉",
      "name": "麟洛",
      "temp": 30.7,
      "at": 38.055063236783354,
      "lat": 22.652556,
      "lon": 120.519139
    },
    {
      "city": "南投縣",
      "town": "仁愛鄉",
      "name": "梅峰",
      "temp": 21.4,
      "at": 23.020155154761028,
      "lat": 24.087056,
      "lon": 121.165414
    },
    {
      "city": "臺東縣",
      "town": "太麻里鄉",
      "name": "大溪山",
      "temp": 27.8,
      "at": 33.527481654251844,
      "lat": 22.48,
      "lon": 120.935278
    },
    {
      "city": "臺北市",
      "town": "松山區",
      "name": "松山",
      "temp": 29.9,
      "at": 35.81501914904898,
      "lat": 25.050492,
      "lon": 121.542203
    },
    {
      "city": "雲林縣",
      "town": "斗六市",
      "name": "斗六",
      "temp": 29.0,
      "at": 34.313021566953545,
      "lat": 23.722303,
      "lon": 120.532972
    },
    {
      "city": "雲林縣",
      "town": "北港鎮",
      "name": "北港",
      "temp": 29.3,
      "at": 35.18389271761198,
      "lat": 23.575803,
      "lon": 120.283672
    },
    {
      "city": "雲林縣",
      "town": "莿桐鄉",
      "name": "莿桐",
      "temp": 30.4,
      "at": 36.329954138298376,
      "lat": 23.762947,
      "lon": 120.494247
    },
    {
      "city": "臺東縣",
      "town": "綠島鄉",
      "name": "牛頭山",
      "temp": 30.9,
      "at": 36.23789391264797,
      "lat": 22.678485,
      "lon": 121.498883
    },
    {
      "city": "苗栗縣",
      "town": "後龍鎮",
      "name": "海埔",
      "temp": 29.9,
      "at": 34.34376940101015,
      "lat": 24.650519,
      "lon": 120.764242
    },
    {
      "city": "臺南市",
      "town": "安定區",
      "name": "安定",
      "temp": 31.3,
      "at": 38.48256382681198,
      "lat": 23.104417,
      "lon": 120.219972
    },
    {
      "city": "臺南市",
      "town": "仁德區",
      "name": "仁德",
      "temp": 30.0,
      "at": 37.163810618851876,
      "lat": 22.970111,
      "lon": 120.249778
    },
    {
      "city": "澎湖縣",
      "town": "西嶼鄉",
      "name": "西嶼",
      "temp": 28.4,
      "at": 33.23128872191163,
      "lat": 23.564311,
      "lon": 119.460328
    },
    {
      "city": "新北市",
      "town": "萬里區",
      "name": "大坪",
      "temp": 28.4,
      "at": 34.071470607646944,
      "lat": 25.167694,
      "lon": 121.62475
    },
    {
      "city": "臺中市",
      "town": "和平區",
      "name": "桃山",
      "temp": 14.4,
      "at": 13.059577009900874,
      "lat": 24.434519,
      "lon": 121.295628
    },
    {
      "city": "花蓮縣",
      "town": "玉里鎮",
      "name": "玉里",
      "temp": 29.9,
      "at": 35.67876839316546,
      "lat": 23.323306,
      "lon": 121.331556
    },
    {
      "city": "連江縣",
      "town": "莒光鄉",
      "name": "東莒",
      "temp": 27.4,
      "at": 31.165472409483314,
      "lat": 25.966883,
      "lon": 119.9724
    },
    {
      "city": "臺中市",
      "town": "和平區",
      "name": "大雪山",
      "temp": 18.6,
      "at": 19.469669178356476,
      "lat": 24.2562,
      "lon": 120.9991
    },
    {
      "city": "苗栗縣",
      "town": "泰安鄉",
      "name": "雪見",
      "temp": 17.5,
      "at": 18.170171727328583,
      "lat": 24.4277,
      "lon": 121.0052
    },
    {
      "city": "新竹縣",
      "town": "五峰鄉",
      "name": "樂山林道6k",
      "temp": 17.9,
      "at": 19.55956399223569,
      "lat": 24.5017,
      "lon": 121.0795
    },
    {
      "city": "屏東縣",
      "town": "春日鄉",
      "name": "大漢山",
      "temp": 20.3,
      "at": 20.312721849066374,
      "lat": 22.405861,
      "lon": 120.745083
    },
    {
      "city": "花蓮縣",
      "town": "瑞穗鄉",
      "name": "舞鶴",
      "temp": 27.1,
      "at": 32.30591421489323,
      "lat": 23.469722,
      "lon": 121.365833
    },
    {
      "city": "宜蘭縣",
      "town": "大同鄉",
      "name": "多加屯",
      "temp": 14.6,
      "at": 14.646203070535034,
      "lat": 24.3704,
      "lon": 121.365011
    },
    {
      "city": "臺中市",
      "town": "和平區",
      "name": "小雪山天池",
      "temp": 17.0,
      "at": 16.92445818924661,
      "lat": 24.2825,
      "lon": 121.0182
    },
    {
      "city": "屏東縣",
      "town": "滿州鄉",
      "name": "興海",
      "temp": 29.3,
      "at": 34.18008735349258,
      "lat": 21.976985,
      "lon": 120.835907
    },
    {
      "city": "花蓮縣",
      "town": "卓溪鄉",
      "name": "佳心",
      "temp": 25.8,
      "at": 29.05227065113194,
      "lat": 23.347464,
      "lon": 121.205061
    },
    {
      "city": "屏東縣",
      "town": "牡丹鄉",
      "name": "旭海",
      "temp": 29.0,
      "at": 34.17702383715918,
      "lat": 22.207208,
      "lon": 120.879586
    },
    {
      "city": "宜蘭縣",
      "town": "頭城鎮",
      "name": "桃源谷",
      "temp": 30.0,
      "at": 35.276524822437985,
      "lat": 24.964408,
      "lon": 121.880658
    },
    {
      "city": "臺東縣",
      "town": "東河鄉",
      "name": "興隆",
      "temp": 30.9,
      "at": 36.5740834083107,
      "lat": 22.915469,
      "lon": 121.249394
    },
    {
      "city": "基隆市",
      "town": "中正區",
      "name": "基隆嶼",
      "temp": 31.0,
      "at": 37.63751093786366,
      "lat": 25.1932,
      "lon": 121.775678
    },
    {
      "city": "苗栗縣",
      "town": "造橋鄉",
      "name": "造橋",
      "temp": 31.5,
      "at": 38.16368269595645,
      "lat": 24.63875,
      "lon": 120.856583
    },
    {
      "city": "高雄市",
      "town": "仁武區",
      "name": "仁武",
      "temp": 30.1,
      "at": 36.62757063002665,
      "lat": 22.702861,
      "lon": 120.339667
    },
    {
      "city": "花蓮縣",
      "town": "花蓮市",
      "name": "花蓮漁港",
      "temp": 28.5,
      "at": 30.611689837469214,
      "lat": 23.997128,
      "lon": 121.63018
    },
    {
      "city": "屏東縣",
      "town": "新園鄉",
      "name": "新園",
      "temp": 31.0,
      "at": 37.295254145333985,
      "lat": 22.545194,
      "lon": 120.4535
    },
    {
      "city": "屏東縣",
      "town": "南州鄉",
      "name": "南州",
      "temp": 30.5,
      "at": 36.57318943291108,
      "lat": 22.487694,
      "lon": 120.494694
    },
    {
      "city": "花蓮縣",
      "town": "豐濱鄉",
      "name": "加路蘭山",
      "temp": 29.3,
      "at": 34.30364942276124,
      "lat": 23.684706,
      "lon": 121.519219
    },
    {
      "city": "屏東縣",
      "town": "牡丹鄉",
      "name": "四林格山",
      "temp": 27.4,
      "at": 31.78572115536892,
      "lat": 22.078792,
      "lon": 120.794419
    },
    {
      "city": "新北市",
      "town": "板橋區",
      "name": "板橋",
      "temp": 30.8,
      "at": 36.312857282733745,
      "lat": 25.012431,
      "lon": 121.440638
    },
    {
      "city": "嘉義縣",
      "town": "東石鄉",
      "name": "東石",
      "temp": 30.3,
      "at": 37.09513487603395,
      "lat": 23.460653,
      "lon": 120.145722
    },
    {
      "city": "新竹縣",
      "town": "湖口鄉",
      "name": "湖口",
      "temp": 29.0,
      "at": 34.49827241828066,
      "lat": 24.906556,
      "lon": 121.035417
    },
    {
      "city": "宜蘭縣",
      "town": "頭城鎮",
      "name": "龜山島",
      "temp": 27.7,
      "at": 33.36767179766901,
      "lat": 24.843392,
      "lon": 121.944947
    },
    {
      "city": "宜蘭縣",
      "town": "頭城鎮",
      "name": "鶯子嶺",
      "temp": 26.9,
      "at": 29.569395646183835,
      "lat": 24.899333,
      "lon": 121.784231
    },
    {
      "city": "花蓮縣",
      "town": "富里鄉",
      "name": "明里",
      "temp": 28.3,
      "at": 33.328583270573326,
      "lat": 23.210556,
      "lon": 121.254167
    },
    {
      "city": "新北市",
      "town": "三芝區",
      "name": "田寮",
      "temp": 30.4,
      "at": 35.92661698315658,
      "lat": 25.271575,
      "lon": 121.480355
    },
    {
      "city": "花蓮縣",
      "town": "鳳林鎮",
      "name": "鳳林",
      "temp": 29.7,
      "at": 35.29605060049593,
      "lat": 23.747917,
      "lon": 121.445278
    },
    {
      "city": "南投縣",
      "town": "信義鄉",
      "name": "神木村",
      "temp": 21.6,
      "at": 24.312799132851957,
      "lat": 23.534519,
      "lon": 120.835553
    },
    {
      "city": "花蓮縣",
      "town": "萬榮鄉",
      "name": "光復林道16K",
      "temp": 24.6,
      "at": 28.575714924303163,
      "lat": 23.66881,
      "lon": 121.36136
    },
    {
      "city": "臺中市",
      "town": "和平區",
      "name": "八仙山苗圃",
      "temp": 22.4,
      "at": 25.946167229419483,
      "lat": 24.1944,
      "lon": 120.9932
    },
    {
      "city": "苗栗縣",
      "town": "泰安鄉",
      "name": "松安",
      "temp": 20.8,
      "at": 23.62431585431752,
      "lat": 24.3996,
      "lon": 120.9778
    },
    {
      "city": "苗栗縣",
      "town": "竹南鎮",
      "name": "龍鳳",
      "temp": 30.6,
      "at": 37.24328963734174,
      "lat": 24.701789,
      "lon": 120.850928
    },
    {
      "city": "臺東縣",
      "town": "太麻里鄉",
      "name": "太麻里",
      "temp": 29.8,
      "at": 35.87084905606854,
      "lat": 22.610825,
      "lon": 120.977275
    },
    {
      "city": "新竹市",
      "town": "東區",
      "name": "新竹市東區",
      "temp": 29.2,
      "at": 34.285901663058944,
      "lat": 24.800436,
      "lon": 120.978742
    },
    {
      "city": "臺中市",
      "town": "和平區",
      "name": "中坑",
      "temp": 23.8,
      "at": 28.24001902654316,
      "lat": 24.250283,
      "lon": 120.895153
    },
    {
      "city": "屏東縣",
      "town": "內埔鄉",
      "name": "三地門",
      "temp": 29.1,
      "at": 33.66839241092194,
      "lat": 22.711667,
      "lon": 120.631889
    },
    {
      "city": "花蓮縣",
      "town": "秀林鄉",
      "name": "崇德",
      "temp": 30.6,
      "at": 35.5758800712737,
      "lat": 24.167948,
      "lon": 121.649251
    },
    {
      "city": "臺中市",
      "town": "潭子區",
      "name": "潭子",
      "temp": 30.3,
      "at": 36.531207410817906,
      "lat": 24.21475,
      "lon": 120.695833
    },
    {
      "city": "屏東縣",
      "town": "鹽埔鄉",
      "name": "鹽埔",
      "temp": 28.9,
      "at": 36.05025530531347,
      "lat": 22.741342,
      "lon": 120.522697
    },
    {
      "city": "新北市",
      "town": "林口區",
      "name": "林口",
      "temp": 28.2,
      "at": 33.757777569073745,
      "lat": 25.073953,
      "lon": 121.372611
    },
    {
      "city": "新北市",
      "town": "八里區",
      "name": "硬漢嶺",
      "temp": 25.1,
      "at": 30.08061782994298,
      "lat": 25.137872,
      "lon": 121.41814
    },
    {
      "city": "新北市",
      "town": "萬里區",
      "name": "野柳",
      "temp": 30.7,
      "at": 35.23595389912894,
      "lat": 25.208817,
      "lon": 121.681783
    },
    {
      "city": "臺中市",
      "town": "和平區",
      "name": "雪山東峰",
      "temp": 14.7,
      "at": 13.900596297468581,
      "lat": 24.390581,
      "lon": 121.263286
    },
    {
      "city": "苗栗縣",
      "town": "泰安鄉",
      "name": "觀霧分站",
      "temp": 17.2,
      "at": 18.508710796863568,
      "lat": 24.5075,
      "lon": 121.1057
    },
    {
      "city": "彰化縣",
      "town": "二林鎮",
      "name": "二林",
      "temp": 29.6,
      "at": 36.8979832848996,
      "lat": 23.905067,
      "lon": 120.367928
    },
    {
      "city": "高雄市",
      "town": "甲仙區",
      "name": "小林",
      "temp": 27.7,
      "at": 32.600213956025385,
      "lat": 23.150164,
      "lon": 120.625189
    },
    {
      "city": "新北市",
      "town": "烏來區",
      "name": "桶後",
      "temp": 25.4,
      "at": 31.752763349235096,
      "lat": 24.850056,
      "lon": 121.589639
    },
    {
      "city": "臺中市",
      "town": "新社區",
      "name": "新社",
      "temp": 27.8,
      "at": 32.914585536517066,
      "lat": 24.201583,
      "lon": 120.8075
    },
    {
      "city": "嘉義縣",
      "town": "番路鄉",
      "name": "番路",
      "temp": 28.3,
      "at": 34.46466446393606,
      "lat": 23.466408,
      "lon": 120.546028
    },
    {
      "city": "屏東縣",
      "town": "恆春鎮",
      "name": "貓鼻頭",
      "temp": 30.7,
      "at": 36.7636128823171,
      "lat": 21.923578,
      "lon": 120.727792
    },
    {
      "city": "彰化縣",
      "town": "永靖鄉",
      "name": "永靖",
      "temp": 30.2,
      "at": 35.52080494576984,
      "lat": 23.926458,
      "lon": 120.539392
    },
    {
      "city": "彰化縣",
      "town": "大城鄉",
      "name": "三豐",
      "temp": 30.0,
      "at": 36.32245351705882,
      "lat": 23.883719,
      "lon": 120.281409
    },
    {
      "city": "彰化縣",
      "town": "員林市",
      "name": "員林",
      "temp": 28.8,
      "at": 34.10873496042082,
      "lat": 23.948333,
      "lon": 120.577528
    },
    {
      "city": "臺南市",
      "town": "北區",
      "name": "臺南市北區",
      "temp": 30.9,
      "at": 37.14098866047933,
      "lat": 23.012167,
      "lon": 120.186333
    },
    {
      "city": "臺南市",
      "town": "善化區",
      "name": "善化",
      "temp": 30.6,
      "at": 40.40719592621039,
      "lat": 23.114444,
      "lon": 120.289444
    },
    {
      "city": "雲林縣",
      "town": "東勢鄉",
      "name": "雲林東勢",
      "temp": 30.9,
      "at": 38.15551492132253,
      "lat": 23.675939,
      "lon": 120.2476
    },
    {
      "city": "花蓮縣",
      "town": "秀林鄉",
      "name": "加灣",
      "temp": 31.5,
      "at": 36.34170913796009,
      "lat": 24.083828,
      "lon": 121.600788
    },
    {
      "city": "新北市",
      "town": "三峽區",
      "name": "三峽",
      "temp": 30.0,
      "at": 36.74516772064493,
      "lat": 24.940806,
      "lon": 121.3615
    },
    {
      "city": "臺中市",
      "town": "大甲區",
      "name": "大甲溪埔",
      "temp": 30.4,
      "at": 35.34162271586928,
      "lat": 24.372375,
      "lon": 120.611895
    },
    {
      "city": "臺東縣",
      "town": "太麻里鄉",
      "name": "香蘭",
      "temp": 31.0,
      "at": 35.63105169304169,
      "lat": 22.589372,
      "lon": 120.985322
    },
    {
      "city": "南投縣",
      "town": "草屯鎮",
      "name": "草屯",
      "temp": 29.0,
      "at": 33.41127128317784,
      "lat": 23.975444,
      "lon": 120.672194
    },
    {
      "city": "屏東縣",
      "town": "長治鄉",
      "name": "長治",
      "temp": 29.4,
      "at": 35.69579966284332,
      "lat": 22.694833,
      "lon": 120.534611
    },
    {
      "city": "新北市",
      "town": "中和區",
      "name": "中和",
      "temp": 30.3,
      "at": 37.515134876033954,
      "lat": 24.993403,
      "lon": 121.483569
    },
    {
      "city": "彰化縣",
      "town": "溪州鄉",
      "name": "溪州",
      "temp": 29.3,
      "at": 34.44364942276124,
      "lat": 23.853347,
      "lon": 120.490944
    },
    {
      "city": "臺北市",
      "town": "文山區",
      "name": "文山",
      "temp": 29.2,
      "at": 36.66196724030758,
      "lat": 25.004083,
      "lon": 121.567528
    },
    {
      "city": "花蓮縣",
      "town": "秀林鄉",
      "name": "綠水",
      "temp": 25.9,
      "at": 30.484834868833623,
      "lat": 24.180212,
      "lon": 121.499787
    },
    {
      "city": "桃園市",
      "town": "復興區",
      "name": "東眼山",
      "temp": 21.4,
      "at": 24.907227973701712,
      "lat": 24.8301,
      "lon": 121.4006
    },
    {
      "city": "彰化縣",
      "town": "伸港鄉",
      "name": "伸港",
      "temp": 30.5,
      "at": 35.858811041705245,
      "lat": 24.150528,
      "lon": 120.476167
    },
    {
      "city": "彰化縣",
      "town": "花壇鄉",
      "name": "花壇",
      "temp": 30.2,
      "at": 36.72581157855567,
      "lat": 24.032075,
      "lon": 120.541314
    },
    {
      "city": "花蓮縣",
      "town": "鳳林鎮",
      "name": "鳳林山",
      "temp": 25.4,
      "at": 29.191254891692388,
      "lat": 23.737072,
      "lon": 121.411994
    },
    {
      "city": "高雄市",
      "town": "左營區",
      "name": "左營",
      "temp": 29.0,
      "at": 35.18177298583207,
      "lat": 22.676689,
      "lon": 120.27685
    },
    {
      "city": "高雄市",
      "town": "苓雅區",
      "name": "苓雅",
      "temp": 31.5,
      "at": 38.597651846952225,
      "lat": 22.624528,
      "lon": 120.322583
    },
    {
      "city": "雲林縣",
      "town": "臺西鄉",
      "name": "臺西",
      "temp": 29.9,
      "at": 35.395019149048984,
      "lat": 23.703283,
      "lon": 120.189422
    },
    {
      "city": "花蓮縣",
      "town": "秀林鄉",
      "name": "和仁",
      "temp": 30.4,
      "at": 35.62439985667897,
      "lat": 24.243199,
      "lon": 121.704304
    },
    {
      "city": "雲林縣",
      "town": "古坑鄉",
      "name": "棋山",
      "temp": 29.4,
      "at": 35.646509679701154,
      "lat": 23.688211,
      "lon": 120.595289
    },
    {
      "city": "金門縣",
      "town": "金沙鎮",
      "name": "金沙",
      "temp": 28.3,
      "at": 33.57334714900222,
      "lat": 24.489931,
      "lon": 118.400617
    },
    {
      "city": "臺中市",
      "town": "和平區",
      "name": "鞍馬山工作站",
      "temp": 16.6,
      "at": 17.88687815061546,
      "lat": 24.2681,
      "lon": 120.9926
    },
    {
      "city": "花蓮縣",
      "town": "秀林鄉",
      "name": "清水斷崖",
      "temp": 31.1,
      "at": 37.465313213402275,
      "lat": 24.2201,
      "lon": 121.680972
    },
    {
      "city": "新北市",
      "town": "雙溪區",
      "name": "泰平",
      "temp": 26.7,
      "at": 33.18680086252316,
      "lat": 24.973056,
      "lon": 121.815278
    },
    {
      "city": "雲林縣",
      "town": "虎尾鎮",
      "name": "虎尾",
      "temp": 30.1,
      "at": 35.855476658125895,
      "lat": 23.720939,
      "lon": 120.433911
    },
    {
      "city": "彰化縣",
      "town": "伸港鄉",
      "name": "防潮門",
      "temp": 30.6,
      "at": 36.17120903500788,
      "lat": 24.185242,
      "lon": 120.478972
    },
    {
      "city": "屏東縣",
      "town": "恆春鎮",
      "name": "墾雷",
      "temp": 28.4,
      "at": 34.97482587514693,
      "lat": 21.90265,
      "lon": 120.847244
    },
    {
      "city": "屏東縣",
      "town": "恆春鎮",
      "name": "龍磐",
      "temp": 28.2,
      "at": 33.01514190287864,
      "lat": 21.933481,
      "lon": 120.830933
    },
    {
      "city": "彰化縣",
      "town": "竹塘鄉",
      "name": "竹塘",
      "temp": 32.1,
      "at": 39.10669445781408,
      "lat": 23.85,
      "lon": 120.378628
    },
    {
      "city": "南投縣",
      "town": "仁愛鄉",
      "name": "仁愛",
      "temp": 23.4,
      "at": 25.374746929185815,
      "lat": 24.023903,
      "lon": 121.124056
    },
    {
      "city": "南投縣",
      "town": "信義鄉",
      "name": "鹿林山",
      "temp": 18.2,
      "at": 17.00078184415076,
      "lat": 23.47046,
      "lon": 120.86517
    },
    {
      "city": "宜蘭縣",
      "town": "三星鄉",
      "name": "三星",
      "temp": 29.9,
      "at": 35.54001814120429,
      "lat": 24.669917,
      "lon": 121.644819
    },
    {
      "city": "臺東縣",
      "town": "綠島鄉",
      "name": "綠島",
      "temp": 29.4,
      "at": 35.40026715019995,
      "lat": 22.669025,
      "lon": 121.467267
    },
    {
      "city": "彰化縣",
      "town": "埤頭鄉",
      "name": "埤頭",
      "temp": 30.7,
      "at": 38.34554668827211,
      "lat": 23.867806,
      "lon": 120.444722
    },
    {
      "city": "金門縣",
      "town": "金寧鄉",
      "name": "金寧",
      "temp": 28.5,
      "at": 33.0816479236137,
      "lat": 24.459339,
      "lon": 118.320831
    },
    {
      "city": "臺中市",
      "town": "大安區",
      "name": "大安",
      "temp": 31.2,
      "at": 36.47021116409858,
      "lat": 24.347444,
      "lon": 120.579972
    },
    {
      "city": "新北市",
      "town": "淡水區",
      "name": "六塊厝",
      "temp": 30.8,
      "at": 36.48928586650437,
      "lat": 25.241776,
      "lon": 121.439863
    },
    {
      "city": "臺東縣",
      "town": "達仁鄉",
      "name": "土坂",
      "temp": 30.1,
      "at": 36.76652364407628,
      "lat": 22.454908,
      "lon": 120.879528
    },
    {
      "city": "臺北市",
      "town": "士林區",
      "name": "天母",
      "temp": 30.6,
      "at": 36.65679291454111,
      "lat": 25.119253,
      "lon": 121.528939
    },
    {
      "city": "臺中市",
      "town": "霧峰區",
      "name": "霧峰",
      "temp": 31.5,
      "at": 37.48570032395887,
      "lat": 24.043658,
      "lon": 120.691323
    },
    {
      "city": "高雄市",
      "town": "田寮區",
      "name": "古亭坑",
      "temp": 29.8,
      "at": 36.76654691076005,
      "lat": 22.895,
      "lon": 120.393889
    },
    {
      "city": "花蓮縣",
      "town": "光復鄉",
      "name": "富源",
      "temp": 29.8,
      "at": 35.798805892453046,
      "lat": 23.58975,
      "lon": 121.370389
    },
    {
      "city": "苗栗縣",
      "town": "銅鑼鄉",
      "name": "銅鑼",
      "temp": 30.0,
      "at": 35.346524822437985,
      "lat": 24.491528,
      "lon": 120.782639
    },
    {
      "city": "臺中市",
      "town": "外埔區",
      "name": "外埔",
      "temp": 30.9,
      "at": 38.36551492132253,
      "lat": 24.349556,
      "lon": 120.697472
    },
    {
      "city": "臺中市",
      "town": "石岡區",
      "name": "石岡",
      "temp": 28.9,
      "at": 34.6883535068106,
      "lat": 24.277822,
      "lon": 120.769478
    },
    {
      "city": "澎湖縣",
      "town": "望安鄉",
      "name": "望安",
      "temp": 28.8,
      "at": 34.73063217160267,
      "lat": 23.382282,
      "lon": 119.485981
    },
    {
      "city": "宜蘭縣",
      "town": "頭城鎮",
      "name": "頭城",
      "temp": 31.7,
      "at": 39.28436099125093,
      "lat": 24.855031,
      "lon": 121.822586
    },
    {
      "city": "臺南市",
      "town": "白河區",
      "name": "白河",
      "temp": 29.9,
      "at": 36.30376940101015,
      "lat": 23.349228,
      "lon": 120.406328
    },
    {
      "city": "雲林縣",
      "town": "水林鄉",
      "name": "水林",
      "temp": 30.0,
      "at": 36.603810618851874,
      "lat": 23.574658,
      "lon": 120.237839
    },
    {
      "city": "高雄市",
      "town": "彌陀區",
      "name": "文安",
      "temp": 32.1,
      "at": 38.965648426832026,
      "lat": 22.804288,
      "lon": 120.208308
    },
    {
      "city": "臺中市",
      "town": "西屯區",
      "name": "西屯",
      "temp": 30.6,
      "at": 35.65029619174047,
      "lat": 24.182028,
      "lon": 120.632861
    },
    {
      "city": "嘉義縣",
      "town": "布袋鎮",
      "name": "布袋",
      "temp": 29.9,
      "at": 35.74376940101015,
      "lat": 23.382611,
      "lon": 120.159667
    },
    {
      "city": "臺南市",
      "town": "西港區",
      "name": "西港",
      "temp": 30.2,
      "at": 36.01311365850612,
      "lat": 23.127417,
      "lon": 120.195083
    },
    {
      "city": "臺中市",
      "town": "東勢區",
      "name": "東勢",
      "temp": 31.3,
      "at": 38.15115358763624,
      "lat": 24.248194,
      "lon": 120.824917
    },
    {
      "city": "南投縣",
      "town": "南投市",
      "name": "南投",
      "temp": 28.6,
      "at": 34.17661139631395,
      "lat": 23.913208,
      "lon": 120.679183
    },
    {
      "city": "南投縣",
      "town": "魚池鄉",
      "name": "魚池",
      "temp": 26.0,
      "at": 31.73162030289174,
      "lat": 23.897478,
      "lon": 120.933219
    },
    {
      "city": "高雄市",
      "town": "甲仙區",
      "name": "西阿里關山",
      "temp": 23.9,
      "at": 28.376009732147807,
      "lat": 23.18479,
      "lon": 120.63334
    },
    {
      "city": "苗栗縣",
      "town": "苗栗市",
      "name": "苗栗",
      "temp": 30.4,
      "at": 35.274399856678976,
      "lat": 24.566667,
      "lon": 120.816444
    },
    {
      "city": "南投縣",
      "town": "竹山鎮",
      "name": "竹山",
      "temp": 28.9,
      "at": 34.462402607559156,
      "lat": 23.764722,
      "lon": 120.677778
    },
    {
      "city": "新北市",
      "town": "三重區",
      "name": "三重",
      "temp": 30.2,
      "at": 37.423502865819394,
      "lat": 25.059108,
      "lon": 121.4924
    },
    {
      "city": "臺東縣",
      "town": "卑南鄉",
      "name": "富山",
      "temp": 30.9,
      "at": 36.790988660479336,
      "lat": 22.82419,
      "lon": 121.182756
    },
    {
      "city": "苗栗縣",
      "town": "苑裡鎮",
      "name": "苑裡",
      "temp": 30.7,
      "at": 35.53692080210645,
      "lat": 24.441458,
      "lon": 120.644883
    },
    {
      "city": "臺中市",
      "town": "和平區",
      "name": "審馬陣",
      "temp": 15.0,
      "at": 13.950233645274952,
      "lat": 24.383461,
      "lon": 121.412122
    },
    {
      "city": "花蓮縣",
      "town": "秀林鄉",
      "name": "秀林",
      "temp": 23.4,
      "at": 27.672408860050236,
      "lat": 24.304668,
      "lon": 121.722972
    },
    {
      "city": "臺北市",
      "town": "北投區",
      "name": "大屯山",
      "temp": 27.6,
      "at": 34.9442516945004,
      "lat": 25.177333,
      "lon": 121.514167
    },
    {
      "city": "屏東縣",
      "town": "東港鎮",
      "name": "東港",
      "temp": 29.6,
      "at": 35.54140126895808,
      "lat": 22.464244,
      "lon": 120.432703
    },
    {
      "city": "臺南市",
      "town": "山上區",
      "name": "山上",
      "temp": 28.9,
      "at": 35.87628803914585,
      "lat": 23.077444,
      "lon": 120.355194
    },
    {
      "city": "高雄市",
      "town": "林園區",
      "name": "林園",
      "temp": 30.1,
      "at": 37.46896661129382,
      "lat": 22.509583,
      "lon": 120.386556
    },
    {
      "city": "花蓮縣",
      "town": "豐濱鄉",
      "name": "豐濱",
      "temp": 29.5,
      "at": 35.5212165989147,
      "lat": 23.585708,
      "lon": 121.506678
    },
    {
      "city": "屏東縣",
      "town": "滿州鄉",
      "name": "鼻頭",
      "temp": 29.5,
      "at": 34.926018323477265,
      "lat": 22.106107,
      "lon": 120.889862
    },
    {
      "city": "宜蘭縣",
      "town": "壯圍鄉",
      "name": "壯圍",
      "temp": 31.5,
      "at": 37.73168710295706,
      "lat": 24.737723,
      "lon": 121.808046
    },
    {
      "city": "臺南市",
      "town": "歸仁區",
      "name": "媽廟",
      "temp": 30.5,
      "at": 37.43835161752132,
      "lat": 22.993514,
      "lon": 120.285431
    },
    {
      "city": "澎湖縣",
      "town": "望安鄉",
      "name": "花嶼",
      "temp": 28.9,
      "at": 35.115296222603945,
      "lat": 23.401778,
      "lon": 119.314667
    },
    {
      "city": "臺東縣",
      "town": "太麻里鄉",
      "name": "金崙",
      "temp": 32.0,
      "at": 38.438420520264934,
      "lat": 22.54,
      "lon": 120.958889
    },
    {
      "city": "南投縣",
      "town": "名間鄉",
      "name": "名間",
      "temp": 27.7,
      "at": 32.8789428768472,
      "lat": 23.838817,
      "lon": 120.693306
    },
    {
      "city": "臺南市",
      "town": "大內區",
      "name": "大內",
      "temp": 29.5,
      "at": 37.14401940132887,
      "lat": 23.120611,
      "lon": 120.35275
    },
    {
      "city": "宜蘭縣",
      "town": "頭城鎮",
      "name": "坪林石牌",
      "temp": 29.5,
      "at": 36.13801724562566,
      "lat": 24.866578,
      "lon": 121.76575
    },
    {
      "city": "新北市",
      "town": "瑞芳區",
      "name": "鼻頭角",
      "temp": 28.1,
      "at": 33.60536537617076,
      "lat": 25.130833,
      "lon": 121.915278
    },
    {
      "city": "臺東縣",
      "town": "臺東市",
      "name": "富岡",
      "temp": 30.9,
      "at": 37.07098866047933,
      "lat": 22.794274,
      "lon": 121.184602
    },
    {
      "city": "宜蘭縣",
      "town": "礁溪鄉",
      "name": "淡江大學蘭陽校園",
      "temp": 30.0,
      "at": 36.25562008790928,
      "lat": 24.825033,
      "lon": 121.722172
    },
    {
      "city": "臺北市",
      "town": "內湖區",
      "name": "內湖",
      "temp": 29.8,
      "at": 34.75289221968405,
      "lat": 25.081206,
      "lon": 121.567222
    },
    {
      "city": "臺南市",
      "town": "將軍區",
      "name": "鯤鯓國小",
      "temp": 30.5,
      "at": 37.003973226315466,
      "lat": 23.189624,
      "lon": 120.080813
    },
    {
      "city": "臺中市",
      "town": "大安區",
      "name": "溫寮",
      "temp": 29.9,
      "at": 34.347518645126634,
      "lat": 24.373925,
      "lon": 120.574953
    },
    {
      "city": "臺東縣",
      "town": "太麻里鄉",
      "name": "歷坵",
      "temp": 27.9,
      "at": 33.562704361368375,
      "lat": 22.522769,
      "lon": 120.883803
    },
    {
      "city": "南投縣",
      "town": "仁愛鄉",
      "name": "合歡山頂",
      "temp": 14.7,
      "at": 12.455846877952247,
      "lat": 24.144778,
      "lon": 121.264083
    },
    {
      "city": "屏東縣",
      "town": "枋寮鄉",
      "name": "下寮",
      "temp": 31.8,
      "at": 38.61023249373962,
      "lat": 22.394648,
      "lon": 120.546743
    },
    {
      "city": "高雄市",
      "town": "小港區",
      "name": "鳳鼻頭",
      "temp": 29.8,
      "at": 36.620417419913544,
      "lat": 22.510051,
      "lon": 120.351098
    },
    {
      "city": "屏東縣",
      "town": "來義鄉",
      "name": "白鷺",
      "temp": 28.1,
      "at": 34.26994806913525,
      "lat": 22.456067,
      "lon": 120.658178
    },
    {
      "city": "嘉義縣",
      "town": "竹崎鄉",
      "name": "竹崎",
      "temp": 27.8,
      "at": 33.546170007456176,
      "lat": 23.527931,
      "lon": 120.547378
    },
    {
      "city": "臺中市",
      "town": "大雅區",
      "name": "大雅",
      "temp": 29.1,
      "at": 33.1484426875936,
      "lat": 24.217056,
      "lon": 120.616239
    },
    {
      "city": "臺中市",
      "town": "北屯區",
      "name": "大坑",
      "temp": 29.8,
      "at": 36.49063323799105,
      "lat": 24.174889,
      "lon": 120.714139
    },
    {
      "city": "雲林縣",
      "town": "口湖鄉",
      "name": "宜梧",
      "temp": 29.8,
      "at": 35.43654691076005,
      "lat": 23.538014,
      "lon": 120.1612
    },
    {
      "city": "屏東縣",
      "town": "恆春鎮",
      "name": "山海",
      "temp": 30.5,
      "at": 36.149594835109625,
      "lat": 21.989579,
      "lon": 120.701107
    },
    {
      "city": "臺中市",
      "town": "和平區",
      "name": "出雲山苗圃",
      "temp": 23.3,
      "at": 26.741704031153713,
      "lat": 24.2328,
      "lon": 120.8965
    },
    {
      "city": "屏東縣",
      "town": "枋山鄉",
      "name": "楓港",
      "temp": 29.6,
      "at": 35.11416493828167,
      "lat": 22.191928,
      "lon": 120.684131
    },
    {
      "city": "苗栗縣",
      "town": "三灣鄉",
      "name": "大河",
      "temp": 28.6,
      "at": 34.37291557946554,
      "lat": 24.619833,
      "lon": 120.94055
    },
    {
      "city": "宜蘭縣",
      "town": "南澳鄉",
      "name": "南澳",
      "temp": 29.7,
      "at": 35.69622218665526,
      "lat": 24.451153,
      "lon": 121.802036
    },
    {
      "city": "屏東縣",
      "town": "獅子鄉",
      "name": "丹路",
      "temp": 29.4,
      "at": 33.84204219234453,
      "lat": 22.206281,
      "lon": 120.742964
    },
    {
      "city": "新竹縣",
      "town": "寶山鄉",
      "name": "寶山",
      "temp": 27.5,
      "at": 33.52351823440938,
      "lat": 24.736722,
      "lon": 121.016769
    },
    {
      "city": "高雄市",
      "town": "鳳山區",
      "name": "鳳山",
      "temp": 30.9,
      "at": 38.820041182165724,
      "lat": 22.648611,
      "lon": 120.348056
    },
    {
      "city": "屏東縣",
      "town": "恆春鎮",
      "name": "大坪頂",
      "temp": 31.1,
      "at": 38.688336977737784,
      "lat": 22.026433,
      "lon": 120.685536
    },
    {
      "city": "臺中市",
      "town": "和平區",
      "name": "中橫21.6k",
      "temp": 22.5,
      "at": 23.818256061123176,
      "lat": 24.2516,
      "lon": 121.1373
    },
    {
      "city": "花蓮縣",
      "town": "秀林鄉",
      "name": "和平",
      "temp": 29.5,
      "at": 34.27441595220374,
      "lat": 24.308961,
      "lon": 121.761903
    },
    {
      "city": "宜蘭縣",
      "town": "蘇澳鎮",
      "name": "蘇澳",
      "temp": 29.7,
      "at": 34.856222186655266,
      "lat": 24.59875,
      "lon": 121.848895
    },
    {
      "city": "臺中市",
      "town": "烏日區",
      "name": "烏日",
      "temp": 30.0,
      "at": 35.41697718970233,
      "lat": 24.108833,
      "lon": 120.615917
    },
    {
      "city": "南投縣",
      "town": "仁愛鄉",
      "name": "小奇萊",
      "temp": 13.8,
      "at": 11.809804458429369,
      "lat": 24.13355,
      "lon": 121.287556
    },
    {
      "city": "宜蘭縣",
      "town": "羅東鎮",
      "name": "羅東",
      "temp": 31.7,
      "at": 38.558278371773,
      "lat": 24.683636,
      "lon": 121.741144
    },
    {
      "city": "屏東縣",
      "town": "牡丹鄉",
      "name": "高士",
      "temp": 26.5,
      "at": 31.578161622343778,
      "lat": 22.123631,
      "lon": 120.828758
    },
    {
      "city": "高雄市",
      "town": "茄萣區",
      "name": "興達",
      "temp": 30.4,
      "at": 36.696616983156574,
      "lat": 22.879517,
      "lon": 120.204681
    },
    {
      "city": "臺東縣",
      "town": "延平鄉",
      "name": "延平",
      "temp": 30.5,
      "at": 36.408027248300854,
      "lat": 22.904381,
      "lon": 121.075983
    },
    {
      "city": "花蓮縣",
      "town": "萬榮鄉",
      "name": "西林林道12.5K",
      "temp": 25.7,
      "at": 30.553309805635173,
      "lat": 23.83143,
      "lon": 121.40419
    },
    {
      "city": "屏東縣",
      "town": "滿州鄉",
      "name": "九棚",
      "temp": 28.6,
      "at": 31.692828886422994,
      "lat": 22.143756,
      "lon": 120.886331
    },
    {
      "city": "彰化縣",
      "town": "芬園鄉",
      "name": "芬園",
      "temp": 29.9,
      "at": 37.62252166866069,
      "lat": 24.017222,
      "lon": 120.613056
    },
    {
      "city": "彰化縣",
      "town": "埔心鄉",
      "name": "埔心",
      "temp": 31.4,
      "at": 38.385253276520864,
      "lat": 23.948694,
      "lon": 120.517611
    },
    {
      "city": "桃園市",
      "town": "楊梅區",
      "name": "楊梅",
      "temp": 28.5,
      "at": 33.38768145469811,
      "lat": 24.914139,
      "lon": 121.134833
    },
    {
      "city": "宜蘭縣",
      "town": "礁溪鄉",
      "name": "礁溪",
      "temp": 31.4,
      "at": 37.26843301439919,
      "lat": 24.819336,
      "lon": 121.757397
    },
    {
      "city": "苗栗縣",
      "town": "西湖鄉",
      "name": "西湖",
      "temp": 28.8,
      "at": 34.37897211181854,
      "lat": 24.564417,
      "lon": 120.740278
    },
    {
      "city": "基隆市",
      "town": "暖暖區",
      "name": "暖暖",
      "temp": 30.2,
      "at": 37.284657222187526,
      "lat": 25.097533,
      "lon": 121.732069
    },
    {
      "city": "高雄市",
      "town": "彌陀區",
      "name": "南寮",
      "temp": 29.9,
      "at": 36.576270912777176,
      "lat": 22.763381,
      "lon": 120.225866
    },
    {
      "city": "宜蘭縣",
      "town": "大同鄉",
      "name": "白嶺",
      "temp": 23.8,
      "at": 27.6149604617993,
      "lat": 24.529611,
      "lon": 121.510844
    },
    {
      "city": "高雄市",
      "town": "梓官區",
      "name": "梓官",
      "temp": 30.5,
      "at": 36.56959483510962,
      "lat": 22.762444,
      "lon": 120.25925
    },
    {
      "city": "南投縣",
      "town": "仁愛鄉",
      "name": "萬大林道",
      "temp": 20.4,
      "at": 22.518862981279156,
      "lat": 23.930008,
      "lon": 121.083267
    },
    {
      "city": "屏東縣",
      "town": "恆春鎮",
      "name": "後壁湖",
      "temp": 30.9,
      "at": 37.98004118216573,
      "lat": 21.94747,
      "lon": 120.737695
    },
    {
      "city": "宜蘭縣",
      "town": "頭城鎮",
      "name": "大溪漁港",
      "temp": 29.9,
      "at": 36.577520660816,
      "lat": 24.943603,
      "lon": 121.894736
    },
    {
      "city": "臺中市",
      "town": "后里區",
      "name": "后里",
      "temp": 29.4,
      "at": 34.33721969655898,
      "lat": 24.312111,
      "lon": 120.7215
    },
    {
      "city": "連江縣",
      "town": "北竿鄉",
      "name": "北竿",
      "temp": 26.8,
      "at": 31.10629290912688,
      "lat": 26.222038,
      "lon": 119.966574
    },
    {
      "city": "新北市",
      "town": "石碇區",
      "name": "石碇",
      "temp": 26.5,
      "at": 32.408696316781615,
      "lat": 24.995758,
      "lon": 121.654639
    },
    {
      "city": "屏東縣",
      "town": "高樹鄉",
      "name": "高樹",
      "temp": 29.6,
      "at": 35.26140126895808,
      "lat": 22.828222,
      "lon": 120.592722
    },
    {
      "city": "嘉義縣",
      "town": "新港鄉",
      "name": "新港",
      "temp": 30.3,
      "at": 36.88120741081791,
      "lat": 23.555011,
      "lon": 120.3376
    },
    {
      "city": "嘉義縣",
      "town": "大林鎮",
      "name": "大林",
      "temp": 30.7,
      "at": 36.37692080210645,
      "lat": 23.602361,
      "lon": 120.450281
    },
    {
      "city": "宜蘭縣",
      "town": "頭城鎮",
      "name": "北關",
      "temp": 30.6,
      "at": 36.94120903500787,
      "lat": 24.90902,
      "lon": 121.865211
    },
    {
      "city": "新北市",
      "town": "金山區",
      "name": "金山",
      "temp": 29.1,
      "at": 35.56849296426526,
      "lat": 25.225278,
      "lon": 121.635556
    },
    {
      "city": "花蓮縣",
      "town": "秀林鄉",
      "name": "富世",
      "temp": 30.0,
      "at": 36.047429556966684,
      "lat": 24.149236,
      "lon": 121.621542
    },
    {
      "city": "新北市",
      "town": "永和區",
      "name": "永和",
      "temp": 29.9,
      "at": 35.54001814120429,
      "lat": 25.013028,
      "lon": 121.499889
    },
    {
      "city": "屏東縣",
      "town": "滿州鄉",
      "name": "檳榔",
      "temp": 27.9,
      "at": 34.836067970459986,
      "lat": 22.077883,
      "lon": 120.828758
    },
    {
      "city": "花蓮縣",
      "town": "豐濱鄉",
      "name": "靜浦",
      "temp": 31.1,
      "at": 38.88975166404315,
      "lat": 23.456944,
      "lon": 121.486667
    },
    {
      "city": "臺南市",
      "town": "新市區",
      "name": "新市",
      "temp": 30.2,
      "at": 36.577731083978684,
      "lat": 23.063556,
      "lon": 120.290417
    },
    {
      "city": "雲林縣",
      "town": "褒忠鄉",
      "name": "褒忠",
      "temp": 29.8,
      "at": 35.58267640160655,
      "lat": 23.692672,
      "lon": 120.295503
    },
    {
      "city": "花蓮縣",
      "town": "富里鄉",
      "name": "富里",
      "temp": 29.9,
      "at": 34.15126587355376,
      "lat": 23.173442,
      "lon": 121.241286
    },
    {
      "city": "屏東縣",
      "town": "泰武鄉",
      "name": "舊泰武",
      "temp": 25.4,
      "at": 30.122009120463744,
      "lat": 22.58995,
      "lon": 120.656922
    },
    {
      "city": "臺南市",
      "town": "北門區",
      "name": "蚵寮",
      "temp": 30.9,
      "at": 37.81242017349117,
      "lat": 23.302745,
      "lon": 120.102281
    },
    {
      "city": "宜蘭縣",
      "town": "員山鄉",
      "name": "內城",
      "temp": 31.5,
      "at": 37.37971354496069,
      "lat": 24.719928,
      "lon": 121.679461
    },
    {
      "city": "屏東縣",
      "town": "滿州鄉",
      "name": "南仁湖",
      "temp": 26.7,
      "at": 31.17299871211233,
      "lat": 22.086486,
      "lon": 120.855333
    },
    {
      "city": "新北市",
      "town": "鶯歌區",
      "name": "鶯歌",
      "temp": 29.4,
      "at": 36.78991214177103,
      "lat": 24.953,
      "lon": 121.33725
    },
    {
      "city": "宜蘭縣",
      "town": "大同鄉",
      "name": "南山",
      "temp": 24.9,
      "at": 27.732379081686922,
      "lat": 24.439167,
      "lon": 121.373333
    },
    {
      "city": "臺東縣",
      "town": "蘭嶼鄉",
      "name": "東清國小",
      "temp": 30.4,
      "at": 36.13383984234688,
      "lat": 22.058965,
      "lon": 121.556901
    },
    {
      "city": "高雄市",
      "town": "大樹區",
      "name": "大樹",
      "temp": 29.3,
      "at": 34.75794137658214,
      "lat": 22.686423,
      "lon": 120.424748
    },
    {
      "city": "彰化縣",
      "town": "福興鄉",
      "name": "福興",
      "temp": 31.7,
      "at": 37.91455228327615,
      "lat": 24.042972,
      "lon": 120.429528
    },
    {
      "city": "高雄市",
      "town": "小港區",
      "name": "鳳森",
      "temp": 30.1,
      "at": 36.837570630026654,
      "lat": 22.546944,
      "lon": 120.3845
    },
    {
      "city": "彰化縣",
      "town": "福興鄉",
      "name": "福寶",
      "temp": 30.7,
      "at": 37.404096333805846,
      "lat": 24.046048,
      "lon": 120.373213
    },
    {
      "city": "南投縣",
      "town": "水里鄉",
      "name": "水里",
      "temp": 28.7,
      "at": 33.2845527906136,
      "lat": 23.814322,
      "lon": 120.841658
    },
    {
      "city": "嘉義縣",
      "town": "布袋鎮",
      "name": "好美里",
      "temp": 31.3,
      "at": 37.751717683306545,
      "lat": 23.338176,
      "lon": 120.129936
    },
    {
      "city": "花蓮縣",
      "town": "萬榮鄉",
      "name": "西林",
      "temp": 31.3,
      "at": 37.529461300625336,
      "lat": 23.813667,
      "lon": 121.433194
    },
    {
      "city": "屏東縣",
      "town": "新埤鄉",
      "name": "萬隆國小",
      "temp": 31.4,
      "at": 37.500706435106416,
      "lat": 22.509453,
      "lon": 120.579772
    },
    {
      "city": "花蓮縣",
      "town": "秀林鄉",
      "name": "和平林道",
      "temp": 27.9,
      "at": 32.121022556822574,
      "lat": 24.345722,
      "lon": 121.648142
    },
    {
      "city": "臺中市",
      "town": "和平區",
      "name": "雪山圈谷",
      "temp": 11.8,
      "at": 7.885368415783253,
      "lat": 24.390375,
      "lon": 121.228197
    },
    {
      "city": "金門縣",
      "town": "烏坵鄉",
      "name": "烏坵",
      "temp": 27.4,
      "at": 31.275783341840317,
      "lat": 24.996081,
      "lon": 119.441347
    },
    {
      "city": "臺南市",
      "town": "佳里區",
      "name": "佳里",
      "temp": 30.2,
      "at": 38.48620078586894,
      "lat": 23.175,
      "lon": 120.136667
    },
    {
      "city": "花蓮縣",
      "town": "壽豐鄉",
      "name": "東華",
      "temp": 31.2,
      "at": 37.291347987981474,
      "lat": 23.897056,
      "lon": 121.541694
    },
    {
      "city": "屏東縣",
      "town": "佳冬鄉",
      "name": "佳冬",
      "temp": 31.7,
      "at": 37.998278371773,
      "lat": 22.421194,
      "lon": 120.544222
    },
    {
      "city": "宜蘭縣",
      "town": "南澳鄉",
      "name": "樟樹山",
      "temp": 28.2,
      "at": 33.73147267892735,
      "lat": 24.415731,
      "lon": 121.775067
    },
    {
      "city": "新北市",
      "town": "蘆洲區",
      "name": "蘆洲",
      "temp": 30.8,
      "at": 36.69321443587592,
      "lat": 25.088528,
      "lon": 121.464056
    },
    {
      "city": "桃園市",
      "town": "龜山區",
      "name": "國一五楊N44K",
      "temp": 28.7,
      "at": 34.39044296923547,
      "lat": 25.065633,
      "lon": 121.332769
    },
    {
      "city": "臺東縣",
      "town": "卑南鄉",
      "name": "知本",
      "temp": 29.6,
      "at": 35.27587393031091,
      "lat": 22.686667,
      "lon": 120.997583
    },
    {
      "city": "臺中市",
      "town": "清水區",
      "name": "清水",
      "temp": 31.3,
      "at": 36.04917925279019,
      "lat": 24.314028,
      "lon": 120.554083
    },
    {
      "city": "高雄市",
      "town": "大寮區",
      "name": "大寮",
      "temp": 30.8,
      "at": 37.27750015838968,
      "lat": 22.607389,
      "lon": 120.387667
    },
    {
      "city": "雲林縣",
      "town": "大埤鄉",
      "name": "大埤",
      "temp": 30.5,
      "at": 35.99162184610231,
      "lat": 23.647817,
      "lon": 120.4234
    },
    {
      "city": "新北市",
      "town": "石門區",
      "name": "石門",
      "temp": 29.7,
      "at": 35.690556925557935,
      "lat": 25.275453,
      "lon": 121.592956
    },
    {
      "city": "花蓮縣",
      "town": "壽豐鄉",
      "name": "大坑",
      "temp": 28.5,
      "at": 35.1116479236137,
      "lat": 23.882433,
      "lon": 121.573839
    },
    {
      "city": "花蓮縣",
      "town": "吉安鄉",
      "name": "吉安光華",
      "temp": 29.4,
      "at": 34.855799662843324,
      "lat": 23.932733,
      "lon": 121.587003
    },
    {
      "city": "臺北市",
      "town": "信義區",
      "name": "信義",
      "temp": 29.3,
      "at": 34.66555210482093,
      "lat": 25.039606,
      "lon": 121.556372
    },
    {
      "city": "屏東縣",
      "town": "恆春鎮",
      "name": "墾丁",
      "temp": 28.0,
      "at": 34.894466323405595,
      "lat": 21.968561,
      "lon": 120.802258
    },
    {
      "city": "屏東縣",
      "town": "屏東市",
      "name": "屏東",
      "temp": 29.5,
      "at": 36.00241703005534,
      "lat": 22.662048,
      "lon": 120.485974
    },
    {
      "city": "南投縣",
      "town": "鹿谷鄉",
      "name": "鳳凰",
      "temp": 25.1,
      "at": 29.486700358872,
      "lat": 23.729722,
      "lon": 120.779167
    },
    {
      "city": "苗栗縣",
      "town": "南庄鄉",
      "name": "拉庫斯",
      "temp": 23.2,
      "at": 26.126467335167977,
      "lat": 24.538136,
      "lon": 121.013183
    },
    {
      "city": "臺中市",
      "town": "梧棲區",
      "name": "梧棲",
      "temp": 30.2,
      "at": 36.44119415308312,
      "lat": 24.257753,
      "lon": 120.515211
    },
    {
      "city": "雲林縣",
      "town": "古坑鄉",
      "name": "草嶺石壁",
      "temp": 24.1,
      "at": 26.89040162888492,
      "lat": 23.604239,
      "lon": 120.699612
    },
    {
      "city": "雲林縣",
      "town": "元長鄉",
      "name": "鹿南",
      "temp": 30.4,
      "at": 36.05828556072748,
      "lat": 23.645083,
      "lon": 120.360167
    },
    {
      "city": "嘉義市",
      "town": "西區",
      "name": "嘉義",
      "temp": 29.2,
      "at": 35.505573796103654,
      "lat": 23.497684,
      "lon": 120.424796
    },
    {
      "city": "花蓮縣",
      "town": "富里鄉",
      "name": "六十石",
      "temp": 24.4,
      "at": 27.42547009768401,
      "lat": 23.226575,
      "lon": 121.310513
    },
    {
      "city": "花蓮縣",
      "town": "鳳林鎮",
      "name": "庄子底",
      "temp": 29.3,
      "at": 35.12579539967168,
      "lat": 23.719744,
      "lon": 121.486249
    },
    {
      "city": "澎湖縣",
      "town": "西嶼鄉",
      "name": "畜試所澎湖",
      "temp": 29.7,
      "at": 35.95922640336326,
      "lat": 23.630055,
      "lon": 119.505094
    },
    {
      "city": "臺北市",
      "town": "文山區",
      "name": "國三甲005K",
      "temp": 29.0,
      "at": 35.56877412093488,
      "lat": 25.003726,
      "lon": 121.589277
    },
    {
      "city": "臺東縣",
      "town": "鹿野鄉",
      "name": "二層坪",
      "temp": 29.9,
      "at": 35.25876839316546,
      "lat": 22.942853,
      "lon": 121.160303
    },
    {
      "city": "臺中市",
      "town": "大甲區",
      "name": "大甲",
      "temp": 29.5,
      "at": 35.32001616777406,
      "lat": 24.349917,
      "lon": 120.632361
    },
    {
      "city": "高雄市",
      "town": "美濃區",
      "name": "吉東",
      "temp": 29.8,
      "at": 36.00267640160655,
      "lat": 22.855957,
      "lon": 120.537323
    },
    {
      "city": "南投縣",
      "town": "仁愛鄉",
      "name": "馬烈霸",
      "temp": 21.6,
      "at": 22.78434217581225,
      "lat": 24.152982,
      "lon": 121.193613
    },
    {
      "city": "新北市",
      "town": "石碇區",
      "name": "國五S006K",
      "temp": 28.2,
      "at": 34.91935379161034,
      "lat": 24.991753,
      "lon": 121.64875
    },
    {
      "city": "新北市",
      "town": "石碇區",
      "name": "國五S005K",
      "temp": 28.2,
      "at": 33.983048901463945,
      "lat": 24.998202,
      "lon": 121.643708
    },
    {
      "city": "屏東縣",
      "town": "萬巒鄉",
      "name": "萬巒",
      "temp": 28.6,
      "at": 35.005350559683635,
      "lat": 22.529093,
      "lon": 120.617065
    },
    {
      "city": "臺中市",
      "town": "龍井區",
      "name": "國三N183K",
      "temp": 29.3,
      "at": 34.495795399671685,
      "lat": 24.19538,
      "lon": 120.562148
    },
    {
      "city": "金門縣",
      "town": "金城鎮",
      "name": "金門",
      "temp": 28.1,
      "at": 35.10054422204312,
      "lat": 24.408942,
      "lon": 118.281127
    },
    {
      "city": "臺南市",
      "town": "善化區",
      "name": "國三S342K",
      "temp": 29.8,
      "at": 35.50859007437555,
      "lat": 23.108456,
      "lon": 120.319446
    },
    {
      "city": "嘉義縣",
      "town": "梅山鄉",
      "name": "大巃頂",
      "temp": 23.9,
      "at": 27.563605347115757,
      "lat": 23.556466,
      "lon": 120.606275
    },
    {
      "city": "彰化縣",
      "town": "鹿港鎮",
      "name": "鹿港",
      "temp": 30.6,
      "at": 36.52120903500788,
      "lat": 24.076944,
      "lon": 120.422222
    },
    {
      "city": "臺南市",
      "town": "下營區",
      "name": "下營",
      "temp": 30.7,
      "at": 36.82312943082833,
      "lat": 23.228563,
      "lon": 120.248201
    },
    {
      "city": "南投縣",
      "town": "名間鄉",
      "name": "苗改南投蜂場",
      "temp": 30.0,
      "at": 35.41742955696668,
      "lat": 23.854353,
      "lon": 120.685345
    },
    {
      "city": "臺北市",
      "town": "大安區",
      "name": "大安森林",
      "temp": 28.4,
      "at": 34.19872679985283,
      "lat": 25.031331,
      "lon": 121.528056
    },
    {
      "city": "南投縣",
      "town": "竹山鎮",
      "name": "臺大竹山",
      "temp": 29.2,
      "at": 35.785573796103655,
      "lat": 23.758731,
      "lon": 120.67342
    },
    {
      "city": "屏東縣",
      "town": "恆春鎮",
      "name": "畜試南區分所",
      "temp": 30.5,
      "at": 35.6524056395067,
      "lat": 21.947348,
      "lon": 120.794139
    },
    {
      "city": "花蓮縣",
      "town": "吉安鄉",
      "name": "花蓮農改",
      "temp": 31.1,
      "at": 36.932386644929146,
      "lat": 23.977028,
      "lon": 121.555752
    },
    {
      "city": "新北市",
      "town": "平溪區",
      "name": "火燒寮",
      "temp": 26.4,
      "at": 31.879921500092948,
      "lat": 25.004411,
      "lon": 121.734572
    },
    {
      "city": "嘉義縣",
      "town": "東石鄉",
      "name": "西濱S257K",
      "temp": 29.5,
      "at": 35.289217676766306,
      "lat": 23.504025,
      "lon": 120.163753
    },
    {
      "city": "桃園市",
      "town": "觀音區",
      "name": "觀音",
      "temp": 30.1,
      "at": 36.767919625343445,
      "lat": 25.028835,
      "lon": 121.145094
    },
    {
      "city": "苗栗縣",
      "town": "竹南鎮",
      "name": "竹南",
      "temp": 30.0,
      "at": 35.76652482243798,
      "lat": 24.710737,
      "lon": 120.880772
    },
    {
      "city": "嘉義縣",
      "town": "朴子市",
      "name": "朴子農改",
      "temp": 31.1,
      "at": 37.5438985270969,
      "lat": 23.47164,
      "lon": 120.251277
    },
    {
      "city": "南投縣",
      "town": "埔里鎮",
      "name": "中台",
      "temp": 25.0,
      "at": 29.855916092297562,
      "lat": 24.001373,
      "lon": 120.930591
    },
    {
      "city": "苗栗縣",
      "town": "西湖鄉",
      "name": "畜試北區分所",
      "temp": 30.3,
      "at": 36.25120741081791,
      "lat": 24.529569,
      "lon": 120.762788
    },
    {
      "city": "嘉義縣",
      "town": "大埔鄉",
      "name": "馬頭山",
      "temp": 26.6,
      "at": 32.05799032189137,
      "lat": 23.326389,
      "lon": 120.573611
    },
    {
      "city": "宜蘭縣",
      "town": "南澳鄉",
      "name": "金洋",
      "temp": 28.2,
      "at": 34.360413235268844,
      "lat": 24.426453,
      "lon": 121.737548
    },
    {
      "city": "嘉義縣",
      "town": "竹崎鄉",
      "name": "大華",
      "temp": 27.5,
      "at": 31.393569595285015,
      "lat": 23.484171,
      "lon": 120.6668
    },
    {
      "city": "臺東縣",
      "town": "太麻里鄉",
      "name": "太麻里(1)",
      "temp": 32.0,
      "at": 38.16300483793074,
      "lat": 22.600724,
      "lon": 120.971991
    },
    {
      "city": "苗栗縣",
      "town": "苑裡鎮",
      "name": "國三S156K",
      "temp": 29.6,
      "at": 34.417783103619875,
      "lat": 24.399738,
      "lon": 120.66131
    },
    {
      "city": "臺南市",
      "town": "官田區",
      "name": "西拉雅風管處",
      "temp": 30.3,
      "at": 36.03727994560186,
      "lat": 23.191241,
      "lon": 120.327209
    },
    {
      "city": "雲林縣",
      "town": "古坑鄉",
      "name": "古坑",
      "temp": 28.9,
      "at": 34.530337139894414,
      "lat": 23.635298,
      "lon": 120.543786
    },
    {
      "city": "嘉義縣",
      "town": "民雄鄉",
      "name": "何竹子腳",
      "temp": 30.6,
      "at": 37.57562515547465,
      "lat": 23.538166,
      "lon": 120.373918
    },
    {
      "city": "花蓮縣",
      "town": "鳳林鎮",
      "name": "長橋",
      "temp": 29.9,
      "at": 35.81501914904898,
      "lat": 23.689203,
      "lon": 121.453731
    },
    {
      "city": "臺南市",
      "town": "安南區",
      "name": "安南",
      "temp": 30.7,
      "at": 37.097887705083956,
      "lat": 23.078333,
      "lon": 120.136667
    },
    {
      "city": "南投縣",
      "town": "仁愛鄉",
      "name": "發祥",
      "temp": 20.9,
      "at": 22.77818007670958,
      "lat": 24.155875,
      "lon": 121.156357
    },
    {
      "city": "嘉義縣",
      "town": "阿里山鄉",
      "name": "阿里山",
      "temp": 16.5,
      "at": 17.75805882232368,
      "lat": 23.509984,
      "lon": 120.805129
    },
    {
      "city": "屏東縣",
      "town": "內埔鄉",
      "name": "屏科大",
      "temp": 28.4,
      "at": 34.644032529705754,
      "lat": 22.65006,
      "lon": 120.611193
    },
    {
      "city": "彰化縣",
      "town": "彰化市",
      "name": "國一N198K",
      "temp": 30.5,
      "at": 36.58756782411694,
      "lat": 24.065639,
      "lon": 120.514899
    },
    {
      "city": "臺南市",
      "town": "白河區",
      "name": "國三S311K",
      "temp": 30.2,
      "at": 35.8054223712424,
      "lat": 23.34815,
      "lon": 120.430789
    },
    {
      "city": "嘉義縣",
      "town": "溪口鄉",
      "name": "農試溪口農場",
      "temp": 30.5,
      "at": 36.49959483510962,
      "lat": 23.587406,
      "lon": 120.399994
    },
    {
      "city": "臺南市",
      "town": "大內區",
      "name": "環湖",
      "temp": 29.3,
      "at": 35.52199003555228,
      "lat": 23.150431,
      "lon": 120.410514
    },
    {
      "city": "基隆市",
      "town": "七堵區",
      "name": "國三S007K",
      "temp": 31.0,
      "at": 38.54719980509662,
      "lat": 25.098727,
      "lon": 121.65957
    },
    {
      "city": "基隆市",
      "town": "七堵區",
      "name": "國一S006K",
      "temp": 30.1,
      "at": 36.83896661129383,
      "lat": 25.088729,
      "lon": 121.678671
    },
    {
      "city": "高雄市",
      "town": "楠梓區",
      "name": "高雄",
      "temp": 28.9,
      "at": 36.15628803914585,
      "lat": 22.732201,
      "lon": 120.304459
    },
    {
      "city": "宜蘭縣",
      "town": "大同鄉",
      "name": "出水溪",
      "temp": 28.5,
      "at": 34.26166888054146,
      "lat": 24.617617,
      "lon": 121.644058
    },
    {
      "city": "臺東縣",
      "town": "卑南鄉",
      "name": "明峰",
      "temp": 28.7,
      "at": 33.84095669690774,
      "lat": 22.868903,
      "lon": 121.110178
    },
    {
      "city": "宜蘭縣",
      "town": "羅東鎮",
      "name": "國五S047K",
      "temp": 30.1,
      "at": 36.206174648759486,
      "lat": 24.677257,
      "lon": 121.786384
    },
    {
      "city": "南投縣",
      "town": "魚池鄉",
      "name": "茶改中部分場",
      "temp": 24.5,
      "at": 28.795435734346697,
      "lat": 23.877382,
      "lon": 120.905442
    },
    {
      "city": "雲林縣",
      "town": "四湖鄉",
      "name": "四湖",
      "temp": 30.8,
      "at": 36.355357297132805,
      "lat": 23.632147,
      "lon": 120.219053
    },
    {
      "city": "南投縣",
      "town": "中寮鄉",
      "name": "中寮",
      "temp": 26.2,
      "at": 31.865213202874898,
      "lat": 23.886278,
      "lon": 120.758528
    },
    {
      "city": "屏東縣",
      "town": "長治鄉",
      "name": "高雄農改",
      "temp": 29.5,
      "at": 35.188815736633416,
      "lat": 22.711084,
      "lon": 120.517814
    },
    {
      "city": "臺中市",
      "town": "北區",
      "name": "臺中",
      "temp": 29.4,
      "at": 35.026864688130075,
      "lat": 24.147494,
      "lon": 120.675919
    },
    {
      "city": "南投縣",
      "town": "信義鄉",
      "name": "臺大內茅埔",
      "temp": 27.8,
      "at": 32.27983212369972,
      "lat": 23.691497,
      "lon": 120.842992
    },
    {
      "city": "新北市",
      "town": "坪林區",
      "name": "四堵",
      "temp": 29.9,
      "at": 32.55876234609737,
      "lat": 24.894394,
      "lon": 121.737519
    },
    {
      "city": "嘉義縣",
      "town": "中埔鄉",
      "name": "國三N303K",
      "temp": 30.8,
      "at": 38.5039287421603,
      "lat": 23.413742,
      "lon": 120.444389
    },
    {
      "city": "新北市",
      "town": "坪林區",
      "name": "國五N013K",
      "temp": 27.2,
      "at": 33.24400172484388,
      "lat": 24.949395,
      "lon": 121.697289
    },
    {
      "city": "新北市",
      "town": "瑞芳區",
      "name": "瑞芳",
      "temp": 30.8,
      "at": 37.259285866504364,
      "lat": 25.114861,
      "lon": 121.792639
    },
    {
      "city": "新竹縣",
      "town": "新豐鄉",
      "name": "西濱N066K",
      "temp": 29.4,
      "at": 35.54544465441441,
      "lat": 24.897357,
      "lon": 120.956688
    },
    {
      "city": "南投縣",
      "town": "鹿谷鄉",
      "name": "臺大溪頭",
      "temp": 20.8,
      "at": 24.400295290871803,
      "lat": 23.672071,
      "lon": 120.790065
    },
    {
      "city": "桃園市",
      "town": "楊梅區",
      "name": "茶改場",
      "temp": 28.2,
      "at": 32.94832023385415,
      "lat": 24.910258,
      "lon": 121.17713
    },
    {
      "city": "雲林縣",
      "town": "口湖鄉",
      "name": "西濱S241K",
      "temp": 29.1,
      "at": 34.566030671769006,
      "lat": 23.625171,
      "lon": 120.164529
    },
    {
      "city": "臺北市",
      "town": "北投區",
      "name": "鞍部",
      "temp": 23.5,
      "at": 28.277269197838052,
      "lat": 25.184365,
      "lon": 121.521495
    },
    {
      "city": "新竹縣",
      "town": "關西鎮",
      "name": "國三N077K",
      "temp": 29.5,
      "at": 35.93241703005534,
      "lat": 24.799064,
      "lon": 121.181827
    },