{
  "meta": {
    "updated_at": "2026-05-17 15:31:29",
    "source": "CWA Auto Stations",
    "count": 819
  },
  "data": [
    {
      "city": "花蓮縣",
      "town": "秀林鄉",
      "name": "崇德",
      "temp": 26.4,
      "at": 28.057047817262266,
      "lat": 24.167948,
      "lon": 121.649251
    },
    {
      "city": "臺東縣",
      "town": "卑南鄉",
      "name": "富山",
      "temp": 26.4,
      "at": 23.546072478561584,
      "lat": 22.82419,
      "lon": 121.182756
    },
    {
      "city": "臺東縣",
      "town": "蘭嶼鄉",
      "name": "東清國小",
      "temp": 27.6,
      "at": 27.705373451847176,
      "lat": 22.058965,
      "lon": 121.556901
    },
    {
      "city": "臺東縣",
      "town": "綠島鄉",
      "name": "牛頭山",
      "temp": 25.8,
      "at": 25.989421137766684,
      "lat": 22.678485,
      "lon": 121.498883
    },
    {
      "city": "新北市",
      "town": "八里區",
      "name": "硬漢嶺",
      "temp": 24.5,
      "at": 26.095650277226042,
      "lat": 25.137872,
      "lon": 121.41814
    },
    {
      "city": "花蓮縣",
      "town": "秀林鄉",
      "name": "秀林",
      "temp": 17.9,
      "at": 18.85708718315969,
      "lat": 24.304668,
      "lon": 121.722972
    },
    {
      "city": "花蓮縣",
      "town": "秀林鄉",
      "name": "和仁",
      "temp": 26.1,
      "at": 28.89439559228976,
      "lat": 24.243199,
      "lon": 121.704304
    },
    {
      "city": "花蓮縣",
      "town": "秀林鄉",
      "name": "立霧山",
      "temp": 16.2,
      "at": 17.17197469411724,
      "lat": 24.185061,
      "lon": 121.633735
    },
    {
      "city": "臺中市",
      "town": "和平區",
      "name": "鞍馬山工作站",
      "temp": 16.5,
      "at": 17.440830485879648,
      "lat": 24.2681,
      "lon": 120.9926
    },
    {
      "city": "臺中市",
      "town": "和平區",
      "name": "大雪山埡口",
      "temp": 15.4,
      "at": 15.395607615069501,
      "lat": 24.2744,
      "lon": 121.0224
    },
    {
      "city": "臺中市",
      "town": "和平區",
      "name": "小雪山天池",
      "temp": 13.4,
      "at": 13.440346285512799,
      "lat": 24.2825,
      "lon": 121.0182
    },
    {
      "city": "臺中市",
      "town": "和平區",
      "name": "小雪山林道",
      "temp": 13.8,
      "at": 13.253278765377242,
      "lat": 24.2968,
      "lon": 121.0283
    },
    {
      "city": "臺中市",
      "town": "和平區",
      "name": "大雪山",
      "temp": 16.2,
      "at": 16.448780122255528,
      "lat": 24.2562,
      "lon": 120.9991
    },
    {
      "city": "臺中市",
      "town": "和平區",
      "name": "出雲山苗圃",
      "temp": 20.3,
      "at": 22.908355530945418,
      "lat": 24.2328,
      "lon": 120.8965
    },
    {
      "city": "臺中市",
      "town": "和平區",
      "name": "雪山橋",
      "temp": 18.4,
      "at": 19.620659491841618,
      "lat": 24.2336,
      "lon": 120.9704
    },
    {
      "city": "臺中市",
      "town": "和平區",
      "name": "八仙山苗圃",
      "temp": 25.7,
      "at": 28.92145098198621,
      "lat": 24.1944,
      "lon": 120.9932
    },
    {
      "city": "臺中市",
      "town": "和平區",
      "name": "中橫21.6k",
      "temp": 27.3,
      "at": 28.411122284477578,
      "lat": 24.2516,
      "lon": 121.1373
    },
    {
      "city": "苗栗縣",
      "town": "泰安鄉",
      "name": "松安",
      "temp": 25.5,
      "at": 28.927035725007578,
      "lat": 24.3996,
      "lon": 120.9778
    },
    {
      "city": "苗栗縣",
      "town": "泰安鄉",
      "name": "觀霧分站",
      "temp": 17.3,
      "at": 18.74168356667423,
      "lat": 24.5075,
      "lon": 121.1057
    },
    {
      "city": "新竹縣",
      "town": "五峰鄉",
      "name": "樂山林道6k",
      "temp": 15.5,
      "at": 16.122895995743484,
      "lat": 24.5017,
      "lon": 121.0795
    },
    {
      "city": "新竹縣",
      "town": "五峰鄉",
      "name": "大坪苗圃",
      "temp": 21.3,
      "at": 22.85993597196416,
      "lat": 24.5379,
      "lon": 121.1026
    },
    {
      "city": "桃園市",
      "town": "復興區",
      "name": "東眼山",
      "temp": 25.7,
      "at": 28.023160785588964,
      "lat": 24.8301,
      "lon": 121.4006
    },
    {
      "city": "桃園市",
      "town": "復興區",
      "name": "四稜",
      "temp": 18.6,
      "at": 19.96683166889306,
      "lat": 24.6796,
      "lon": 121.4211
    },
    {
      "city": "宜蘭縣",
      "town": "大同鄉",
      "name": "明池",
      "temp": 17.5,
      "at": 15.9918609796281,
      "lat": 24.6506,
      "lon": 121.4673
    },
    {
      "city": "宜蘭縣",
      "town": "大同鄉",
      "name": "太平山中間站",
      "temp": 18.5,
      "at": 20.600014982220568,
      "lat": 24.5437,
      "lon": 121.5052
    },
    {
      "city": "宜蘭縣",
      "town": "大同鄉",
      "name": "翠峰林道6K",
      "temp": 13.1,
      "at": 13.207536809907818,
      "lat": 24.4995,
      "lon": 121.5604
    },
    {
      "city": "宜蘭縣",
      "town": "大同鄉",
      "name": "太平山莊",
      "temp": 13.8,
      "at": 13.249031380411541,
      "lat": 24.4959,
      "lon": 121.5281
    },
    {
      "city": "高雄市",
      "town": "大樹區",
      "name": "大樹",
      "temp": 28.4,
      "at": 30.030677262205778,
      "lat": 22.686423,
      "lon": 120.424748
    },
    {
      "city": "新北市",
      "town": "林口區",
      "name": "太平里",
      "temp": 30.0,
      "at": 30.24964347310418,
      "lat": 25.136709,
      "lon": 121.356668
    },
    {
      "city": "臺東縣",
      "town": "太麻里鄉",
      "name": "美和",
      "temp": 25.9,
      "at": 25.03560963850858,
      "lat": 22.683881,
      "lon": 121.052177
    },
    {
      "city": "臺東縣",
      "town": "臺東市",
      "name": "富岡",
      "temp": 26.5,
      "at": 26.236942033420533,
      "lat": 22.794274,
      "lon": 121.184602
    },
    {
      "city": "臺東縣",
      "town": "東河鄉",
      "name": "新蘭",
      "temp": 26.4,
      "at": 25.936397591461805,
      "lat": 22.871021,
      "lon": 121.215155
    },
    {
      "city": "臺東縣",
      "town": "東河鄉",
      "name": "興隆",
      "temp": 26.2,
      "at": 27.345334153905096,
      "lat": 22.915469,
      "lon": 121.249394
    },
    {
      "city": "臺東縣",
      "town": "成功鎮",
      "name": "叭嗡嗡",
      "temp": 25.4,
      "at": 21.66106633449955,
      "lat": 23.048871,
      "lon": 121.335138
    },
    {
      "city": "臺東縣",
      "town": "成功鎮",
      "name": "白守蓮",
      "temp": 25.9,
      "at": 26.505609638508577,
      "lat": 23.12858,
      "lon": 121.393824
    },
    {
      "city": "臺東縣",
      "town": "成功鎮",
      "name": "小港漁港",
      "temp": 25.9,
      "at": 26.265545074369,
      "lat": 23.160368,
      "lon": 121.392338
    },
    {
      "city": "臺東縣",
      "town": "長濱鄉",
      "name": "長濱漁港",
      "temp": 25.4,
      "at": 25.93798441075667,
      "lat": 23.315454,
      "lon": 121.451891
    },
    {
      "city": "花蓮縣",
      "town": "花蓮市",
      "name": "花蓮漁港",
      "temp": 25.7,
      "at": 26.825874511039316,
      "lat": 23.997128,
      "lon": 121.63018
    },
    {
      "city": "花蓮縣",
      "town": "秀林鄉",
      "name": "加灣",
      "temp": 24.9,
      "at": 24.691562835328913,
      "lat": 24.083828,
      "lon": 121.600788
    },
    {
      "city": "花蓮縣",
      "town": "壽豐鄉",
      "name": "鹽寮",
      "temp": 26.6,
      "at": 28.856698481446344,
      "lat": 23.847418,
      "lon": 121.584524
    },
    {
      "city": "臺中市",
      "town": "大甲區",
      "name": "大甲溪埔",
      "temp": 29.5,
      "at": 32.096012934219246,
      "lat": 24.372375,
      "lon": 120.611895
    },
    {
      "city": "彰化縣",
      "town": "和美鎮",
      "name": "和美",
      "temp": 28.7,
      "at": 29.6060939736304,
      "lat": 24.106919,
      "lon": 120.483978
    },
    {
      "city": "屏東縣",
      "town": "滿州鄉",
      "name": "鼻頭",
      "temp": 25.7,
      "at": 21.672807844711386,
      "lat": 22.106107,
      "lon": 120.889862
    },
    {
      "city": "屏東縣",
      "town": "滿州鄉",
      "name": "興海",
      "temp": 26.4,
      "at": 23.34219729039453,
      "lat": 21.976985,
      "lon": 120.835907
    },
    {
      "city": "屏東縣",
      "town": "恆春鎮",
      "name": "後壁湖",
      "temp": 27.3,
      "at": 25.726023567687747,
      "lat": 21.94747,
      "lon": 120.737695
    },
    {
      "city": "屏東縣",
      "town": "恆春鎮",
      "name": "山海",
      "temp": 27.6,
      "at": 27.001261276112505,
      "lat": 21.989579,
      "lon": 120.701107
    },
    {
      "city": "屏東縣",
      "town": "車城鄉",
      "name": "竹坑",
      "temp": 27.8,
      "at": 24.906390357678042,
      "lat": 22.140248,
      "lon": 120.694128
    },
    {
      "city": "屏東縣",
      "town": "枋山鄉",
      "name": "加祿堂",
      "temp": 28.0,
      "at": 30.49476604386352,
      "lat": 22.338096,
      "lon": 120.613688
    },
    {
      "city": "臺南市",
      "town": "將軍區",
      "name": "鯤鯓國小",
      "temp": 28.6,
      "at": 32.435437252726175,
      "lat": 23.189624,
      "lon": 120.080813
    },
    {
      "city": "屏東縣",
      "town": "枋寮鄉",
      "name": "下寮",
      "temp": 27.9,
      "at": 32.31463619091354,
      "lat": 22.394648,
      "lon": 120.546743
    },
    {
      "city": "屏東縣",
      "town": "佳冬鄉",
      "name": "塭仔",
      "temp": 27.3,
      "at": 29.480924850897928,
      "lat": 22.418718,
      "lon": 120.511622
    },
    {
      "city": "高雄市",
      "town": "林園區",
      "name": "汕尾",
      "temp": 28.1,
      "at": 30.67947114680897,
      "lat": 22.479984,
      "lon": 120.407094
    },
    {
      "city": "高雄市",
      "town": "小港區",
      "name": "鳳鼻頭",
      "temp": 27.9,
      "at": 29.39102255682257,
      "lat": 22.510051,
      "lon": 120.351098
    },
    {
      "city": "高雄市",
      "town": "梓官區",
      "name": "蚵仔寮",
      "temp": 27.8,
      "at": 28.061143770495384,
      "lat": 22.727414,
      "lon": 120.244618
    },
    {
      "city": "高雄市",
      "town": "彌陀區",
      "name": "南寮",
      "temp": 27.8,
      "at": 28.975897183312732,
      "lat": 22.763381,
      "lon": 120.225866
    },
    {
      "city": "高雄市",
      "town": "彌陀區",
      "name": "文安",
      "temp": 28.7,
      "at": 29.35403906294134,
      "lat": 22.804288,
      "lon": 120.208308
    },
    {
      "city": "高雄市",
      "town": "茄萣區",
      "name": "興達",
      "temp": 28.2,
      "at": 30.287260790195646,
      "lat": 22.879517,
      "lon": 120.204681
    },
    {
      "city": "臺南市",
      "town": "安南區",
      "name": "城西",
      "temp": 27.8,
      "at": 30.90168941878229,
      "lat": 23.058558,
      "lon": 120.087492
    },
    {
      "city": "臺南市",
      "town": "安南區",
      "name": "四草",
      "temp": 27.6,
      "at": 29.5603967049748,
      "lat": 23.025295,
      "lon": 120.103558
    },
    {
      "city": "臺南市",
      "town": "北門區",
      "name": "蘆竹溝",
      "temp": 27.1,
      "at": 28.87591421489323,
      "lat": 23.236154,
      "lon": 120.088035
    },
    {
      "city": "臺南市",
      "town": "北門區",
      "name": "蚵寮",
      "temp": 28.2,
      "at": 30.18989645639075,
      "lat": 23.302745,
      "lon": 120.102281
    },
    {
      "city": "高雄市",
      "town": "前鎮區",
      "name": "前鎮",
      "temp": 28.3,
      "at": 30.595981778869913,
      "lat": 22.573925,
      "lon": 120.303144
    },
    {
      "city": "新北市",
      "town": "貢寮區",
      "name": "澳底",
      "temp": 26.0,
      "at": 27.151061604572977,
      "lat": 25.056993,
      "lon": 121.917036
    },
    {
      "city": "澎湖縣",
      "town": "七美鄉",
      "name": "七美",
      "temp": 26.8,
      "at": 28.05935878339657,
      "lat": 23.221053,
      "lon": 119.436809
    },
    {
      "city": "澎湖縣",
      "town": "望安鄉",
      "name": "望安",
      "temp": 26.8,
      "at": 25.309768735038755,
      "lat": 23.382282,
      "lon": 119.485981
    },
    {
      "city": "澎湖縣",
      "town": "湖西鄉",
      "name": "湖西",
      "temp": 27.2,
      "at": 28.234668232904212,
      "lat": 23.598035,
      "lon": 119.664639
    },
    {
      "city": "連江縣",
      "town": "北竿鄉",
      "name": "北竿",
      "temp": 22.8,
      "at": 22.59509166059042,
      "lat": 26.222038,
      "lon": 119.966574
    },
    {
      "city": "金門縣",
      "town": "烈嶼鄉",
      "name": "九宮",
      "temp": 29.3,
      "at": 31.34267624335824,
      "lat": 24.425386,
      "lon": 118.232031
    },
    {
      "city": "苗栗縣",
      "town": "通霄鎮",
      "name": "白沙屯",
      "temp": 29.2,
      "at": 32.15622953001422,
      "lat": 24.551198,
      "lon": 120.688617
    },
    {
      "city": "屏東縣",
      "town": "內埔鄉",
      "name": "內埔",
      "temp": 24.7,
      "at": 26.769289092096198,
      "lat": 22.610267,
      "lon": 120.562662
    },
    {
      "city": "臺北市",
      "town": "士林區",
      "name": "科教館",
      "temp": 29.6,
      "at": 29.147182559780703,
      "lat": 25.098133,
      "lon": 121.508275
    },
    {
      "city": "宜蘭縣",
      "town": "頭城鎮",
      "name": "大溪漁港",
      "temp": 25.6,
      "at": 28.452155494710446,
      "lat": 24.943603,
      "lon": 121.894736
    },
    {
      "city": "宜蘭縣",
      "town": "頭城鎮",
      "name": "石城",
      "temp": 27.0,
      "at": 29.622688080263032,
      "lat": 24.982247,
      "lon": 121.942992
    },
    {
      "city": "基隆市",
      "town": "安樂區",
      "name": "大武崙",
      "temp": 25.4,
      "at": 26.324713929820952,
      "lat": 25.168464,
      "lon": 121.698758
    },
    {
      "city": "新北市",
      "town": "萬里區",
      "name": "野柳",
      "temp": 24.7,
      "at": 19.196966819072145,
      "lat": 25.208817,
      "lon": 121.681783
    },
    {
      "city": "新北市",
      "town": "淡水區",
      "name": "淡水觀海",
      "temp": 28.6,
      "at": 25.83443649522348,
      "lat": 25.186364,
      "lon": 121.400381
    },
    {
      "city": "桃園市",
      "town": "大園區",
      "name": "竹圍",
      "temp": 29.3,
      "at": 27.516481607477644,
      "lat": 25.114458,
      "lon": 121.231594
    },
    {
      "city": "桃園市",
      "town": "新屋區",
      "name": "中大臨海站",
      "temp": 31.7,
      "at": 33.02140007085497,
      "lat": 24.967883,
      "lon": 121.000364
    },
    {
      "city": "新北市",
      "town": "石門區",
      "name": "石門",
      "temp": 25.1,
      "at": 24.09855612275033,
      "lat": 25.275453,
      "lon": 121.592956
    },
    {
      "city": "桃園市",
      "town": "觀音區",
      "name": "觀音工業區",
      "temp": 30.3,
      "at": 28.988186630401245,
      "lat": 25.066525,
      "lon": 121.106631
    },
    {
      "city": "新竹市",
      "town": "北區",
      "name": "海天一線",
      "temp": 31.3,
      "at": 31.85551263093324,
      "lat": 24.833742,
      "lon": 120.906231
    },
    {
      "city": "新竹市",
      "town": "香山區",
      "name": "香山濕地",
      "temp": 32.5,
      "at": 34.27266037047683,
      "lat": 24.785386,
      "lon": 120.906781
    },
    {
      "city": "新北市",
      "town": "瑞芳區",
      "name": "水湳洞",
      "temp": 26.6,
      "at": 26.966698481446343,
      "lat": 25.125492,
      "lon": 121.854006
    },
    {
      "city": "基隆市",
      "town": "中正區",
      "name": "八斗子",
      "temp": 26.2,
      "at": 24.615839142245616,
      "lat": 25.146547,
      "lon": 121.783436
    },
    {
      "city": "新竹縣",
      "town": "新豐鄉",
      "name": "外湖",
      "temp": 31.6,
      "at": 33.74151180036064,
      "lat": 24.919492,
      "lon": 120.960497
    },
    {
      "city": "苗栗縣",
      "town": "後龍鎮",
      "name": "海埔",
      "temp": 29.7,
      "at": 32.44304638378794,
      "lat": 24.650519,
      "lon": 120.764242
    },
    {
      "city": "苗栗縣",
      "town": "通霄鎮",
      "name": "通霄漁港",
      "temp": 28.8,
      "at": 31.546363446443493,
      "lat": 24.500339,
      "lon": 120.665694
    },
    {
      "city": "臺中市",
      "town": "大甲區",
      "name": "松柏",
      "temp": 31.1,
      "at": 35.38511882167752,
      "lat": 24.430864,
      "lon": 120.609306
    },
    {
      "city": "臺中市",
      "town": "大安區",
      "name": "溫寮",
      "temp": 29.1,
      "at": 31.363266719242795,
      "lat": 24.373925,
      "lon": 120.574953
    },
    {
      "city": "苗栗縣",
      "town": "竹南鎮",
      "name": "龍鳳",
      "temp": 30.0,
      "at": 32.897429556966685,
      "lat": 24.701789,
      "lon": 120.850928
    },
    {
      "city": "宜蘭縣",
      "town": "礁溪鄉",
      "name": "淡江大學蘭陽校園",
      "temp": 24.1,
      "at": 26.556719504044576,
      "lat": 24.825033,
      "lon": 121.722172
    },
    {
      "city": "屏東縣",
      "town": "林邊鄉",
      "name": "林邊",
      "temp": 26.8,
      "at": 31.095686744710314,
      "lat": 22.465232,
      "lon": 120.52585
    },
    {
      "city": "新北市",
      "town": "淡水區",
      "name": "六塊厝",
      "temp": 29.1,
      "at": 29.72819130423531,
      "lat": 25.241776,
      "lon": 121.439863
    },
    {
      "city": "新北市",
      "town": "三芝區",
      "name": "田寮",
      "temp": 27.5,
      "at": 26.838212635756516,
      "lat": 25.271575,
      "lon": 121.480355
    },
    {
      "city": "桃園市",
      "town": "觀音區",
      "name": "新興坑尾",
      "temp": 28.7,
      "at": 24.293286161042133,
      "lat": 25.007827,
      "lon": 121.088851
    },
    {
      "city": "宜蘭縣",
      "town": "蘇澳鎮",
      "name": "蘇澳",
      "temp": 26.9,
      "at": 27.72579535100986,
      "lat": 24.59875,
      "lon": 121.848895
    },
    {
      "city": "宜蘭縣",
      "town": "壯圍鄉",
      "name": "壯圍",
      "temp": 26.9,
      "at": 27.165595129629374,
      "lat": 24.737723,
      "lon": 121.808046
    },
    {
      "city": "宜蘭縣",
      "town": "頭城鎮",
      "name": "北關",
      "temp": 27.0,
      "at": 29.99725874925616,
      "lat": 24.90902,
      "lon": 121.865211
    },
    {
      "city": "彰化縣",
      "town": "伸港鄉",
      "name": "防潮門",
      "temp": 29.3,
      "at": 31.615308809970188,
      "lat": 24.185242,
      "lon": 120.478972
    },
    {
      "city": "臺中市",
      "town": "龍井區",
      "name": "臺中電廠",
      "temp": 28.2,
      "at": 29.869379677512654,
      "lat": 24.216388,
      "lon": 120.482584
    },
    {
      "city": "彰化縣",
      "town": "福興鄉",
      "name": "福寶",
      "temp": 28.1,
      "at": 28.759590377390545,
      "lat": 24.046048,
      "lon": 120.373213
    },
    {
      "city": "彰化縣",
      "town": "大城鄉",
      "name": "三豐",
      "temp": 27.5,
      "at": 28.898161274880877,
      "lat": 23.883719,
      "lon": 120.281409
    },
    {
      "city": "雲林縣",
      "town": "口湖鄉",
      "name": "箔子寮",
      "temp": 27.0,
      "at": 27.830970756235562,
      "lat": 23.621487,
      "lon": 120.13192
    },
    {
      "city": "嘉義縣",
      "town": "布袋鎮",
      "name": "好美里",
      "temp": 27.6,
      "at": 29.54186866104113,
      "lat": 23.338176,
      "lon": 120.129936
    },
    {
      "city": "新北市",
      "town": "板橋區",
      "name": "板橋",
      "temp": 28.3,
      "at": 26.20253521537487,
      "lat": 25.012431,
      "lon": 121.440638
    },
    {
      "city": "連江縣",
      "town": "莒光鄉",
      "name": "東莒",
      "temp": 22.3,
      "at": 20.987839646348,
      "lat": 25.966883,
      "lon": 119.9724
    },
    {
      "city": "澎湖縣",
      "town": "西嶼鄉",
      "name": "西嶼",
      "temp": 26.5,
      "at": 24.04197958343243,
      "lat": 23.564311,
      "lon": 119.460328
    },
    {
      "city": "澎湖縣",
      "town": "望安鄉",
      "name": "花嶼",
      "temp": 27.3,
      "at": 33.08773815290428,
      "lat": 23.401778,
      "lon": 119.314667
    },
    {
      "city": "金門縣",
      "town": "金沙鎮",
      "name": "金沙",
      "temp": 28.2,
      "at": 27.23992234229306,
      "lat": 24.489931,
      "lon": 118.400617
    },
    {
      "city": "金門縣",
      "town": "金寧鄉",
      "name": "金寧",
      "temp": 28.0,
      "at": 26.01575289099923,
      "lat": 24.459339,
      "lon": 118.320831
    },
    {
      "city": "金門縣",
      "town": "烏坵鄉",
      "name": "烏坵",
      "temp": 24.2,
      "at": 18.27926082101169,
      "lat": 24.996081,
      "lon": 119.441347
    },
    {
      "city": "臺北市",
      "town": "松山區",
      "name": "松山",
      "temp": 28.5,
      "at": 27.935782047951342,
      "lat": 25.050492,
      "lon": 121.542203
    },
    {
      "city": "苗栗縣",
      "town": "後龍鎮",
      "name": "高鐵苗栗",
      "temp": 31.2,
      "at": 34.04157940292755,
      "lat": 24.609,
      "lon": 120.817906
    },
    {
      "city": "雲林縣",
      "town": "虎尾鎮",
      "name": "高鐵雲林",
      "temp": 30.1,
      "at": 34.944429672175524,
      "lat": 23.739206,
      "lon": 120.409817
    },
    {
      "city": "桃園市",
      "town": "龜山區",
      "name": "國一五楊N44K",
      "temp": 26.3,
      "at": 27.4133757367506,
      "lat": 25.065633,
      "lon": 121.332769
    },
    {
      "city": "基隆市",
      "town": "中正區",
      "name": "基隆嶼",
      "temp": 24.1,
      "at": 22.566719504044578,
      "lat": 25.1932,
      "lon": 121.775678
    },
    {
      "city": "臺東縣",
      "town": "蘭嶼鄉",
      "name": "蘭嶼高中",
      "temp": 27.5,
      "at": 28.48668207589123,
      "lat": 22.050931,
      "lon": 121.504119
    },
    {
      "city": "臺東縣",
      "town": "蘭嶼鄉",
      "name": "蘭嶼燈塔",
      "temp": 26.1,
      "at": 27.914395592289765,
      "lat": 22.083031,
      "lon": 121.495094
    },
    {
      "city": "新北市",
      "town": "石門區",
      "name": "白沙灣",
      "temp": 26.6,
      "at": 26.209521441557595,
      "lat": 25.284903,
      "lon": 121.510814
    },
    {
      "city": "高雄市",
      "town": "甲仙區",
      "name": "小林",
      "temp": 25.5,
      "at": 28.978584427281,
      "lat": 23.150164,
      "lon": 120.625189
    },
    {
      "city": "桃園市",
      "town": "大溪區",
      "name": "大溪永福",
      "temp": 30.9,
      "at": 32.4114521040947,
      "lat": 24.894711,
      "lon": 121.316761
    },
    {
      "city": "宜蘭縣",
      "town": "大同鄉",
      "name": "玉蘭",
      "temp": 23.7,
      "at": 25.715883758062578,
      "lat": 24.677222,
      "lon": 121.578889
    },
    {
      "city": "宜蘭縣",
      "town": "五結鄉",
      "name": "五結",
      "temp": 27.4,
      "at": 29.00391774769828,
      "lat": 24.688722,
      "lon": 121.790222
    },
    {
      "city": "宜蘭縣",
      "town": "大同鄉",
      "name": "太平山",
      "temp": 13.5,
      "at": 14.494652178407645,
      "lat": 24.507222,
      "lon": 121.5175
    },
    {
      "city": "宜蘭縣",
      "town": "大同鄉",
      "name": "南山",
      "temp": 17.3,
      "at": 17.246779223871627,
      "lat": 24.439167,
      "lon": 121.373333
    },
    {
      "city": "宜蘭縣",
      "town": "員山鄉",
      "name": "雙連埤",
      "temp": 21.8,
      "at": 25.122276178310912,
      "lat": 24.754722,
      "lon": 121.633056
    },
    {
      "city": "宜蘭縣",
      "town": "頭城鎮",
      "name": "頭城",
      "temp": 27.8,
      "at": 30.391416594638834,
      "lat": 24.855031,
      "lon": 121.822586
    },
    {
      "city": "宜蘭縣",
      "town": "礁溪鄉",
      "name": "大礁溪",
      "temp": 22.6,
      "at": 25.21864407770581,
      "lat": 24.792836,
      "lon": 121.666839
    },
    {
      "city": "宜蘭縣",
      "town": "三星鄉",
      "name": "三星",
      "temp": 26.4,
      "at": 27.826397591461806,
      "lat": 24.669917,
      "lon": 121.644819
    },
    {
      "city": "宜蘭縣",
      "town": "員山鄉",
      "name": "內城",
      "temp": 26.8,
      "at": 29.975686744710316,
      "lat": 24.719928,
      "lon": 121.679461
    },
    {
      "city": "宜蘭縣",
      "town": "冬山鄉",
      "name": "冬山",
      "temp": 27.3,
      "at": 28.11048494487885,
      "lat": 24.635528,
      "lon": 121.7855
    },
    {
      "city": "宜蘭縣",
      "town": "礁溪鄉",
      "name": "礁溪",
      "temp": 27.3,
      "at": 29.300484944878853,
      "lat": 24.819336,
      "lon": 121.757397
    },
    {
      "city": "宜蘭縣",
      "town": "頭城鎮",
      "name": "龜山島",
      "temp": 22.1,
      "at": 21.21822109692483,
      "lat": 24.843392,
      "lon": 121.944947
    },
    {
      "city": "新北市",
      "town": "貢寮區",
      "name": "三貂角",
      "temp": 27.6,
      "at": 28.765677144311496,
      "lat": 25.009444,
      "lon": 121.993889
    },
    {
      "city": "宜蘭縣",
      "town": "羅東鎮",
      "name": "羅東",
      "temp": 28.4,
      "at": 30.858115340146973,
      "lat": 24.683636,
      "lon": 121.741144
    },
    {
      "city": "宜蘭縣",
      "town": "頭城鎮",
      "name": "鶯子嶺",
      "temp": 17.1,
      "at": 12.251866008160505,
      "lat": 24.899333,
      "lon": 121.784231
    },
    {
      "city": "宜蘭縣",
      "town": "壯圍鄉",
      "name": "大福",
      "temp": 27.2,
      "at": 28.700667994994717,
      "lat": 24.802436,
      "lon": 121.805683
    },
    {
      "city": "宜蘭縣",
      "town": "頭城鎮",
      "name": "坪林石牌",
      "temp": 21.4,
      "at": 21.71557923542883,
      "lat": 24.866578,
      "lon": 121.76575
    },
    {
      "city": "花蓮縣",
      "town": "秀林鄉",
      "name": "天祥",
      "temp": 23.8,
      "at": 25.335761341670178,
      "lat": 24.181389,
      "lon": 121.4875
    },
    {
      "city": "花蓮縣",
      "town": "壽豐鄉",
      "name": "東華",
      "temp": 26.1,
      "at": 33.22411116513201,
      "lat": 23.897056,
      "lon": 121.541694
    },
    {
      "city": "花蓮縣",
      "town": "壽豐鄉",
      "name": "鯉魚潭",
      "temp": 23.9,
      "at": 26.827266737564422,
      "lat": 23.937444,
      "lon": 121.500806
    },
    {
      "city": "花蓮縣",
      "town": "秀林鄉",
      "name": "水源",
      "temp": 21.5,
      "at": 24.09738018923951,
      "lat": 23.993718,
      "lon": 121.529043
    },
    {
      "city": "花蓮縣",
      "town": "鳳林鎮",
      "name": "鳳林山",
      "temp": 21.2,
      "at": 23.440413462021855,
      "lat": 23.737072,
      "lon": 121.411994
    },
    {
      "city": "花蓮縣",
      "town": "光復鄉",
      "name": "光復",
      "temp": 25.4,
      "at": 27.987418739178153,
      "lat": 23.662497,
      "lon": 121.416839
    },
    {
      "city": "花蓮縣",
      "town": "萬榮鄉",
      "name": "西林",
      "temp": 24.5,
      "at": 28.040780332671254,
      "lat": 23.813667,
      "lon": 121.433194
    },
    {
      "city": "花蓮縣",
      "town": "壽豐鄉",
      "name": "月眉山",
      "temp": 23.0,
      "at": 27.0430801068189,
      "lat": 23.811736,
      "lon": 121.531686
    },
    {
      "city": "花蓮縣",
      "town": "壽豐鄉",
      "name": "大坑",
      "temp": 22.6,
      "at": 25.830078237529335,
      "lat": 23.882433,
      "lon": 121.573839
    },
    {
      "city": "花蓮縣",
      "town": "豐濱鄉",
      "name": "加路蘭山",
      "temp": 21.1,
      "at": 22.967936961393704,
      "lat": 23.684706,
      "lon": 121.519219
    },
    {
      "city": "花蓮縣",
      "town": "壽豐鄉",
      "name": "水璉",
      "temp": 24.0,
      "at": 28.14915423573776,
      "lat": 23.798889,
      "lon": 121.534167
    },
    {
      "city": "花蓮縣",
      "town": "豐濱鄉",
      "name": "豐濱",
      "temp": 25.0,
      "at": 28.466783223846257,
      "lat": 23.585708,
      "lon": 121.506678
    },
    {
      "city": "花蓮縣",
      "town": "富里鄉",
      "name": "明里",
      "temp": 24.2,
      "at": 24.992432019698455,
      "lat": 23.210556,
      "lon": 121.254167
    },
    {
      "city": "花蓮縣",
      "town": "玉里鎮",
      "name": "玉里",
      "temp": 25.0,
      "at": 27.17876923698471,
      "lat": 23.323306,
      "lon": 121.331556
    },
    {
      "city": "花蓮縣",
      "town": "瑞穗鄉",
      "name": "舞鶴",
      "temp": 23.4,
      "at": 25.308866360889542,
      "lat": 23.469722,
      "lon": 121.365833
    },
    {
      "city": "花蓮縣",
      "town": "卓溪鄉",
      "name": "佳心",
      "temp": 19.6,
      "at": 21.316416817388053,
      "lat": 23.347464,
      "lon": 121.205061
    },
    {
      "city": "花蓮縣",
      "town": "光復鄉",
      "name": "富源",
      "temp": 24.2,
      "at": 28.12672386206227,
      "lat": 23.58975,
      "lon": 121.370389
    },
    {
      "city": "花蓮縣",
      "town": "吉安鄉",
      "name": "吉安光華",
      "temp": 25.8,
      "at": 26.694407786155885,
      "lat": 23.932733,
      "lon": 121.587003
    },
    {
      "city": "花蓮縣",
      "town": "鳳林鎮",
      "name": "鳳林",
      "temp": 25.0,
      "at": 27.31876923698471,
      "lat": 23.747917,
      "lon": 121.445278
    },
    {
      "city": "花蓮縣",
      "town": "卓溪鄉",
      "name": "卓溪",
      "temp": 24.7,
      "at": 25.249345104209606,
      "lat": 23.346133,
      "lon": 121.294748
    },
    {
      "city": "花蓮縣",
      "town": "新城鄉",
      "name": "新城",
      "temp": 25.2,
      "at": 26.69103053402437,
      "lat": 24.042289,
      "lon": 121.596724
    },
    {
      "city": "花蓮縣",
      "town": "秀林鄉",
      "name": "富世",
      "temp": 24.9,
      "at": 28.87761698985561,
      "lat": 24.149236,
      "lon": 121.621542
    },
    {
      "city": "花蓮縣",
      "town": "鳳林鎮",
      "name": "萬榮",
      "temp": 25.4,
      "at": 28.337418739178155,
      "lat": 23.711022,
      "lon": 121.411969
    },
    {
      "city": "花蓮縣",
      "town": "瑞穗鄉",
      "name": "瑞穗",
      "temp": 25.2,
      "at": 27.918381332056523,
      "lat": 23.525708,
      "lon": 121.382086
    },
    {
      "city": "花蓮縣",
      "town": "卓溪鄉",
      "name": "瑞穗林道",
      "temp": 17.7,
      "at": 19.497776987367935,
      "lat": 23.494642,
      "lon": 121.298764
    },
    {
      "city": "花蓮縣",
      "town": "壽豐鄉",
      "name": "蕃薯寮",
      "temp": 23.6,
      "at": 25.764831606563174,
      "lat": 23.740156,
      "lon": 121.531975
    },
    {
      "city": "花蓮縣",
      "town": "玉里鎮",
      "name": "德武",
      "temp": 25.6,
      "at": 28.530137780123177,
      "lat": 23.476069,
      "lon": 121.402597
    },
    {
      "city": "花蓮縣",
      "town": "玉里鎮",
      "name": "赤柯山",
      "temp": 18.1,
      "at": 20.102514080441722,
      "lat": 23.370733,
      "lon": 121.374825
    },
    {
      "city": "花蓮縣",
      "town": "富里鄉",
      "name": "東里",
      "temp": 25.1,
      "at": 26.40917471070977,
      "lat": 23.270336,
      "lon": 121.297364
    },
    {
      "city": "花蓮縣",
      "town": "秀林鄉",
      "name": "清水斷崖",
      "temp": 25.2,
      "at": 28.549321651269373,
      "lat": 24.2201,
      "lon": 121.680972
    },
    {
      "city": "花蓮縣",
      "town": "卓溪鄉",
      "name": "清水林道",
      "temp": 21.8,
      "at": 23.60696898234609,
      "lat": 23.273047,
      "lon": 121.180172
    },
    {
      "city": "花蓮縣",
      "town": "玉里鎮",
      "name": "安通山",
      "temp": 21.8,
      "at": 23.56631947856311,
      "lat": 23.292536,
      "lon": 121.340419
    },
    {
      "city": "花蓮縣",
      "town": "豐濱鄉",
      "name": "靜浦",
      "temp": 26.0,
      "at": 30.839860519838616,
      "lat": 23.456944,
      "lon": 121.486667
    },
    {
      "city": "臺東縣",
      "town": "長濱鄉",
      "name": "長濱",
      "temp": 23.3,
      "at": 25.966877864248747,
      "lat": 23.288611,
      "lon": 121.403889
    },
    {
      "city": "臺東縣",
      "town": "東河鄉",
      "name": "東河",
      "temp": 26.1,
      "at": 28.820601150546366,
      "lat": 22.973611,
      "lon": 121.298333
    },
    {
      "city": "臺東縣",
      "town": "綠島鄉",
      "name": "綠島",
      "temp": 25.0,
      "at": 24.649454552800112,
      "lat": 22.669025,
      "lon": 121.467267
    },
    {
      "city": "臺東縣",
      "town": "海端鄉",
      "name": "下馬",
      "temp": 19.8,
      "at": 20.889439889333186,
      "lat": 23.152222,
      "lon": 121.062222
    },
    {
      "city": "臺東縣",
      "town": "海端鄉",
      "name": "向陽",
      "temp": 13.6,
      "at": 14.627237912187233,
      "lat": 23.25,
      "lon": 120.978056
    },
    {
      "city": "臺東縣",
      "town": "海端鄉",
      "name": "紅石",
      "temp": 14.8,
      "at": 15.492190009988914,
      "lat": 23.070902,
      "lon": 121.11777
    },
    {
      "city": "臺東縣",
      "town": "池上鄉",
      "name": "池上",
      "temp": 24.6,
      "at": 25.420325168779712,
      "lat": 23.121389,
      "lon": 121.201667
    },
    {
      "city": "臺東縣",
      "town": "鹿野鄉",
      "name": "鹿野",
      "temp": 24.1,
      "at": 25.642856378778486,
      "lat": 22.919517,
      "lon": 121.114908
    },
    {
      "city": "臺東縣",
      "town": "達仁鄉",
      "name": "土坂",
      "temp": 24.8,
      "at": 27.861278972549844,
      "lat": 22.454908,
      "lon": 120.879528
    },
    {
      "city": "臺東縣",
      "town": "太麻里鄉",
      "name": "大溪山",
      "temp": 22.4,
      "at": 24.189561839561115,
      "lat": 22.48,
      "lon": 120.935278
    },
    {
      "city": "臺東縣",
      "town": "達仁鄉",
      "name": "南田",
      "temp": 27.5,
      "at": 28.651273755487097,
      "lat": 22.291944,
      "lon": 120.881944
    },
    {
      "city": "臺東縣",
      "town": "太麻里鄉",
      "name": "金崙",
      "temp": 23.7,
      "at": 26.977330650826104,
      "lat": 22.54,
      "lon": 120.958889
    },
    {
      "city": "臺東縣",
      "town": "太麻里鄉",
      "name": "太麻里",
      "temp": 21.0,
      "at": 22.195649980555128,
      "lat": 22.610825,
      "lon": 120.977275
    },
    {
      "city": "臺東縣",
      "town": "卑南鄉",
      "name": "知本",
      "temp": 21.3,
      "at": 23.99330732047537,
      "lat": 22.686667,
      "lon": 120.997583
    },
    {
      "city": "花蓮縣",
      "town": "富里鄉",
      "name": "富里",
      "temp": 25.3,
      "at": 27.462481875366723,
      "lat": 23.173442,
      "lon": 121.241286
    },
    {
      "city": "桃園市",
      "town": "中壢區",
      "name": "中壢",
      "temp": 28.1,
      "at": 26.138040379830098,
      "lat": 24.979428,
      "lon": 121.248156
    },
    {
      "city": "臺南市",
      "town": "柳營區",
      "name": "柳營",
      "temp": 31.3,
      "at": 32.10664082227384,
      "lat": 23.255089,
      "lon": 120.367158
    },
    {
      "city": "新竹縣",
      "town": "關西鎮",
      "name": "關西",
      "temp": 31.1,
      "at": 32.61350974364739,
      "lat": 24.799421,
      "lon": 121.165033
    },
    {
      "city": "嘉義縣",
      "town": "阿里山鄉",
      "name": "新美",
      "temp": 25.5,
      "at": 29.463856226631442,
      "lat": 23.339792,
      "lon": 120.675231
    },
    {
      "city": "彰化縣",
      "town": "永靖鄉",
      "name": "永靖",
      "temp": 30.1,
      "at": 32.70163770964117,
      "lat": 23.926458,
      "lon": 120.539392
    },
    {
      "city": "彰化縣",
      "town": "竹塘鄉",
      "name": "竹塘",
      "temp": 29.7,
      "at": 33.55738112269061,
      "lat": 23.85,
      "lon": 120.378628
    },
    {
      "city": "雲林縣",
      "town": "東勢鄉",
      "name": "雲林東勢",
      "temp": 30.2,
      "at": 34.61080494576984,
      "lat": 23.675939,
      "lon": 120.2476
    },
    {
      "city": "屏東縣",
      "town": "車城鄉",
      "name": "車城",
      "temp": 28.6,
      "at": 25.47561063881126,
      "lat": 22.075833,
      "lon": 120.708056
    },
    {
      "city": "屏東縣",
      "town": "春日鄉",
      "name": "大漢山",
      "temp": 13.7,
      "at": 10.663275573419927,
      "lat": 22.405861,
      "lon": 120.745083
    },
    {
      "city": "屏東縣",
      "town": "枋山鄉",
      "name": "枋山",
      "temp": 27.3,
      "at": 23.746221001267404,
      "lat": 22.249572,
      "lon": 120.652748
    },
    {
      "city": "屏東縣",
      "town": "枋寮鄉",
      "name": "枋寮",
      "temp": 27.9,
      "at": 31.458249825004508,
      "lat": 22.369511,
      "lon": 120.582611
    },
    {
      "city": "屏東縣",
      "town": "枋山鄉",
      "name": "楓港",
      "temp": 27.3,
      "at": 26.27430898247122,
      "lat": 22.191928,
      "lon": 120.684131
    },
    {
      "city": "屏東縣",
      "town": "滿州鄉",
      "name": "檳榔",
      "temp": 26.8,
      "at": 28.86017868668094,
      "lat": 22.077883,
      "lon": 120.828758
    },
    {
      "city": "屏東縣",
      "town": "牡丹鄉",
      "name": "牡丹",
      "temp": 26.0,
      "at": 27.191648198924018,
      "lat": 22.131817,
      "lon": 120.784589
    },
    {
      "city": "屏東縣",
      "town": "滿州鄉",
      "name": "佳樂水",
      "temp": 27.5,
      "at": 26.831273755487096,
      "lat": 21.995386,
      "lon": 120.853619
    },
    {
      "city": "屏東縣",
      "town": "恆春鎮",
      "name": "墾丁",
      "temp": 27.4,
      "at": 30.624104307112482,
      "lat": 21.968561,
      "lon": 120.802258
    },
    {
      "city": "屏東縣",
      "town": "牡丹鄉",
      "name": "旭海",
      "temp": 24.6,
      "at": 24.796250558765266,
      "lat": 22.207208,
      "lon": 120.879586
    },
    {
      "city": "屏東縣",
      "town": "恆春鎮",
      "name": "貓鼻頭",
      "temp": 28.1,
      "at": 27.878636532737957,
      "lat": 21.923578,
      "lon": 120.727792
    },
    {
      "city": "屏東縣",
      "town": "恆春鎮",
      "name": "墾雷",
      "temp": 27.4,
      "at": 29.71453961241229,
      "lat": 21.90265,
      "lon": 120.847244
    },
    {
      "city": "屏東縣",
      "town": "牡丹鄉",
      "name": "四林格山",
      "temp": 24.4,
      "at": 21.514908738453343,
      "lat": 22.078792,
      "lon": 120.794419
    },
    {
      "city": "屏東縣",
      "town": "恆春鎮",
      "name": "大坪頂",
      "temp": 27.6,
      "at": 26.459789320046166,
      "lat": 22.026433,
      "lon": 120.685536
    },
    {
      "city": "屏東縣",
      "town": "恆春鎮",
      "name": "龍磐",
      "temp": 26.6,
      "at": 24.1986506256021,
      "lat": 21.933481,
      "lon": 120.830933
    },
    {
      "city": "屏東縣",
      "town": "獅子鄉",
      "name": "獅子",
      "temp": 27.8,
      "at": 27.077974828617158,
      "lat": 22.204106,
      "lon": 120.69721
    },
    {
      "city": "宜蘭縣",
      "town": "南澳鄉",
      "name": "東澳",
      "temp": 27.1,
      "at": 31.38414596879398,
      "lat": 24.523767,
      "lon": 121.824986
    },
    {
      "city": "宜蘭縣",
      "town": "南澳鄉",
      "name": "南澳",
      "temp": 26.2,
      "at": 29.164829165564576,
      "lat": 24.451153,
      "lon": 121.802036
    },
    {
      "city": "花蓮縣",
      "town": "秀林鄉",
      "name": "和中",
      "temp": 25.2,
      "at": 29.637612768514387,
      "lat": 24.268567,
      "lon": 121.732861
    },
    {
      "city": "宜蘭縣",
      "town": "大同鄉",
      "name": "翠峰湖",
      "temp": 14.7,
      "at": 15.387851521821592,
      "lat": 24.51265,
      "lon": 121.599858
    },
    {
      "city": "花蓮縣",
      "town": "秀林鄉",
      "name": "和平林道",
      "temp": 22.1,
      "at": 24.665597208581566,
      "lat": 24.345722,
      "lon": 121.648142
    },
    {
      "city": "花蓮縣",
      "town": "秀林鄉",
      "name": "和平",
      "temp": 25.5,
      "at": 27.843938320460744,
      "lat": 24.308961,
      "lon": 121.761903
    },
    {
      "city": "宜蘭縣",
      "town": "南澳鄉",
      "name": "樟樹山",
      "temp": 23.0,
      "at": 26.393283320298487,
      "lat": 24.415731,
      "lon": 121.775067
    },
    {
      "city": "宜蘭縣",
      "town": "頭城鎮",
      "name": "桃源谷",
      "temp": 22.5,
      "at": 24.15304976589915,
      "lat": 24.964408,
      "lon": 121.880658
    },
    {
      "city": "宜蘭縣",
      "town": "南澳鄉",
      "name": "西帽山",
      "temp": 22.0,
      "at": 24.66185372953264,
      "lat": 24.557164,
      "lon": 121.794436
    },
    {
      "city": "宜蘭縣",
      "town": "南澳鄉",
      "name": "西德山",
      "temp": 18.6,
      "at": 18.497933590514076,
      "lat": 24.562447,
      "lon": 121.744417
    },
    {
      "city": "新北市",
      "town": "烏來區",
      "name": "福山植物園",
      "temp": 22.7,
      "at": 25.019039868867797,
      "lat": 24.762506,
      "lon": 121.573147
    },
    {
      "city": "宜蘭縣",
      "town": "大同鄉",
      "name": "鴛鴦湖",
      "temp": 14.3,
      "at": 15.614288388529214,
      "lat": 24.592053,
      "lon": 121.404039
    },
    {
      "city": "宜蘭縣",
      "town": "大同鄉",
      "name": "白嶺",
      "temp": 15.9,
      "at": 17.849013761775435,
      "lat": 24.529611,
      "lon": 121.510844
    },
    {
      "city": "宜蘭縣",
      "town": "大同鄉",
      "name": "土場",
      "temp": 23.0,
      "at": 25.931037337147973,
      "lat": 24.578356,
      "lon": 121.487153
    },
    {
      "city": "宜蘭縣",
      "town": "員山鄉",
      "name": "員山",
      "temp": 27.1,
      "at": 29.1583262218279,
      "lat": 24.746147,
      "lon": 121.714269
    },
    {
      "city": "桃園市",
      "town": "蘆竹區",
      "name": "蘆竹",
      "temp": 29.7,
      "at": 26.96403373366396,
      "lat": 25.086111,
      "lon": 121.2575
    },
    {
      "city": "新竹縣",
      "town": "橫山鄉",
      "name": "橫山",
      "temp": 31.5,
      "at": 35.55773998696432,
      "lat": 24.712925,
      "lon": 121.108733
    },
    {
      "city": "新竹縣",
      "town": "新豐鄉",
      "name": "新豐",
      "temp": 31.8,
      "at": 34.17069134729057,
      "lat": 24.872436,
      "lon": 120.969
    },
    {
      "city": "新竹縣",
      "town": "五峰鄉",
      "name": "雪霸",
      "temp": 18.5,
      "at": 20.108902206418282,
      "lat": 24.528722,
      "lon": 121.107917
    },
    {
      "city": "新竹縣",
      "town": "竹東鎮",
      "name": "竹東",
      "temp": 33.7,
      "at": 35.943773683364356,
      "lat": 24.76925,
      "lon": 121.049861
    },
    {
      "city": "桃園市",
      "town": "平鎮區",
      "name": "平鎮",
      "temp": 28.2,
      "at": 27.63255800848816,
      "lat": 24.899444,
      "lon": 121.206389
    },
    {
      "city": "桃園市",
      "town": "大溪區",
      "name": "大溪",
      "temp": 28.7,
      "at": 28.98328616104213,
      "lat": 24.884722,
      "lon": 121.256944
    },
    {
      "city": "苗栗縣",
      "town": "頭份市",
      "name": "頭份",
      "temp": 32.1,
      "at": 34.56297064370639,
      "lat": 24.69,
      "lon": 120.904167
    },
    {
      "city": "新竹縣",
      "town": "寶山鄉",
      "name": "寶山",
      "temp": 30.6,
      "at": 34.39847050520567,
      "lat": 24.736722,
      "lon": 121.016769
    },
    {
      "city": "苗栗縣",
      "town": "獅潭鄉",
      "name": "獅潭",
      "temp": 30.5,
      "at": 34.33848667248477,
      "lat": 24.541028,
      "lon": 120.911972
    },
    {
      "city": "桃園市",
      "town": "楊梅區",
      "name": "楊梅",
      "temp": 29.5,
      "at": 29.838810347375393,
      "lat": 24.914139,
      "lon": 121.134833
    },
    {
      "city": "新竹縣",
      "town": "湖口鄉",
      "name": "湖口",
      "temp": 30.4,
      "at": 30.873302758865577,
      "lat": 24.906556,
      "lon": 121.035417
    },
    {
      "city": "桃園市",
      "town": "龍潭區",
      "name": "龍潭",
      "temp": 28.6,
      "at": 29.393175658593165,
      "lat": 24.871833,
      "lon": 121.213194
    },
    {
      "city": "新竹市",
      "town": "東區",
      "name": "新竹市東區",
      "temp": 30.5,
      "at": 31.628162303264318,
      "lat": 24.800436,
      "lon": 120.978742
    },
    {
      "city": "苗栗縣",
      "town": "三灣鄉",
      "name": "大河",
      "temp": 30.7,
      "at": 33.342569738707645,
      "lat": 24.619833,
      "lon": 120.94055
    },
    {
      "city": "臺中市",
      "town": "和平區",
      "name": "桃山",
      "temp": 12.1,
      "at": 11.469945771845595,
      "lat": 24.434519,
      "lon": 121.295628
    },
    {
      "city": "臺中市",
      "town": "和平區",
      "name": "雪山圈谷",
      "temp": 8.5,
      "at": 5.904592196683517,
      "lat": 24.390375,
      "lon": 121.228197
    },
    {
      "city": "桃園市",
      "town": "龜山區",
      "name": "龜山",
      "temp": 27.1,
      "at": 26.740609476595484,
      "lat": 25.030231,
      "lon": 121.378336
    },
    {
      "city": "臺中市",
      "town": "和平區",
      "name": "審馬陣",
      "temp": 11.9,
      "at": 11.171245825532367,
      "lat": 24.383461,
      "lon": 121.412122
    },
    {
      "city": "臺中市",
      "town": "和平區",
      "name": "南湖圈谷",
      "temp": 9.1,
      "at": 5.462089399328331,
      "lat": 24.365503,
      "lon": 121.436489
    },
    {
      "city": "苗栗縣",
      "town": "苗栗市",
      "name": "苗栗",
      "temp": 31.6,
      "at": 34.26293566071759,
      "lat": 24.566667,
      "lon": 120.816444
    },
    {
      "city": "苗栗縣",
      "town": "銅鑼鄉",
      "name": "銅鑼",
      "temp": 31.8,
      "at": 35.33747323850566,
      "lat": 24.491528,
      "lon": 120.782639
    },
    {
      "city": "苗栗縣",
      "town": "西湖鄉",
      "name": "西湖",
      "temp": 31.4,
      "at": 35.12706591086308,
      "lat": 24.564417,
      "lon": 120.740278
    },
    {
      "city": "臺中市",
      "town": "大安區",
      "name": "大安",
      "temp": 29.2,
      "at": 31.769836085810297,
      "lat": 24.347444,
      "lon": 120.579972
    },
    {
      "city": "臺中市",
      "town": "后里區",
      "name": "后里",
      "temp": 29.2,
      "at": 31.523442641606366,
      "lat": 24.312111,
      "lon": 120.7215
    },
    {
      "city": "臺中市",
      "town": "豐原區",
      "name": "豐原",
      "temp": 30.7,
      "at": 34.80547044764018,
      "lat": 24.256306,
      "lon": 120.712333
    },
    {
      "city": "臺中市",
      "town": "潭子區",
      "name": "潭子",
      "temp": 29.5,
      "at": 33.386414874352134,
      "lat": 24.21475,
      "lon": 120.695833
    },
    {
      "city": "臺中市",
      "town": "清水區",
      "name": "清水",
      "temp": 30.0,
      "at": 33.5319532296102,
      "lat": 24.314028,
      "lon": 120.554083
    },
    {
      "city": "臺中市",
      "town": "外埔區",
      "name": "外埔",
      "temp": 28.7,
      "at": 33.333525335269066,
      "lat": 24.349556,
      "lon": 120.697472
    },
    {
      "city": "臺中市",
      "town": "龍井區",
      "name": "龍井",
      "temp": 29.5,
      "at": 31.658413796500525,
      "lat": 24.186278,
      "lon": 120.520833
    },
    {
      "city": "彰化縣",
      "town": "伸港鄉",
      "name": "伸港",
      "temp": 28.6,
      "at": 30.285523945768723,
      "lat": 24.150528,
      "lon": 120.476167
    },
    {
      "city": "苗栗縣",
      "town": "苑裡鎮",
      "name": "苑裡",
      "temp": 29.9,
      "at": 32.335015117670245,
      "lat": 24.441458,
      "lon": 120.644883
    },
    {
      "city": "臺中市",
      "town": "石岡區",
      "name": "石岡",
      "temp": 28.0,
      "at": 30.80510960720241,
      "lat": 24.277822,
      "lon": 120.769478
    },
    {
      "city": "臺中市",
      "town": "和平區",
      "name": "中坑",
      "temp": 21.9,
      "at": 25.559870309776564,
      "lat": 24.250283,
      "lon": 120.895153
    },
    {
      "city": "南投縣",
      "town": "魚池鄉",
      "name": "魚池",
      "temp": 29.8,
      "at": 32.613539673916534,
      "lat": 23.897478,
      "lon": 120.933219
    },
    {
      "city": "南投縣",
      "town": "仁愛鄉",
      "name": "仁愛",
      "temp": 25.1,
      "at": 26.65494794565907,
      "lat": 24.023903,
      "lon": 121.124056
    },
    {
      "city": "南投縣",
      "town": "水里鄉",
      "name": "水里",
      "temp": 29.2,
      "at": 31.532950841173445,
      "lat": 23.814322,
      "lon": 120.841658
    },
    {
      "city": "南投縣",
      "town": "集集鎮",
      "name": "集集",
      "temp": 29.2,
      "at": 33.24934428537737,
      "lat": 23.829972,
      "lon": 120.793328
    },
    {
      "city": "南投縣",
      "town": "名間鄉",
      "name": "名間",
      "temp": 29.5,
      "at": 32.60761530549277,
      "lat": 23.838817,
      "lon": 120.693306
    },
    {
      "city": "南投縣",
      "town": "仁愛鄉",
      "name": "梅峰",
      "temp": 15.3,
      "at": 16.44596833185663,
      "lat": 24.087056,
      "lon": 121.165414
    },
    {
      "city": "南投縣",
      "town": "信義鄉",
      "name": "玉山風口",
      "temp": 6.4,
      "at": 3.5531852128834798,
      "lat": 23.472294,
      "lon": 120.947853
    },
    {
      "city": "南投縣",
      "town": "仁愛鄉",
      "name": "小奇萊",
      "temp": 11.1,
      "at": 8.14622392855621,
      "lat": 24.13355,
      "lon": 121.287556
    },
    {
      "city": "臺中市",
      "town": "烏日區",
      "name": "烏日",
      "temp": 30.5,
      "at": 32.8756758680877,
      "lat": 24.108833,
      "lon": 120.615917
    },
    {
      "city": "臺中市",
      "town": "西屯區",
      "name": "西屯",
      "temp": 29.2,
      "at": 31.293278708128724,
      "lat": 24.182028,
      "lon": 120.632861
    },
    {
      "city": "臺中市",
      "town": "南屯區",
      "name": "南屯",
      "temp": 30.9,
      "at": 33.677409877949735,
      "lat": 24.138861,
      "lon": 120.630111
    },
    {
      "city": "彰化縣",
      "town": "福興鄉",
      "name": "福興",
      "temp": 31.0,
      "at": 34.32459244821972,
      "lat": 24.042972,
      "lon": 120.429528
    },
    {
      "city": "彰化縣",
      "town": "秀水鄉",
      "name": "秀水",
      "temp": 29.8,
      "at": 32.31106487414605,
      "lat": 24.035917,
      "lon": 120.495722
    },
    {
      "city": "彰化縣",
      "town": "埔鹽鄉",
      "name": "埔鹽",
      "temp": 30.7,
      "at": 34.966437350617696,
      "lat": 24.002167,
      "lon": 120.423583
    },
    {
      "city": "彰化縣",
      "town": "埔心鄉",
      "name": "埔心",
      "temp": 30.5,
      "at": 35.008027248300856,
      "lat": 23.948694,
      "lon": 120.517611
    },
    {
      "city": "彰化縣",
      "town": "田尾鄉",
      "name": "田尾",
      "temp": 30.8,
      "at": 36.78750015838968,
      "lat": 23.903417,
      "lon": 120.501389
    },
    {
      "city": "彰化縣",
      "town": "埤頭鄉",
      "name": "埤頭",
      "temp": 30.1,
      "at": 34.73687263939307,
      "lat": 23.867806,
      "lon": 120.444722
    },
    {
      "city": "彰化縣",
      "town": "社頭鄉",
      "name": "社頭",
      "temp": 30.7,
      "at": 35.703129430828334,
      "lat": 23.899417,
      "lon": 120.578083
    },
    {
      "city": "彰化縣",
      "town": "二水鄉",
      "name": "二水",
      "temp": 29.8,
      "at": 34.820849056068546,
      "lat": 23.812778,
      "lon": 120.609028
    },
    {
      "city": "苗栗縣",
      "town": "造橋鄉",
      "name": "造橋",
      "temp": 33.1,
      "at": 36.593650841255496,
      "lat": 24.63875,
      "lon": 120.856583
    },
    {
      "city": "新竹縣",
      "town": "尖石鄉",
      "name": "梅花",
      "temp": 28.7,
      "at": 31.7307175226808,
      "lat": 24.680119,
      "lon": 121.200361
    },
    {
      "city": "新北市",
      "town": "坪林區",
      "name": "坪林",
      "temp": 24.8,
      "at": 26.045298459778223,
      "lat": 24.939975,
      "lon": 121.701531
    },
    {
      "city": "新北市",
      "town": "雙溪區",
      "name": "泰平",
      "temp": 23.4,
      "at": 25.992398747062428,
      "lat": 24.973056,
      "lon": 121.815278
    },
    {
      "city": "新北市",
      "town": "汐止區",
      "name": "五指山",
      "temp": 22.2,
      "at": 19.36140969351311,
      "lat": 25.133889,
      "lon": 121.600278
    },
    {
      "city": "新北市",
      "town": "汐止區",
      "name": "汐止",
      "temp": 29.5,
      "at": 31.264812503078602,
      "lat": 25.068667,
      "lon": 121.650556
    },
    {
      "city": "新北市",
      "town": "三峽區",
      "name": "三峽",
      "temp": 32.3,
      "at": 34.59005486720388,
      "lat": 24.940806,
      "lon": 121.3615
    },
    {
      "city": "臺北市",
      "town": "信義區",
      "name": "信義",
      "temp": 28.9,
      "at": 29.577607194011506,
      "lat": 25.039606,
      "lon": 121.556372
    },
    {
      "city": "臺北市",
      "town": "文山區",
      "name": "文山",
      "temp": 28.9,
      "at": 31.619427157933437,
      "lat": 25.004083,
      "lon": 121.567528
    },
    {
      "city": "新北市",
      "town": "新莊區",
      "name": "新莊",
      "temp": 27.9,
      "at": 27.815386265911606,
      "lat": 25.05325,
      "lon": 121.438528
    },
    {
      "city": "新北市",
      "town": "樹林區",
      "name": "山佳",
      "temp": 29.8,
      "at": 28.279669164763035,
      "lat": 24.976719,
      "lon": 121.393789
    },
    {
      "city": "新北市",
      "town": "烏來區",
      "name": "桶後",
      "temp": 23.9,
      "at": 23.34409743278875,
      "lat": 24.850056,
      "lon": 121.589639
    },
    {
      "city": "新北市",
      "town": "雙溪區",
      "name": "雙溪",
      "temp": 28.7,
      "at": 31.51712142897494,
      "lat": 25.037861,
      "lon": 121.856056
    },
    {
      "city": "宜蘭縣",
      "town": "大同鄉",
      "name": "多加屯",
      "temp": 17.3,
      "at": 17.27639659508203,
      "lat": 24.3704,
      "lon": 121.365011
    },
    {
      "city": "新北市",
      "town": "瑞芳區",
      "name": "鼻頭角",
      "temp": 25.2,
      "at": 23.233082928120822,
      "lat": 25.130833,
      "lon": 121.915278
    },
    {
      "city": "新北市",
      "town": "金山區",
      "name": "三和",
      "temp": 26.0,
      "at": 28.455754359381316,
      "lat": 25.234933,
      "lon": 121.586997
    },
    {
      "city": "新北市",
      "town": "金山區",
      "name": "金山",
      "temp": 27.9,
      "at": 31.461272581821923,
      "lat": 25.225278,
      "lon": 121.635556
    },
    {
      "city": "桃園市",
      "town": "復興區",
      "name": "復興",
      "temp": 27.0,
      "at": 29.098837393821412,
      "lat": 24.822,
      "lon": 121.344094
    },
    {
      "city": "桃園市",
      "town": "八德區",
      "name": "八德",
      "temp": 29.2,
      "at": 28.650655753198507,
      "lat": 24.930528,
      "lon": 121.275
    },
    {
      "city": "臺北市",
      "town": "內湖區",
      "name": "內湖",
      "temp": 29.2,
      "at": 28.567213130880077,
      "lat": 25.081206,
      "lon": 121.567222
    },
    {
      "city": "新北市",
      "town": "中和區",
      "name": "中和",
      "temp": 28.8,
      "at": 30.051857569886593,
      "lat": 24.993403,
      "lon": 121.483569
    },
    {
      "city": "基隆市",
      "town": "暖暖區",
      "name": "暖暖",
      "temp": 27.5,
      "at": 28.74050847555445,
      "lat": 25.097533,
      "lon": 121.732069
    },
    {
      "city": "臺北市",
      "town": "士林區",
      "name": "天母",
      "temp": 29.1,
      "at": 29.13562845839573,
      "lat": 25.119253,
      "lon": 121.528939
    },
    {
      "city": "臺北市",
      "town": "士林區",
      "name": "社子",
      "temp": 30.3,
      "at": 31.506222897793215,
      "lat": 25.111389,
      "lon": 121.461389
    },
    {
      "city": "臺北市",
      "town": "北投區",
      "name": "大屯山",
      "temp": 18.8,
      "at": 19.979444476559536,
      "lat": 25.177333,
      "lon": 121.514167
    },
    {
      "city": "新北市",
      "town": "八里區",
      "name": "八里",
      "temp": 29.4,
      "at": 29.06112478927708,
      "lat": 25.15225,
      "lon": 121.395306
    },
    {
      "city": "新北市",
      "town": "蘆洲區",
      "name": "蘆洲",
      "temp": 29.5,
      "at": 30.101211209656675,
      "lat": 25.088528,
      "lon": 121.464056
    },
    {
      "city": "新北市",
      "town": "土城區",
      "name": "土城",
      "temp": 27.6,
      "at": 27.61684540791351,
      "lat": 24.974944,
      "lon": 121.436917
    },
    {
      "city": "新北市",
      "town": "鶯歌區",
      "name": "鶯歌",
      "temp": 29.5,
      "at": 28.206811425227002,
      "lat": 24.953,
      "lon": 121.33725
    },
    {
      "city": "新北市",
      "town": "永和區",
      "name": "永和",
      "temp": 28.4,
      "at": 28.01360295573521,
      "lat": 25.013028,
      "lon": 121.499889
    },
    {
      "city": "新北市",
      "town": "瑞芳區",
      "name": "五分山",
      "temp": 22.0,
      "at": 20.809894873124577,
      "lat": 25.073047,
      "lon": 121.772586
    },
    {
      "city": "臺北市",
      "town": "士林區",
      "name": "平等",
      "temp": 25.0,
      "at": 25.67765035539496,
      "lat": 25.130925,
      "lon": 121.568856
    },
    {
      "city": "新北市",
      "town": "林口區",
      "name": "林口",
      "temp": 26.7,
      "at": 24.94913462515237,
      "lat": 25.073953,
      "lon": 121.372611
    },
    {
      "city": "基隆市",
      "town": "七堵區",
      "name": "七堵",
      "temp": 29.2,
      "at": 31.133114774651084,
      "lat": 25.096608,
      "lon": 121.708897
    },
    {
      "city": "新北市",
      "town": "五股區",
      "name": "五股",
      "temp": 28.7,
      "at": 29.95969006733627,
      "lat": 25.076228,
      "lon": 121.419053
    },
    {
      "city": "新北市",
      "town": "新店區",
      "name": "屈尺",
      "temp": 29.5,
      "at": 30.928011856367647,
      "lat": 24.923619,
      "lon": 121.536533
    },
    {
      "city": "臺北市",
      "town": "北投區",
      "name": "石牌",
      "temp": 30.0,
      "at": 30.597381636782416,
      "lat": 25.117336,
      "lon": 121.504825
    },
    {
      "city": "臺東縣",
      "town": "金峰鄉",
      "name": "金峰嘉蘭",
      "temp": 24.2,
      "at": 25.50496897864787,
      "lat": 22.596589,
      "lon": 120.952772
    },
    {
      "city": "臺東縣",
      "town": "延平鄉",
      "name": "延平",
      "temp": 25.8,
      "at": 27.665832542838512,
      "lat": 22.904381,
      "lon": 121.075983
    },
    {
      "city": "臺東縣",
      "town": "長濱鄉",
      "name": "石寧山",
      "temp": 24.8,
      "at": 27.680249741707268,
      "lat": 23.225581,
      "lon": 121.398542
    },
    {
      "city": "臺東縣",
      "town": "東河鄉",
      "name": "七塊厝",
      "temp": 23.7,
      "at": 25.63659117327626,
      "lat": 22.957525,
      "lon": 121.221089
    },
    {
      "city": "臺東縣",
      "town": "臺東市",
      "name": "知本(水試所)",
      "temp": 26.0,
      "at": 29.000475010221933,
      "lat": 22.704053,
      "lon": 121.074603
    },
    {
      "city": "臺東縣",
      "town": "太麻里鄉",
      "name": "香蘭",
      "temp": 25.7,
      "at": 26.995019609237932,
      "lat": 22.589372,
      "lon": 120.985322
    },
    {
      "city": "臺東縣",
      "town": "大武鄉",
      "name": "加津林",
      "temp": 26.3,
      "at": 25.89690051397846,
      "lat": 22.418014,
      "lon": 120.9189
    },
    {
      "city": "臺東縣",
      "town": "達仁鄉",
      "name": "勝林山",
      "temp": 17.9,
      "at": 20.17965675593168,
      "lat": 22.432239,
      "lon": 120.885742
    },
    {
      "city": "臺東縣",
      "town": "大武鄉",
      "name": "山豬窟",
      "temp": 23.1,
      "at": 22.994707255406432,
      "lat": 22.320422,
      "lon": 120.849339
    },
    {
      "city": "臺東縣",
      "town": "太麻里鄉",
      "name": "歷坵",
      "temp": 21.5,
      "at": 23.86057184199544,
      "lat": 22.522769,
      "lon": 120.883803
    },
    {
      "city": "臺東縣",
      "town": "卑南鄉",
      "name": "檳榔四格山",
      "temp": 24.4,
      "at": 27.552663301530675,
      "lat": 22.811789,
      "lon": 121.101247
    },
    {
      "city": "臺東縣",
      "town": "太麻里鄉",
      "name": "金崙山",
      "temp": 17.7,
      "at": 19.39124911078893,
      "lat": 22.569219,
      "lon": 120.951617
    },
    {
      "city": "臺東縣",
      "town": "成功鎮",
      "name": "都歷",
      "temp": 25.2,
      "at": 24.59385149166295,
      "lat": 23.022142,
      "lon": 121.315558
    },
    {
      "city": "臺東縣",
      "town": "達仁鄉",
      "name": "達仁林場",
      "temp": 22.4,
      "at": 24.838713187025707,
      "lat": 22.266147,
      "lon": 120.815942
    },
    {
      "city": "屏東縣",
      "town": "牡丹鄉",
      "name": "牡丹池山",
      "temp": 24.6,
      "at": 26.856948777617223,
      "lat": 22.170192,
      "lon": 120.8332
    },
    {
      "city": "屏東縣",
      "town": "牡丹鄉",
      "name": "高士",
      "temp": 22.7,
      "at": 21.846124653131934,
      "lat": 22.123631,
      "lon": 120.828758
    },
    {
      "city": "屏東縣",
      "town": "來義鄉",
      "name": "白鷺",
      "temp": 23.2,
      "at": 24.816460796705908,
      "lat": 22.456067,
      "lon": 120.658178
    },
    {
      "city": "屏東縣",
      "town": "獅子鄉",
      "name": "內獅",
      "temp": 28.9,
      "at": 33.11645170830772,
      "lat": 22.306856,
      "lon": 120.634956
    },
    {
      "city": "屏東縣",
      "town": "獅子鄉",
      "name": "丹路",
      "temp": 26.1,
      "at": 28.310530043756934,
      "lat": 22.206281,
      "lon": 120.742964
    },
    {
      "city": "屏東縣",
      "town": "滿州鄉",
      "name": "九棚",
      "temp": 25.1,
      "at": 19.163401475760473,
      "lat": 22.143756,
      "lon": 120.886331
    },
    {
      "city": "屏東縣",
      "town": "滿州鄉",
      "name": "滿州",
      "temp": 26.2,
      "at": 25.314829165564575,
      "lat": 22.026208,
      "lon": 120.831875
    },
    {
      "city": "屏東縣",
      "town": "車城鄉",
      "name": "保力",
      "temp": 28.3,
      "at": 30.450778795463073,
      "lat": 22.072925,
      "lon": 120.756094
    },
    {
      "city": "屏東縣",
      "town": "滿州鄉",
      "name": "南仁湖",
      "temp": 23.8,
      "at": 23.593007313594388,
      "lat": 22.086486,
      "lon": 120.855333
    },
    {
      "city": "南投縣",
      "town": "仁愛鄉",
      "name": "合歡山頂",
      "temp": 10.5,
      "at": 7.673918004686318,
      "lat": 24.144778,
      "lon": 121.264083
    },
    {
      "city": "臺中市",
      "town": "北屯區",
      "name": "大坑",
      "temp": 30.2,
      "at": 32.78849623303356,
      "lat": 24.174889,
      "lon": 120.714139
    },
    {
      "city": "彰化縣",
      "town": "溪湖鎮",
      "name": "溪湖",
      "temp": 31.1,
      "at": 35.226630703845274,
      "lat": 23.95175,
      "lon": 120.471056
    },
    {
      "city": "彰化縣",
      "town": "員林市",
      "name": "員林",
      "temp": 32.1,
      "at": 37.09497898105062,
      "lat": 23.948333,
      "lon": 120.577528
    },
    {
      "city": "南投縣",
      "town": "草屯鎮",
      "name": "草屯",
      "temp": 31.4,
      "at": 36.07047604192391,
      "lat": 23.975444,
      "lon": 120.672194
    },
    {
      "city": "彰化縣",
      "town": "芬園鄉",
      "name": "芬園",
      "temp": 30.7,
      "at": 35.36547044764018,
      "lat": 24.017222,
      "lon": 120.613056
    },
    {
      "city": "臺中市",
      "town": "東勢區",
      "name": "東勢",
      "temp": 29.2,
      "at": 32.646229530014224,
      "lat": 24.248194,
      "lon": 120.824917
    },
    {
      "city": "南投縣",
      "town": "竹山鎮",
      "name": "竹山",
      "temp": 30.0,
      "at": 35.206977189702336,
      "lat": 23.764722,
      "lon": 120.677778
    },
    {
      "city": "苗栗縣",
      "town": "泰安鄉",
      "name": "馬都安",
      "temp": 25.0,
      "at": 29.54634965807191,
      "lat": 24.453056,
      "lon": 120.921944
    },
    {
      "city": "苗栗縣",
      "town": "頭屋鄉",
      "name": "明德",
      "temp": 31.6,
      "at": 35.102935660717584,
      "lat": 24.58525,
      "lon": 120.877222
    },
    {
      "city": "苗栗縣",
      "town": "通霄鎮",
      "name": "通霄",
      "temp": 30.8,
      "at": 34.29821440707781,
      "lat": 24.473639,
      "lon": 120.696444
    },
    {
      "city": "臺中市",
      "town": "神岡區",
      "name": "神岡",
      "temp": 28.7,
      "at": 31.08660770130267,
      "lat": 24.274222,
      "lon": 120.650306
    },
    {
      "city": "苗栗縣",
      "town": "卓蘭鎮",
      "name": "卓蘭",
      "temp": 29.3,
      "at": 33.27150344585079,
      "lat": 24.314319,
      "lon": 120.816192
    },
    {
      "city": "臺中市",
      "town": "新社區",
      "name": "新社",
      "temp": 27.8,
      "at": 30.094312712373622,
      "lat": 24.201583,
      "lon": 120.8075
    },
    {
      "city": "南投縣",
      "town": "埔里鎮",
      "name": "埔里",
      "temp": 30.3,
      "at": 33.13978768908951,
      "lat": 23.973944,
      "lon": 120.944278
    },
    {
      "city": "南投縣",
      "town": "信義鄉",
      "name": "信義",
      "temp": 27.5,
      "at": 32.074334875217666,
      "lat": 23.691389,
      "lon": 120.842778
    },
    {
      "city": "南投縣",
      "town": "仁愛鄉",
      "name": "昆陽",
      "temp": 9.5,
      "at": 7.133228948901177,
      "lat": 24.123139,
      "lon": 121.265361
    },
    {
      "city": "南投縣",
      "town": "仁愛鄉",
      "name": "廬山",
      "temp": 23.0,
      "at": 24.651240550627566,
      "lat": 24.035,
      "lon": 121.173333
    },
    {
      "city": "南投縣",
      "town": "信義鄉",
      "name": "神木村",
      "temp": 20.2,
      "at": 22.589564562272773,
      "lat": 23.534519,
      "lon": 120.835553
    },
    {
      "city": "臺中市",
      "town": "大雅區",
      "name": "大雅",
      "temp": 29.1,
      "at": 31.753316995914453,
      "lat": 24.217056,
      "lon": 120.616239
    },
    {
      "city": "南投縣",
      "town": "南投市",
      "name": "南投",
      "temp": 30.7,
      "at": 33.54547044764018,
      "lat": 23.913208,
      "lon": 120.679183
    },
    {
      "city": "彰化縣",
      "town": "花壇鄉",
      "name": "花壇",
      "temp": 30.6,
      "at": 34.27237679407433,
      "lat": 24.032075,
      "lon": 120.541314
    },
    {
      "city": "彰化縣",
      "town": "線西鄉",
      "name": "線西",
      "temp": 28.4,
      "at": 29.87793345441166,
      "lat": 24.141081,
      "lon": 120.435381
    },
    {
      "city": "臺中市",
      "town": "霧峰區",
      "name": "霧峰",
      "temp": 31.5,
      "at": 34.95173117296311,
      "lat": 24.043658,
      "lon": 120.691323
    },
    {
      "city": "雲林縣",
      "town": "虎尾鎮",
      "name": "虎尾",
      "temp": 30.0,
      "at": 32.9010484950815,
      "lat": 23.720939,
      "lon": 120.433911
    },
    {
      "city": "雲林縣",
      "town": "口湖鄉",
      "name": "宜梧",
      "temp": 27.6,
      "at": 30.34481257317379,
      "lat": 23.538014,
      "lon": 120.1612
    },
    {
      "city": "嘉義縣",
      "town": "義竹鄉",
      "name": "東後寮",
      "temp": 28.1,
      "at": 31.409351916227394,
      "lat": 23.371644,
      "lon": 120.239936
    },
    {
      "city": "臺南市",
      "town": "東山區",
      "name": "東河",
      "temp": 30.8,
      "at": 32.606071545820924,
      "lat": 23.298339,
      "lon": 120.377492
    },
    {
      "city": "臺南市",
      "town": "佳里區",
      "name": "佳里",
      "temp": 30.1,
      "at": 33.263731681541934,
      "lat": 23.175,
      "lon": 120.136667
    },
    {
      "city": "彰化縣",
      "town": "二林鎮",
      "name": "二林",
      "temp": 28.7,
      "at": 32.53198415225227,
      "lat": 23.905067,
      "lon": 120.367928
    },
    {
      "city": "臺南市",
      "town": "白河區",
      "name": "白河",
      "temp": 29.4,
      "at": 31.773107217631285,
      "lat": 23.349228,
      "lon": 120.406328
    },
    {
      "city": "嘉義縣",
      "town": "番路鄉",
      "name": "番路",
      "temp": 29.0,
      "at": 33.18901929674791,
      "lat": 23.466408,
      "lon": 120.546028
    },
    {
      "city": "臺南市",
      "town": "新營區",
      "name": "新營",
      "temp": 29.4,
      "at": 32.33310721763128,
      "lat": 23.312447,
      "lon": 120.308586
    },
    {
      "city": "臺南市",
      "town": "將軍區",
      "name": "將軍",
      "temp": 28.0,
      "at": 31.37244878625321,
      "lat": 23.216733,
      "lon": 120.127656
    },
    {
      "city": "雲林縣",
      "town": "褒忠鄉",
      "name": "褒忠",
      "temp": 29.1,
      "at": 33.03090498008986,
      "lat": 23.692672,
      "lon": 120.295503
    },
    {
      "city": "嘉義縣",
      "town": "溪口鄉",
      "name": "溪口",
      "temp": 29.7,
      "at": 33.41454849214194,
      "lat": 23.605872,
      "lon": 120.395439
    },
    {
      "city": "雲林縣",
      "town": "二崙鄉",
      "name": "二崙",
      "temp": 29.2,
      "at": 33.10934428537737,
      "lat": 23.77455,
      "lon": 120.400811
    },
    {
      "city": "嘉義縣",
      "town": "竹崎鄉",
      "name": "竹崎",
      "temp": 28.9,
      "at": 32.38942715793344,
      "lat": 23.527931,
      "lon": 120.547378
    },
    {
      "city": "嘉義縣",
      "town": "中埔鄉",
      "name": "中埔",
      "temp": 28.5,
      "at": 30.835719177168073,
      "lat": 23.427144,
      "lon": 120.514797
    },
    {
      "city": "臺南市",
      "town": "鹽水區",
      "name": "鹽水",
      "temp": 28.7,
      "at": 31.503011607596797,
      "lat": 23.274339,
      "lon": 120.239506
    },
    {
      "city": "臺南市",
      "town": "學甲區",
      "name": "學甲",
      "temp": 28.5,
      "at": 31.83770241162587,
      "lat": 23.2321,
      "lon": 120.174072
    },
    {
      "city": "臺南市",
      "town": "後壁區",
      "name": "後壁",
      "temp": 29.5,
      "at": 31.509614227641173,
      "lat": 23.368094,
      "lon": 120.354211
    },
    {
      "city": "雲林縣",
      "town": "西螺鎮",
      "name": "西螺",
      "temp": 29.4,
      "at": 32.887929713416824,
      "lat": 23.80215,
      "lon": 120.459253
    },
    {
      "city": "雲林縣",
      "town": "土庫鎮",
      "name": "土庫",
      "temp": 29.4,
      "at": 32.742752209202365,
      "lat": 23.680772,
      "lon": 120.387436
    },
    {
      "city": "嘉義縣",
      "town": "大林鎮",
      "name": "大林",
      "temp": 30.7,
      "at": 34.730228721895806,
      "lat": 23.602361,
      "lon": 120.450281
    },
    {
      "city": "嘉義縣",
      "town": "東石鄉",
      "name": "東石",
      "temp": 27.8,
      "at": 31.05879330104751,
      "lat": 23.460653,
      "lon": 120.145722
    },
    {
      "city": "嘉義縣",
      "town": "水上鄉",
      "name": "水上",
      "temp": 29.5,
      "at": 31.45281358093021,
      "lat": 23.421475,
      "lon": 120.380792
    },
    {
      "city": "嘉義市",
      "town": "東區",
      "name": "嘉義市東區",
      "temp": 31.0,
      "at": 34.17684924074939,
      "lat": 23.459414,
      "lon": 120.452408
    },
    {
      "city": "臺南市",
      "town": "白河區",
      "name": "關子嶺",
      "temp": 26.6,
      "at": 30.536908993691107,
      "lat": 23.332933,
      "lon": 120.499931
    },
    {
      "city": "臺南市",
      "town": "新化區",
      "name": "虎頭埤",
      "temp": 31.9,
      "at": 35.773894147015454,
      "lat": 23.023139,
      "lon": 120.339806
    },
    {
      "city": "臺南市",
      "town": "歸仁區",
      "name": "媽廟",
      "temp": 30.5,
      "at": 34.36724345489647,
      "lat": 22.993514,
      "lon": 120.285431
    },
    {
      "city": "臺南市",
      "town": "龍崎區",
      "name": "崎頂",
      "temp": 29.6,
      "at": 32.79567374903119,
      "lat": 22.961306,
      "lon": 120.361194
    },
    {
      "city": "臺南市",
      "town": "新市區",
      "name": "新市",
      "temp": 30.7,
      "at": 35.11692080210645,
      "lat": 23.063556,
      "lon": 120.290417
    },
    {
      "city": "臺南市",
      "town": "南化區",
      "name": "北寮",
      "temp": 26.9,
      "at": 32.99719321099852,
      "lat": 23.081611,
      "lon": 120.486944
    },
    {
      "city": "臺南市",
      "town": "善化區",
      "name": "善化",
      "temp": 30.7,
      "at": 34.07216252785082,
      "lat": 23.114444,
      "lon": 120.289444
    },
    {
      "city": "高雄市",
      "town": "桃源區",
      "name": "復興",
      "temp": 28.0,
      "at": 30.175109607202415,
      "lat": 23.224167,
      "lon": 120.797778
    },
    {
      "city": "臺南市",
      "town": "六甲區",
      "name": "王爺宮",
      "temp": 29.1,
      "at": 32.805930118425685,
      "lat": 23.223828,
      "lon": 120.392758
    },
    {
      "city": "臺南市",
      "town": "大內區",
      "name": "大內",
      "temp": 29.6,
      "at": 33.4522557649727,
      "lat": 23.120611,
      "lon": 120.35275
    },
    {
      "city": "高雄市",
      "town": "阿蓮區",
      "name": "阿蓮",
      "temp": 30.2,
      "at": 32.775798312984016,
      "lat": 22.884944,
      "lon": 120.319528
    },
    {
      "city": "臺南市",
      "town": "北區",
      "name": "臺南市北區",
      "temp": 28.9,
      "at": 32.886369873726785,
      "lat": 23.012167,
      "lon": 120.186333
    },
    {
      "city": "臺南市",
      "town": "南區",
      "name": "臺南市南區",
      "temp": 29.2,
      "at": 33.895573796103655,
      "lat": 22.963028,
      "lon": 120.180417
    },
    {
      "city": "臺南市",
      "town": "安平區",
      "name": "安平",
      "temp": 28.9,
      "at": 30.85149262559819,
      "lat": 22.994972,
      "lon": 120.144111
    },
    {
      "city": "臺南市",
      "town": "麻豆區",
      "name": "麻豆",
      "temp": 30.6,
      "at": 35.471209035007874,
      "lat": 23.185056,
      "lon": 120.2405
    },
    {
      "city": "臺南市",
      "town": "安定區",
      "name": "安定",
      "temp": 30.2,
      "at": 33.354268014874265,
      "lat": 23.104417,
      "lon": 120.219972
    },
    {
      "city": "臺南市",
      "town": "山上區",
      "name": "山上",
      "temp": 30.4,
      "at": 35.064399856678975,
      "lat": 23.077444,
      "lon": 120.355194
    },
    {
      "city": "臺南市",
      "town": "關廟區",
      "name": "關廟",
      "temp": 30.9,
      "at": 35.195746643130214,
      "lat": 22.964861,
      "lon": 120.319722
    },
    {
      "city": "臺南市",
      "town": "官田區",
      "name": "官田",
      "temp": 30.6,
      "at": 33.397047830340156,
      "lat": 23.195028,
      "lon": 120.307528
    },
    {
      "city": "臺南市",
      "town": "西港區",
      "name": "西港",
      "temp": 29.2,
      "at": 32.97606559653658,
      "lat": 23.127417,
      "lon": 120.195083
    },
    {
      "city": "臺南市",
      "town": "仁德區",
      "name": "仁德",
      "temp": 29.1,
      "at": 32.67341754925777,
      "lat": 22.970111,
      "lon": 120.249778
    },
    {
      "city": "臺南市",
      "town": "左鎮區",
      "name": "左鎮",
      "temp": 29.9,
      "at": 33.657516629437275,
      "lat": 23.058528,
      "lon": 120.400444
    },
    {
      "city": "嘉義縣",
      "town": "大埔鄉",
      "name": "表湖",
      "temp": 24.1,
      "at": 29.005854129949284,
      "lat": 23.243628,
      "lon": 120.633564
    },
    {
      "city": "屏東縣",
      "town": "泰武鄉",
      "name": "舊泰武",
      "temp": 20.3,
      "at": 23.58037424310044,
      "lat": 22.58995,
      "lon": 120.656922
    },
    {
      "city": "高雄市",
      "town": "茂林區",
      "name": "萬山",
      "temp": 22.0,
      "at": 24.58793601671651,
      "lat": 22.907694,
      "lon": 120.68
    },
    {
      "city": "高雄市",
      "town": "六龜區",
      "name": "六龜",
      "temp": 26.3,
      "at": 31.490184167152705,
      "lat": 22.99975,
      "lon": 120.625528
    },
    {
      "city": "屏東縣",
      "town": "里港鄉",
      "name": "里港",
      "temp": 27.0,
      "at": 31.54468276321495,
      "lat": 22.780972,
      "lon": 120.486528
    },
    {
      "city": "高雄市",
      "town": "左營區",
      "name": "左營",
      "temp": 28.2,
      "at": 29.70095590004925,
      "lat": 22.676689,
      "lon": 120.27685
    },
    {
      "city": "屏東縣",
      "town": "東港鎮",
      "name": "東港",
      "temp": 27.9,
      "at": 30.704636190913533,
      "lat": 22.464244,
      "lon": 120.432703
    },
    {
      "city": "屏東縣",
      "town": "萬丹鄉",
      "name": "萬丹",
      "temp": 26.4,
      "at": 26.473822854895676,
      "lat": 22.590256,
      "lon": 120.477031
    },
    {
      "city": "屏東縣",
      "town": "霧臺鄉",
      "name": "阿禮",
      "temp": 19.1,
      "at": 21.10743379674871,
      "lat": 22.744444,
      "lon": 120.735556
    },
    {
      "city": "屏東縣",
      "town": "瑪家鄉",
      "name": "瑪家",
      "temp": 20.3,
      "at": 24.061970500669435,
      "lat": 22.684722,
      "lon": 120.678889
    },
    {
      "city": "高雄市",
      "town": "大樹區",
      "name": "溪埔",
      "temp": 28.4,
      "at": 33.2697020310293,
      "lat": 22.740278,
      "lon": 120.438611
    },
    {
      "city": "高雄市",
      "town": "燕巢區",
      "name": "阿公店",
      "temp": 29.7,
      "at": 32.644548492141936,
      "lat": 22.805944,
      "lon": 120.347444
    },
    {
      "city": "高雄市",
      "town": "內門區",
      "name": "內門",
      "temp": 26.7,
      "at": 32.581561292605315,
      "lat": 22.976944,
      "lon": 120.458333
    },
    {
      "city": "高雄市",
      "town": "田寮區",
      "name": "古亭坑",
      "temp": 28.9,
      "at": 33.710418974475346,
      "lat": 22.895,
      "lon": 120.393889
    },
    {
      "city": "屏東縣",
      "town": "琉球鄉",
      "name": "琉球嶼",
      "temp": 33.3,
      "at": 36.91363962838453,
      "lat": 22.334025,
      "lon": 120.354194
    },
    {
      "city": "屏東縣",
      "town": "鹽埔鄉",
      "name": "鹽埔",
      "temp": 25.5,
      "at": 29.319589530853506,
      "lat": 22.741342,
      "lon": 120.522697
    },
    {
      "city": "高雄市",
      "town": "小港區",
      "name": "鳳森",
      "temp": 28.9,
      "at": 32.24942715793344,
      "lat": 22.546944,
      "lon": 120.3845
    },
    {
      "city": "屏東縣",
      "town": "萬巒鄉",
      "name": "赤山",
      "temp": 24.5,
      "at": 28.827074238535324,
      "lat": 22.594139,
      "lon": 120.60625
    },
    {
      "city": "屏東縣",
      "town": "內埔鄉",
      "name": "三地門",
      "temp": 23.1,
      "at": 26.583825131307503,
      "lat": 22.711667,
      "lon": 120.631889
    },
    {
      "city": "屏東縣",
      "town": "潮州鎮",
      "name": "潮州",
      "temp": 27.0,
      "at": 30.09182941824929,
      "lat": 22.536139,
      "lon": 120.531972
    },
    {
      "city": "高雄市",
      "town": "新興區",
      "name": "新興",
      "temp": 29.1,
      "at": 31.80834213425028,
      "lat": 22.629111,
      "lon": 120.290583
    },
    {
      "city": "高雄市",
      "town": "湖內區",
      "name": "湖內",
      "temp": 28.4,
      "at": 30.1897020310293,
      "lat": 22.888889,
      "lon": 120.236444
    },
    {
      "city": "高雄市",
      "town": "永安區",
      "name": "永安",
      "temp": 28.6,
      "at": 31.245437252726177,
      "lat": 22.824944,
      "lon": 120.228806
    },
    {
      "city": "高雄市",
      "town": "大社區",
      "name": "大社",
      "temp": 29.2,
      "at": 32.856229530014225,
      "lat": 22.731944,
      "lon": 120.338583
    },
    {
      "city": "高雄市",
      "town": "梓官區",
      "name": "梓官",
      "temp": 28.9,
      "at": 30.788435341391533,
      "lat": 22.762444,
      "lon": 120.25925
    },
    {
      "city": "高雄市",
      "town": "路竹區",
      "name": "路竹",
      "temp": 29.6,
      "at": 31.64672842632553,
      "lat": 22.856639,
      "lon": 120.251361
    },
    {
      "city": "高雄市",
      "town": "茄萣區",
      "name": "茄萣",
      "temp": 30.3,
      "at": 34.981388747777785,
      "lat": 22.908444,
      "lon": 120.174583
    },
    {
      "city": "高雄市",
      "town": "岡山區",
      "name": "岡山",
      "temp": 30.1,
      "at": 31.8598927330572,
      "lat": 22.798844,
      "lon": 120.286889
    },
    {
      "city": "高雄市",
      "town": "彌陀區",
      "name": "彌陀",
      "temp": 29.1,
      "at": 31.0308547034182,
      "lat": 22.785583,
      "lon": 120.238278
    },
    {
      "city": "高雄市",
      "town": "橋頭區",
      "name": "橋頭",
      "temp": 30.2,
      "at": 32.500415738456574,
      "lat": 22.759583,
      "lon": 120.297694
    },
    {
      "city": "高雄市",
      "town": "仁武區",
      "name": "仁武",
      "temp": 28.7,
      "at": 31.223011607596803,
      "lat": 22.702861,
      "lon": 120.339667
    },
    {
      "city": "高雄市",
      "town": "三民區",
      "name": "三民",
      "temp": 28.8,
      "at": 32.897549203432156,
      "lat": 22.646917,
      "lon": 120.303278
    },
    {
      "city": "高雄市",
      "town": "鼓山區",
      "name": "鼓山",
      "temp": 27.6,
      "at": 27.800093012510484,
      "lat": 22.625139,
      "lon": 120.2675
    },
    {
      "city": "高雄市",
      "town": "苓雅區",
      "name": "苓雅",
      "temp": 29.1,
      "at": 33.1484426875936,
      "lat": 22.624528,
      "lon": 120.322583
    },
    {
      "city": "高雄市",
      "town": "旗山區",
      "name": "旗山",
      "temp": 27.5,
      "at": 31.131222394611456,
      "lat": 22.890389,
      "lon": 120.475528
    },
    {
      "city": "屏東縣",
      "town": "長治鄉",
      "name": "長治",
      "temp": 27.9,
      "at": 34.00354526364128,
      "lat": 22.694833,
      "lon": 120.534611
    },
    {
      "city": "屏東縣",
      "town": "麟洛鄉",
      "name": "麟洛",
      "temp": 27.8,
      "at": 32.05906612519095,
      "lat": 22.652556,
      "lon": 120.519139
    },
    {
      "city": "屏東縣",
      "town": "南州鄉",
      "name": "南州",
      "temp": 29.0,
      "at": 33.56777071562644,
      "lat": 22.487694,
      "lon": 120.494694
    },
    {
      "city": "屏東縣",
      "town": "佳冬鄉",
      "name": "佳冬",
      "temp": 27.8,
      "at": 32.230104947843174,
      "lat": 22.421194,
      "lon": 120.544222
    },
    {
      "city": "屏東縣",
      "town": "高樹鄉",
      "name": "高樹",
      "temp": 24.5,
      "at": 27.16961648225239,
      "lat": 22.828222,
      "lon": 120.592722
    },
    {
      "city": "高雄市",
      "town": "大寮區",
      "name": "大寮",
      "temp": 29.8,
      "at": 32.94310803776154,
      "lat": 22.607389,
      "lon": 120.387667
    },
    {
      "city": "屏東縣",
      "town": "新園鄉",
      "name": "新園",
      "temp": 29.6,
      "at": 33.26034659166373,
      "lat": 22.545194,
      "lon": 120.4535
    },
    {
      "city": "屏東縣",
      "town": "崁頂鄉",
      "name": "崁頂",
      "temp": 29.1,
      "at": 33.280955256761516,
      "lat": 22.516639,
      "lon": 120.498972
    },
    {
      "city": "高雄市",
      "town": "林園區",
      "name": "林園",
      "temp": 28.9,
      "at": 32.73942715793344,
      "lat": 22.509583,
      "lon": 120.386556
    },
    {
      "city": "彰化縣",
      "town": "溪州鄉",
      "name": "溪州",
      "temp": 29.3,
      "at": 31.429114174089584,
      "lat": 23.853347,
      "lon": 120.490944
    },
    {
      "city": "雲林縣",
      "town": "斗南鎮",
      "name": "斗南",
      "temp": 28.8,
      "at": 32.038023506227624,
      "lat": 23.680478,
      "lon": 120.470231
    },
    {
      "city": "雲林縣",
      "town": "斗六市",
      "name": "斗六",
      "temp": 29.7,
      "at": 32.857381122690605,
      "lat": 23.722303,
      "lon": 120.532972
    },
    {
      "city": "嘉義縣",
      "town": "朴子市",
      "name": "朴子",
      "temp": 28.5,
      "at": 31.56970660301142,
      "lat": 23.436364,
      "lon": 120.230928
    },
    {
      "city": "雲林縣",
      "town": "北港鎮",
      "name": "北港",
      "temp": 29.5,
      "at": 33.11081465878181,
      "lat": 23.575803,
      "lon": 120.283672
    },
    {
      "city": "雲林縣",
      "town": "林內鄉",
      "name": "林內",
      "temp": 29.2,
      "at": 32.48606559653658,
      "lat": 23.750436,
      "lon": 120.601508
    },
    {
      "city": "彰化縣",
      "town": "大城鄉",
      "name": "大城",
      "temp": 29.1,
      "at": 32.35336727258611,
      "lat": 23.854225,
      "lon": 120.312789
    },
    {
      "city": "嘉義縣",
      "town": "民雄鄉",
      "name": "民雄",
      "temp": 30.6,
      "at": 34.14938334847307,
      "lat": 23.553497,
      "lon": 120.420331
    },
    {
      "city": "雲林縣",
      "town": "大埤鄉",
      "name": "大埤",
      "temp": 29.8,
      "at": 33.71310803776154,
      "lat": 23.647817,
      "lon": 120.4234
    },
    {
      "city": "雲林縣",
      "town": "莿桐鄉",
      "name": "莿桐",
      "temp": 28.9,
      "at": 31.74141079101726,
      "lat": 23.762947,
      "lon": 120.494247
    },
    {
      "city": "雲林縣",
      "town": "臺西鄉",
      "name": "臺西",
      "temp": 27.8,
      "at": 30.04141659463884,
      "lat": 23.703283,
      "lon": 120.189422
    },
    {
      "city": "雲林縣",
      "town": "水林鄉",
      "name": "水林",
      "temp": 29.2,
      "at": 32.842786907695796,
      "lat": 23.574658,
      "lon": 120.237839
    },
    {
      "city": "雲林縣",
      "town": "元長鄉",
      "name": "元長",
      "temp": 29.0,
      "at": 32.587770715626434,
      "lat": 23.644608,
      "lon": 120.311544
    },
    {
      "city": "嘉義縣",
      "town": "布袋鎮",
      "name": "布袋",
      "temp": 28.8,
      "at": 33.236126295045764,
      "lat": 23.382611,
      "lon": 120.159667
    },
    {
      "city": "嘉義縣",
      "town": "鹿草鄉",
      "name": "鹿草",
      "temp": 30.1,
      "at": 32.630590723690794,
      "lat": 23.413075,
      "lon": 120.300231
    },
    {
      "city": "嘉義縣",
      "town": "六腳鄉",
      "name": "六腳",
      "temp": 29.0,
      "at": 31.657269012972208,
      "lat": 23.494611,
      "lon": 120.2825
    },
    {
      "city": "嘉義縣",
      "town": "新港鄉",
      "name": "新港",
      "temp": 30.0,
      "at": 33.25150086234585,
      "lat": 23.555011,
      "lon": 120.3376
    },
    {
      "city": "嘉義縣",
      "town": "梅山鄉",
      "name": "梅山",
      "temp": 28.5,
      "at": 31.675719177168077,
      "lat": 23.587147,
      "lon": 120.547464
    },
    {
      "city": "嘉義縣",
      "town": "阿里山鄉",
      "name": "達邦",
      "temp": 23.0,
      "at": 23.94593573040818,
      "lat": 23.455769,
      "lon": 120.741403
    },
    {
      "city": "臺南市",
      "town": "白河區",
      "name": "鹿寮",
      "temp": 31.0,
      "at": 34.83782207063071,
      "lat": 23.387811,
      "lon": 120.469225
    },
    {
      "city": "嘉義縣",
      "town": "阿里山鄉",
      "name": "茶山",
      "temp": 26.7,
      "at": 29.552009464166417,
      "lat": 23.300847,
      "lon": 120.656664
    },
    {
      "city": "雲林縣",
      "town": "古坑鄉",
      "name": "棋山",
      "temp": 29.9,
      "at": 34.56251763728196,
      "lat": 23.688211,
      "lon": 120.595289
    },
    {
      "city": "雲林縣",
      "town": "水林鄉",
      "name": "蔦松",
      "temp": 29.7,
      "at": 33.83454849214194,
      "lat": 23.516064,
      "lon": 120.221625
    },
    {
      "city": "臺南市",
      "town": "北門區",
      "name": "北門",
      "temp": 28.5,
      "at": 31.70768145469811,
      "lat": 23.269517,
      "lon": 120.117367
    },
    {
      "city": "雲林縣",
      "town": "口湖鄉",
      "name": "口湖工作站",
      "temp": 27.8,
      "at": 31.28431271237362,
      "lat": 23.591722,
      "lon": 120.172281
    },
    {
      "city": "屏東縣",
      "town": "東港鎮",
      "name": "東港工作站",
      "temp": 27.7,
      "at": 30.745849495614472,
      "lat": 22.481778,
      "lon": 120.458017
    },
    {
      "city": "屏東縣",
      "town": "車城鄉",
      "name": "恆春工作站",
      "temp": 27.9,
      "at": 22.265977143185154,
      "lat": 22.081478,
      "lon": 120.706406
    },
    {
      "city": "南投縣",
      "town": "仁愛鄉",
      "name": "萬大發電廠",
      "temp": 26.5,
      "at": 28.843583666745943,
      "lat": 23.980611,
      "lon": 121.131497
    },
    {
      "city": "新北市",
      "town": "新店區",
      "name": "新北",
      "temp": 29.1,
      "at": 28.973166165899478,
      "lat": 24.96099,
      "lon": 121.516977
    },
    {
      "city": "新北市",
      "town": "淡水區",
      "name": "淡水",
      "temp": 29.8,
      "at": 28.429884982840527,
      "lat": 25.166664,
      "lon": 121.440672
    },
    {
      "city": "臺北市",
      "town": "北投區",
      "name": "鞍部",
      "temp": 20.2,
      "at": 20.303329119429094,
      "lat": 25.184365,
      "lon": 121.521495
    },
    {
      "city": "臺北市",
      "town": "中正區",
      "name": "臺北",
      "temp": 29.4,
      "at": 29.071479797705997,
      "lat": 25.039439,
      "lon": 121.506628
    },
    {
      "city": "臺北市",
      "town": "北投區",
      "name": "陽明山",
      "temp": 24.2,
      "at": 25.538774417071995,
      "lat": 25.163858,
      "lon": 121.536313
    },
    {
      "city": "基隆市",
      "town": "仁愛區",
      "name": "基隆",
      "temp": 27.9,
      "at": 28.02236350909419,
      "lat": 25.135104,
      "lon": 121.732242
    },
    {
      "city": "基隆市",
      "town": "中正區",
      "name": "彭佳嶼",
      "temp": 25.6,
      "at": 23.97413384354823,
      "lat": 25.629774,
      "lon": 122.071474
    },
    {
      "city": "花蓮縣",
      "town": "花蓮市",
      "name": "花蓮",
      "temp": 25.7,
      "at": 27.26773333468828,
      "lat": 23.976933,
      "lon": 121.605126
    },
    {
      "city": "桃園市",
      "town": "新屋區",
      "name": "新屋",
      "temp": 29.9,
      "at": 29.263763353942046,
      "lat": 25.008484,
      "lon": 121.039271
    },
    {
      "city": "宜蘭縣",
      "town": "宜蘭市",
      "name": "宜蘭",
      "temp": 26.7,
      "at": 27.83533247474156,
      "lat": 24.765773,
      "lon": 121.748322
    },
    {
      "city": "金門縣",
      "town": "金城鎮",
      "name": "金門",
      "temp": 28.7,
      "at": 26.561231250353067,
      "lat": 24.408942,
      "lon": 118.281127
    },
    {
      "city": "彰化縣",
      "town": "田中鎮",
      "name": "田中",
      "temp": 30.2,
      "at": 33.41849623303356,
      "lat": 23.875561,
      "lon": 120.573149
    },
    {
      "city": "苗栗縣",
      "town": "造橋鄉",
      "name": "後龍",
      "temp": 30.6,
      "at": 33.35730274613922,
      "lat": 24.650318,
      "lon": 120.823641
    },
    {
      "city": "雲林縣",
      "town": "古坑鄉",
      "name": "古坑",
      "temp": 29.4,
      "at": 33.06168718391561,
      "lat": 23.635298,
      "lon": 120.543786
    },
    {
      "city": "澎湖縣",
      "town": "望安鄉",
      "name": "東吉島",
      "temp": 28.3,
      "at": 29.75598177886991,
      "lat": 23.258999,
      "lon": 119.659533
    },
    {
      "city": "澎湖縣",
      "town": "馬公市",
      "name": "澎湖",
      "temp": 28.3,
      "at": 30.539461480529226,
      "lat": 23.56722,
      "lon": 119.554987
    },
    {
      "city": "臺南市",
      "town": "中西區",
      "name": "臺南",
      "temp": 28.5,
      "at": 31.019685646083666,
      "lat": 22.995039,
      "lon": 120.196846
    },
    {
      "city": "臺南市",
      "town": "永康區",
      "name": "永康",
      "temp": 30.3,
      "at": 33.221570084737664,
      "lat": 23.040146,
      "lon": 120.228623
    },
    {
      "city": "高雄市",
      "town": "楠梓區",
      "name": "高雄",
      "temp": 29.3,
      "at": 32.17530880997018,
      "lat": 22.732201,
      "lon": 120.304459
    },
    {
      "city": "嘉義市",
      "town": "西區",
      "name": "嘉義",
      "temp": 30.5,
      "at": 32.81286506369062,
      "lat": 23.497684,
      "lon": 120.424796
    },
    {
      "city": "臺中市",
      "town": "北區",
      "name": "臺中",
      "temp": 30.9,
      "at": 34.67122038228702,
      "lat": 24.147494,
      "lon": 120.675919
    },
    {
      "city": "嘉義縣",
      "town": "阿里山鄉",
      "name": "阿里山",
      "temp": 15.0,
      "at": 15.424956866171083,
      "lat": 23.509984,
      "lon": 120.805129
    },
    {
      "city": "臺東縣",
      "town": "大武鄉",
      "name": "大武",
      "temp": 27.3,
      "at": 28.349210265681393,
      "lat": 22.357523,
      "lon": 120.895703
    },
    {
      "city": "新竹縣",
      "town": "竹北市",
      "name": "新竹",
      "temp": 32.0,
      "at": 33.598634267426846,
      "lat": 24.830335,
      "lon": 121.006343
    },
    {
      "city": "屏東縣",
      "town": "恆春鎮",
      "name": "恆春",
      "temp": 28.6,
      "at": 27.726871475441573,
      "lat": 22.0057,
      "lon": 120.738326
    },
    {
      "city": "臺東縣",
      "town": "成功鎮",
      "name": "成功",
      "temp": 25.7,
      "at": 26.36501960923793,
      "lat": 23.099296,
      "lon": 121.36534
    },
    {
      "city": "臺東縣",
      "town": "蘭嶼鄉",
      "name": "蘭嶼",
      "temp": 25.2,
      "at": 23.61291117245009,
      "lat": 22.038737,
      "lon": 121.55041
    },
    {
      "city": "南投縣",
      "town": "魚池鄉",
      "name": "日月潭",
      "temp": 26.1,
      "at": 30.229288932105604,
      "lat": 23.883099,
      "lon": 120.899911
    },
    {
      "city": "臺東縣",
      "town": "臺東市",
      "name": "臺東",
      "temp": 26.7,
      "at": 28.74533247474156,
      "lat": 22.754017,
      "lon": 121.146522
    },
    {
      "city": "連江縣",
      "town": "南竿鄉",
      "name": "馬祖",
      "temp": 22.8,
      "at": 24.156429935713565,
      "lat": 26.171145,
      "lon": 119.914855
    },
    {
      "city": "高雄市",
      "town": "旗津區",
      "name": "東沙島",
      "temp": 30.3,
      "at": 31.051570084737662,
      "lat": 20.70252,
      "lon": 116.722116
    },
    {
      "city": "新北市",
      "town": "樹林區",
      "name": "桃改樹林分場",
      "temp": 29.8,
      "at": 28.643971310071528,
      "lat": 24.946279,
      "lon": 121.378755
    },
    {
      "city": "桃園市",
      "town": "新屋區",
      "name": "桃園農改",
      "temp": 31.2,
      "at": 31.75044257904466,
      "lat": 24.952721,
      "lon": 121.022375
    },
    {
      "city": "新竹縣",
      "town": "五峰鄉",
      "name": "桃改五峰分場",
      "temp": 26.2,
      "at": 30.312425174892155,
      "lat": 24.613978,
      "lon": 121.148983
    },
    {
      "city": "新竹縣",
      "town": "新埔鎮",
      "name": "桃改新埔分場",
      "temp": 31.6,
      "at": 32.72864209464583,
      "lat": 24.836,
      "lon": 121.058
    },
    {
      "city": "彰化縣",
      "town": "大村鄉",
      "name": "臺中農改",
      "temp": 30.5,
      "at": 33.10005425929354,
      "lat": 24.004779,
      "lon": 120.526236
    },
    {
      "city": "南投縣",
      "town": "魚池鄉",
      "name": "中改埔里分場",
      "temp": 27.8,
      "at": 32.156936005964944,
      "lat": 23.904982,
      "lon": 120.955222
    },
    {
      "city": "雲林縣",
      "town": "斗南鎮",
      "name": "南改斗南分場",
      "temp": 30.0,
      "at": 34.437881924231036,
      "lat": 23.636304,
      "lon": 120.469202
    },
    {
      "city": "嘉義縣",
      "town": "義竹鄉",
      "name": "南改義竹分場",
      "temp": 29.9,
      "at": 32.12126587355376,
      "lat": 23.362432,
      "lon": 120.271244
    },
    {
      "city": "嘉義縣",
      "town": "鹿草鄉",
      "name": "南改鹿草分場",
      "temp": 29.5,
      "at": 31.658413796500525,
      "lat": 23.418608,
      "lon": 120.274941
    },
    {
      "city": "臺南市",
      "town": "新化區",
      "name": "臺南農改",
      "temp": 31.1,
      "at": 36.16370413537215,
      "lat": 23.062242,
      "lon": 120.334096
    },
    {
      "city": "臺南市",
      "town": "七股區",
      "name": "七股研究中心",
      "temp": 28.9,
      "at": 32.34438624064297,
      "lat": 23.083472,
      "lon": 120.054792
    },
    {
      "city": "屏東縣",
      "town": "長治鄉",
      "name": "高雄農改",
      "temp": 26.5,
      "at": 31.38480325566919,
      "lat": 22.711084,
      "lon": 120.517814
    },
    {
      "city": "臺東縣",
      "town": "卑南鄉",
      "name": "東改班鳩分場",
      "temp": 25.4,
      "at": 27.6339597010496,
      "lat": 22.831307,
      "lon": 121.069619
    },
    {
      "city": "花蓮縣",
      "town": "吉安鄉",
      "name": "花蓮農改",
      "temp": 26.2,
      "at": 28.3534351515732,
      "lat": 23.977028,
      "lon": 121.555752
    },
    {
      "city": "宜蘭縣",
      "town": "三星鄉",
      "name": "花改蘭陽分場",
      "temp": 26.7,
      "at": 26.950092904823727,
      "lat": 24.688121,
      "lon": 121.708402
    },
    {
      "city": "高雄市",
      "town": "旗山區",
      "name": "高改旗南分場",
      "temp": 26.2,
      "at": 30.437617193547318,
      "lat": 22.859612,
      "lon": 120.508583
    },
    {
      "city": "新北市",
      "town": "石碇區",
      "name": "茶改北部分場",
      "temp": 24.6,
      "at": 25.236169266570336,
      "lat": 24.957588,
      "lon": 121.623022
    },
    {
      "city": "桃園市",
      "town": "楊梅區",
      "name": "茶改場",
      "temp": 29.7,
      "at": 29.839698994761292,
      "lat": 24.910258,
      "lon": 121.17713
    },
    {
      "city": "南投縣",
      "town": "魚池鄉",
      "name": "茶改中部分場",
      "temp": 24.9,
      "at": 28.07122240530829,
      "lat": 23.877382,
      "lon": 120.905442
    },
    {
      "city": "南投縣",
      "town": "鹿谷鄉",
      "name": "茶改南部分場",
      "temp": 24.5,
      "at": 26.905435734346696,
      "lat": 23.76429,
      "lon": 120.732364
    },
    {
      "city": "臺北市",
      "town": "士林區",
      "name": "文化大學",
      "temp": 24.7,
      "at": 21.813183967697583,
      "lat": 25.137855,
      "lon": 121.531657
    },
    {
      "city": "臺中市",
      "town": "和平區",
      "name": "武陵",
      "temp": 19.0,
      "at": 18.250375969378595,
      "lat": 24.354609,
      "lon": 121.300112
    },
    {
      "city": "彰化縣",
      "town": "彰化市",
      "name": "彰師大",
      "temp": 30.3,
      "at": 34.06157008473766,
      "lat": 24.08314,
      "lon": 120.548508
    },
    {
      "city": "雲林縣",
      "town": "麥寮鄉",
      "name": "麥寮",
      "temp": 29.0,
      "at": 30.809019296747913,
      "lat": 23.800517,
      "lon": 120.209572
    },
    {
      "city": "花蓮縣",
      "town": "秀林鄉",
      "name": "合歡山",
      "temp": 13.7,
      "at": 9.917558412862348,
      "lat": 24.144972,
      "lon": 121.276071
    },
    {
      "city": "桃園市",
      "town": "中壢區",
      "name": "農工中心",
      "temp": 29.6,
      "at": 29.766328063766075,
      "lat": 24.987706,
      "lon": 121.231626
    },
    {
      "city": "雲林縣",
      "town": "虎尾鎮",
      "name": "雲林臺大",
      "temp": 30.0,
      "at": 34.227881924231035,
      "lat": 23.732381,
      "lon": 120.415777
    },
    {
      "city": "臺南市",
      "town": "後壁區",
      "name": "蘭花園區",
      "temp": 30.9,
      "at": 34.29265189529885,
      "lat": 23.342018,
      "lon": 120.371562
    },
    {
      "city": "苗栗縣",
      "town": "西湖鄉",
      "name": "畜試北區分所",
      "temp": 30.2,
      "at": 33.0581070257203,
      "lat": 24.529569,
      "lon": 120.762788
    },
    {
      "city": "臺南市",
      "town": "新化區",
      "name": "畜試所",
      "temp": 31.0,
      "at": 34.66684924074939,
      "lat": 23.060713,
      "lon": 120.328308
    },
    {
      "city": "屏東縣",
      "town": "恆春鎮",
      "name": "畜試南區分所",
      "temp": 28.6,
      "at": 27.399393148702213,
      "lat": 21.947348,
      "lon": 120.794139
    },
    {
      "city": "宜蘭縣",
      "town": "五結鄉",
      "name": "畜試東區分所",
      "temp": 27.4,
      "at": 28.85416649358389,
      "lat": 24.670842,
      "lon": 121.824362
    },
    {
      "city": "臺中市",
      "town": "梧棲區",
      "name": "梧棲",
      "temp": 27.7,
      "at": 29.433667265409028,
      "lat": 24.257753,
      "lon": 120.515211
    },
    {
      "city": "新北市",
      "town": "坪林區",
      "name": "四堵",
      "temp": 24.2,
      "at": 26.48496897864787,
      "lat": 24.894394,
      "lon": 121.737519
    },
    {
      "city": "新北市",
      "town": "烏來區",
      "name": "福山",
      "temp": 23.5,
      "at": 25.51419974133496,
      "lat": 24.778333,
      "lon": 121.494583
    },
    {
      "city": "新北市",
      "town": "平溪區",
      "name": "火燒寮",
      "temp": 24.2,
      "at": 25.796237458122576,
      "lat": 25.004411,
      "lon": 121.734572
    },
    {
      "city": "新北市",
      "town": "瑞芳區",
      "name": "瑞芳",
      "temp": 27.6,
      "at": 29.97831736397984,
      "lat": 25.114861,
      "lon": 121.792639
    },
    {
      "city": "新北市",
      "town": "貢寮區",
      "name": "福隆",
      "temp": 29.8,
      "at": 32.61558283753204,
      "lat": 25.019167,
      "lon": 121.934167
    },
    {
      "city": "新北市",
      "town": "石門區",
      "name": "富貴角",
      "temp": 25.6,
      "at": 24.878129906973278,
      "lat": 25.265556,
      "lon": 121.557278
    },
    {
      "city": "臺北市",
      "town": "北投區",
      "name": "中八仙",
      "temp": 28.2,
      "at": 25.81255800848816,
      "lat": 25.117538,
      "lon": 121.48376
    },
    {
      "city": "新北市",
      "town": "烏來區",
      "name": "信賢",
      "temp": 25.8,
      "at": 26.559394434545084,
      "lat": 24.842865,
      "lon": 121.526709
    },
    {
      "city": "新北市",
      "town": "坪林區",
      "name": "漁光",
      "temp": 21.8,
      "at": 21.6886658805807,
      "lat": 24.970542,
      "lon": 121.713099
    },
    {
      "city": "桃園市",
      "town": "中壢區",
      "name": "中央大學",
      "temp": 29.7,
      "at": 28.641201103115286,
      "lat": 24.969417,
      "lon": 121.176946
    },
    {
      "city": "桃園市",
      "town": "桃園區",
      "name": "桃園",
      "temp": 30.4,
      "at": 30.93774847724618,
      "lat": 24.994256,
      "lon": 121.315044
    },
    {
      "city": "桃園市",
      "town": "觀音區",
      "name": "觀音",
      "temp": 30.0,
      "at": 31.856024534989366,
      "lat": 25.028835,
      "lon": 121.145094
    },
    {
      "city": "桃園市",
      "town": "八德區",
      "name": "八德蔬果",
      "temp": 28.5,
      "at": 27.211773665180242,
      "lat": 24.98035,
      "lon": 121.27365
    },
    {
      "city": "桃園市",
      "town": "桃園區",
      "name": "中德",
      "temp": 29.0,
      "at": 27.50276504011234,
      "lat": 24.983633,
      "lon": 121.283124
    },
    {
      "city": "新竹縣",
      "town": "峨眉鄉",
      "name": "峨眉",
      "temp": 31.5,
      "at": 35.21776202196734,
      "lat": 24.692389,
      "lon": 121.009083
    },
    {
      "city": "新竹縣",
      "town": "新埔鎮",
      "name": "打鐵坑",
      "temp": 30.0,
      "at": 32.34602453498937,
      "lat": 24.85175,
      "lon": 121.142611
    },
    {
      "city": "新竹縣",
      "town": "關西鎮",
      "name": "關西工作站",
      "temp": 32.8,
      "at": 34.71278383909535,
      "lat": 24.759045,
      "lon": 121.176589
    },
    {
      "city": "新竹縣",
      "town": "寶山鄉",
      "name": "寶山農場",
      "temp": 32.2,
      "at": 35.038242959505254,
      "lat": 24.734205,
      "lon": 120.967953
    },
    {
      "city": "新竹縣",
      "town": "新埔鎮",
      "name": "巨埔",
      "temp": 31.1,
      "at": 33.225021625815145,
      "lat": 24.846114,
      "lon": 121.10621
    },
    {
      "city": "新竹縣",
      "town": "五峰鄉",
      "name": "石鹿",
      "temp": 18.3,
      "at": 19.76151900204687,
      "lat": 24.567282,
      "lon": 121.150221
    },
    {
      "city": "苗栗縣",
      "town": "竹南鎮",
      "name": "竹南",
      "temp": 31.4,
      "at": 33.59024564874141,
      "lat": 24.710737,
      "lon": 120.880772
    },
    {
      "city": "苗栗縣",
      "town": "南庄鄉",
      "name": "南庄",
      "temp": 29.8,
      "at": 33.93945334668554,
      "lat": 24.603539,
      "lon": 120.992023
    },
    {
      "city": "苗栗縣",
      "town": "大湖鄉",
      "name": "大湖",
      "temp": 29.9,
      "at": 34.1487663774761,
      "lat": 24.4167,
      "lon": 120.862694
    },
    {
      "city": "苗栗縣",
      "town": "後龍鎮",
      "name": "龍溪",
      "temp": 32.2,
      "at": 35.96887999618946,
      "lat": 24.608056,
      "lon": 120.775556
    },
    {
      "city": "苗栗縣",
      "town": "三義鄉",
      "name": "三義",
      "temp": 27.0,
      "at": 30.559114752745863,
      "lat": 24.407236,
      "lon": 120.741644
    },
    {
      "city": "苗栗縣",
      "town": "苗栗市",
      "name": "八甲",
      "temp": 30.4,
      "at": 33.91662844858198,
      "lat": 24.537566,
      "lon": 120.787798
    },
    {
      "city": "苗栗縣",
      "town": "獅潭鄉",
      "name": "和興",
      "temp": 28.1,
      "at": 31.944173070355042,
      "lat": 24.507081,
      "lon": 120.914833
    },
    {
      "city": "苗栗縣",
      "town": "卓蘭鎮",
      "name": "新坪頂",
      "temp": 27.1,
      "at": 30.78009446792715,
      "lat": 24.303773,
      "lon": 120.849231
    },