{
  "meta": {
    "updated_at": "2026-05-15 13:09:45",
    "source": "CWA Auto Stations",
    "count": 818
  },
  "data": [
    {
      "city": "花蓮縣",
      "town": "秀林鄉",
      "name": "崇德",
      "temp": 23.2,
      "at": 24.16789870879458,
      "lat": 24.167948,
      "lon": 121.649251
    },
    {
      "city": "臺東縣",
      "town": "卑南鄉",
      "name": "富山",
      "temp": 25.8,
      "at": 23.249447840988285,
      "lat": 22.82419,
      "lon": 121.182756
    },
    {
      "city": "臺東縣",
      "town": "蘭嶼鄉",
      "name": "東清國小",
      "temp": 28.5,
      "at": 32.547681454698115,
      "lat": 22.058965,
      "lon": 121.556901
    },
    {
      "city": "臺東縣",
      "town": "綠島鄉",
      "name": "牛頭山",
      "temp": 26.6,
      "at": 27.094296545824612,
      "lat": 22.678485,
      "lon": 121.498883
    },
    {
      "city": "新北市",
      "town": "八里區",
      "name": "硬漢嶺",
      "temp": 23.5,
      "at": 26.797538826784518,
      "lat": 25.137872,
      "lon": 121.41814
    },
    {
      "city": "花蓮縣",
      "town": "秀林鄉",
      "name": "秀林",
      "temp": 17.7,
      "at": 19.11124911078893,
      "lat": 24.304668,
      "lon": 121.722972
    },
    {
      "city": "花蓮縣",
      "town": "秀林鄉",
      "name": "和仁",
      "temp": 21.8,
      "at": 23.827799875536726,
      "lat": 24.243199,
      "lon": 121.704304
    },
    {
      "city": "花蓮縣",
      "town": "秀林鄉",
      "name": "立霧山",
      "temp": 17.6,
      "at": 18.756080429705214,
      "lat": 24.185061,
      "lon": 121.633735
    },
    {
      "city": "臺中市",
      "town": "和平區",
      "name": "鞍馬山工作站",
      "temp": 16.1,
      "at": 17.34386167511572,
      "lat": 24.2681,
      "lon": 120.9926
    },
    {
      "city": "臺中市",
      "town": "和平區",
      "name": "大雪山埡口",
      "temp": 13.9,
      "at": 14.203809920102348,
      "lat": 24.2744,
      "lon": 121.0224
    },
    {
      "city": "臺中市",
      "town": "和平區",
      "name": "小雪山天池",
      "temp": 12.1,
      "at": 11.911988737806618,
      "lat": 24.2825,
      "lon": 121.0182
    },
    {
      "city": "臺中市",
      "town": "和平區",
      "name": "小雪山林道",
      "temp": 12.4,
      "at": 12.366238493098596,
      "lat": 24.2968,
      "lon": 121.0283
    },
    {
      "city": "臺中市",
      "town": "和平區",
      "name": "大雪山",
      "temp": 15.7,
      "at": 16.70855278878914,
      "lat": 24.2562,
      "lon": 120.9991
    },
    {
      "city": "臺中市",
      "town": "和平區",
      "name": "出雲山苗圃",
      "temp": 23.8,
      "at": 26.59691361000421,
      "lat": 24.2328,
      "lon": 120.8965
    },
    {
      "city": "臺中市",
      "town": "和平區",
      "name": "雪山橋",
      "temp": 18.1,
      "at": 20.315761212803746,
      "lat": 24.2336,
      "lon": 120.9704
    },
    {
      "city": "臺中市",
      "town": "和平區",
      "name": "八仙山苗圃",
      "temp": 26.5,
      "at": 29.124728155645407,
      "lat": 24.1944,
      "lon": 120.9932
    },
    {
      "city": "臺中市",
      "town": "和平區",
      "name": "中橫21.6k",
      "temp": 25.2,
      "at": 27.637441012843656,
      "lat": 24.2516,
      "lon": 121.1373
    },
    {
      "city": "苗栗縣",
      "town": "泰安鄉",
      "name": "松安",
      "temp": 20.7,
      "at": 22.931576742327564,
      "lat": 24.3996,
      "lon": 120.9778
    },
    {
      "city": "苗栗縣",
      "town": "泰安鄉",
      "name": "觀霧分站",
      "temp": 15.6,
      "at": 16.864245584061024,
      "lat": 24.5075,
      "lon": 121.1057
    },
    {
      "city": "新竹縣",
      "town": "五峰鄉",
      "name": "樂山林道6k",
      "temp": 13.7,
      "at": 13.658377306217329,
      "lat": 24.5017,
      "lon": 121.0795
    },
    {
      "city": "新竹縣",
      "town": "五峰鄉",
      "name": "大坪苗圃",
      "temp": 19.6,
      "at": 21.572157219394366,
      "lat": 24.5379,
      "lon": 121.1026
    },
    {
      "city": "桃園市",
      "town": "復興區",
      "name": "東眼山",
      "temp": 24.4,
      "at": 27.224347379222674,
      "lat": 24.8301,
      "lon": 121.4006
    },
    {
      "city": "桃園市",
      "town": "復興區",
      "name": "四稜",
      "temp": 19.5,
      "at": 21.958706532994942,
      "lat": 24.6796,
      "lon": 121.4211
    },
    {
      "city": "宜蘭縣",
      "town": "大同鄉",
      "name": "明池",
      "temp": 18.4,
      "at": 18.709029463610598,
      "lat": 24.6506,
      "lon": 121.4673
    },
    {
      "city": "宜蘭縣",
      "town": "大同鄉",
      "name": "太平山中間站",
      "temp": 19.6,
      "at": 22.157568553842317,
      "lat": 24.5437,
      "lon": 121.5052
    },
    {
      "city": "宜蘭縣",
      "town": "大同鄉",
      "name": "翠峰林道6K",
      "temp": 14.8,
      "at": 15.605871572176756,
      "lat": 24.4995,
      "lon": 121.5604
    },
    {
      "city": "宜蘭縣",
      "town": "大同鄉",
      "name": "太平山莊",
      "temp": 15.6,
      "at": 16.164245584061025,
      "lat": 24.4959,
      "lon": 121.5281
    },
    {
      "city": "高雄市",
      "town": "大樹區",
      "name": "大樹",
      "temp": 31.9,
      "at": 32.71010475068555,
      "lat": 22.686423,
      "lon": 120.424748
    },
    {
      "city": "新北市",
      "town": "林口區",
      "name": "太平里",
      "temp": 27.8,
      "at": 29.915351535025835,
      "lat": 25.136709,
      "lon": 121.356668
    },
    {
      "city": "臺東縣",
      "town": "太麻里鄉",
      "name": "美和",
      "temp": 27.3,
      "at": 27.310924850897926,
      "lat": 22.683881,
      "lon": 121.052177
    },
    {
      "city": "臺東縣",
      "town": "臺東市",
      "name": "富岡",
      "temp": 26.4,
      "at": 26.224446914060444,
      "lat": 22.794274,
      "lon": 121.184602
    },
    {
      "city": "臺東縣",
      "town": "東河鄉",
      "name": "新蘭",
      "temp": 26.4,
      "at": 26.54767187642703,
      "lat": 22.871021,
      "lon": 121.215155
    },
    {
      "city": "臺東縣",
      "town": "東河鄉",
      "name": "興隆",
      "temp": 26.1,
      "at": 28.965494490362204,
      "lat": 22.915469,
      "lon": 121.249394
    },
    {
      "city": "臺東縣",
      "town": "成功鎮",
      "name": "叭嗡嗡",
      "temp": 24.5,
      "at": 23.57707423853532,
      "lat": 23.048871,
      "lon": 121.335138
    },
    {
      "city": "臺東縣",
      "town": "成功鎮",
      "name": "白守蓮",
      "temp": 24.7,
      "at": 26.62404566237111,
      "lat": 23.12858,
      "lon": 121.393824
    },
    {
      "city": "臺東縣",
      "town": "成功鎮",
      "name": "小港漁港",
      "temp": 24.2,
      "at": 26.401649944163434,
      "lat": 23.160368,
      "lon": 121.392338
    },
    {
      "city": "臺東縣",
      "town": "長濱鄉",
      "name": "長濱漁港",
      "temp": 23.1,
      "at": 24.971879535569535,
      "lat": 23.315454,
      "lon": 121.451891
    },
    {
      "city": "花蓮縣",
      "town": "花蓮市",
      "name": "花蓮漁港",
      "temp": 23.7,
      "at": 26.532346681994184,
      "lat": 23.997128,
      "lon": 121.63018
    },
    {
      "city": "花蓮縣",
      "town": "秀林鄉",
      "name": "加灣",
      "temp": 22.6,
      "at": 23.95270753053913,
      "lat": 24.083828,
      "lon": 121.600788
    },
    {
      "city": "花蓮縣",
      "town": "壽豐鄉",
      "name": "鹽寮",
      "temp": 23.8,
      "at": 27.35208930423579,
      "lat": 23.847418,
      "lon": 121.584524
    },
    {
      "city": "臺中市",
      "town": "大甲區",
      "name": "大甲溪埔",
      "temp": 26.9,
      "at": 28.751394170313944,
      "lat": 24.372375,
      "lon": 120.611895
    },
    {
      "city": "彰化縣",
      "town": "和美鎮",
      "name": "和美",
      "temp": 28.8,
      "at": 30.286363446443495,
      "lat": 24.106919,
      "lon": 120.483978
    },
    {
      "city": "屏東縣",
      "town": "滿州鄉",
      "name": "鼻頭",
      "temp": 27.9,
      "at": 30.223545263641277,
      "lat": 22.106107,
      "lon": 120.889862
    },
    {
      "city": "屏東縣",
      "town": "滿州鄉",
      "name": "興海",
      "temp": 27.6,
      "at": 27.470700397439114,
      "lat": 21.976985,
      "lon": 120.835907
    },
    {
      "city": "屏東縣",
      "town": "恆春鎮",
      "name": "後壁湖",
      "temp": 29.7,
      "at": 29.84454849214194,
      "lat": 21.94747,
      "lon": 120.737695
    },
    {
      "city": "屏東縣",
      "town": "恆春鎮",
      "name": "山海",
      "temp": 31.0,
      "at": 33.90459244821972,
      "lat": 21.989579,
      "lon": 120.701107
    },
    {
      "city": "屏東縣",
      "town": "車城鄉",
      "name": "竹坑",
      "temp": 29.8,
      "at": 33.63902171053054,
      "lat": 22.140248,
      "lon": 120.694128
    },
    {
      "city": "屏東縣",
      "town": "枋山鄉",
      "name": "加祿堂",
      "temp": 29.9,
      "at": 31.21626486570908,
      "lat": 22.338096,
      "lon": 120.613688
    },
    {
      "city": "臺南市",
      "town": "將軍區",
      "name": "鯤鯓國小",
      "temp": 29.2,
      "at": 31.562622974218158,
      "lat": 23.189624,
      "lon": 120.080813
    },
    {
      "city": "屏東縣",
      "town": "枋寮鄉",
      "name": "下寮",
      "temp": 29.5,
      "at": 32.33201508992246,
      "lat": 22.394648,
      "lon": 120.546743
    },
    {
      "city": "屏東縣",
      "town": "佳冬鄉",
      "name": "塭仔",
      "temp": 28.4,
      "at": 26.887321994705804,
      "lat": 22.418718,
      "lon": 120.511622
    },
    {
      "city": "高雄市",
      "town": "林園區",
      "name": "汕尾",
      "temp": 29.9,
      "at": 33.44251763728195,
      "lat": 22.479984,
      "lon": 120.407094
    },
    {
      "city": "高雄市",
      "town": "小港區",
      "name": "鳳鼻頭",
      "temp": 28.8,
      "at": 31.837786354829895,
      "lat": 22.510051,
      "lon": 120.351098
    },
    {
      "city": "高雄市",
      "town": "梓官區",
      "name": "蚵仔寮",
      "temp": 28.0,
      "at": 30.035109607202415,
      "lat": 22.727414,
      "lon": 120.244618
    },
    {
      "city": "高雄市",
      "town": "彌陀區",
      "name": "南寮",
      "temp": 28.2,
      "at": 30.23041323526885,
      "lat": 22.763381,
      "lon": 120.225866
    },
    {
      "city": "高雄市",
      "town": "彌陀區",
      "name": "文安",
      "temp": 29.9,
      "at": 30.785017133359617,
      "lat": 22.804288,
      "lon": 120.208308
    },
    {
      "city": "高雄市",
      "town": "茄萣區",
      "name": "興達",
      "temp": 32.3,
      "at": 35.07319965289854,
      "lat": 22.879517,
      "lon": 120.204681
    },
    {
      "city": "臺南市",
      "town": "安南區",
      "name": "城西",
      "temp": 29.8,
      "at": 32.092892219684046,
      "lat": 23.058558,
      "lon": 120.087492
    },
    {
      "city": "臺南市",
      "town": "安南區",
      "name": "四草",
      "temp": 30.4,
      "at": 31.749405589391678,
      "lat": 23.025295,
      "lon": 120.103558
    },
    {
      "city": "臺南市",
      "town": "北門區",
      "name": "蘆竹溝",
      "temp": 27.7,
      "at": 28.154578416436294,
      "lat": 23.236154,
      "lon": 120.088035
    },
    {
      "city": "臺南市",
      "town": "北門區",
      "name": "蚵寮",
      "temp": 28.0,
      "at": 29.381118375778613,
      "lat": 23.302745,
      "lon": 120.102281
    },
    {
      "city": "高雄市",
      "town": "前鎮區",
      "name": "前鎮",
      "temp": 29.2,
      "at": 31.8627869076958,
      "lat": 22.573925,
      "lon": 120.303144
    },
    {
      "city": "新北市",
      "town": "貢寮區",
      "name": "澳底",
      "temp": 24.3,
      "at": 25.99677003611161,
      "lat": 25.056993,
      "lon": 121.917036
    },
    {
      "city": "澎湖縣",
      "town": "七美鄉",
      "name": "七美",
      "temp": 26.9,
      "at": 28.914393801346478,
      "lat": 23.221053,
      "lon": 119.436809
    },
    {
      "city": "澎湖縣",
      "town": "望安鄉",
      "name": "望安",
      "temp": 27.1,
      "at": 26.98591421489323,
      "lat": 23.382282,
      "lon": 119.485981
    },
    {
      "city": "澎湖縣",
      "town": "湖西鄉",
      "name": "湖西",
      "temp": 26.0,
      "at": 26.4410337085407,
      "lat": 23.598035,
      "lon": 119.664639
    },
    {
      "city": "連江縣",
      "town": "北竿鄉",
      "name": "北竿",
      "temp": 19.8,
      "at": 18.711846011965626,
      "lat": 26.222038,
      "lon": 119.966574
    },
    {
      "city": "金門縣",
      "town": "烈嶼鄉",
      "name": "九宮",
      "temp": 24.3,
      "at": 26.94680803568677,
      "lat": 24.425386,
      "lon": 118.232031
    },
    {
      "city": "屏東縣",
      "town": "新埤鄉",
      "name": "萬隆國小",
      "temp": 32.6,
      "at": 34.60806983158725,
      "lat": 22.509453,
      "lon": 120.579772
    },
    {
      "city": "苗栗縣",
      "town": "通霄鎮",
      "name": "白沙屯",
      "temp": 26.7,
      "at": 28.110123873098303,
      "lat": 24.551198,
      "lon": 120.688617
    },
    {
      "city": "屏東縣",
      "town": "內埔鄉",
      "name": "內埔",
      "temp": 33.2,
      "at": 35.268451156836136,
      "lat": 22.610267,
      "lon": 120.562662
    },
    {
      "city": "臺北市",
      "town": "士林區",
      "name": "科教館",
      "temp": 27.8,
      "at": 30.005624359169275,
      "lat": 25.098133,
      "lon": 121.508275
    },
    {
      "city": "宜蘭縣",
      "town": "頭城鎮",
      "name": "大溪漁港",
      "temp": 23.6,
      "at": 26.178480365839636,
      "lat": 24.943603,
      "lon": 121.894736
    },
    {
      "city": "宜蘭縣",
      "town": "頭城鎮",
      "name": "石城",
      "temp": 24.1,
      "at": 26.506900504470323,
      "lat": 24.982247,
      "lon": 121.942992
    },
    {
      "city": "基隆市",
      "town": "安樂區",
      "name": "大武崙",
      "temp": 24.8,
      "at": 25.432210767250503,
      "lat": 25.168464,
      "lon": 121.698758
    },
    {
      "city": "新北市",
      "town": "萬里區",
      "name": "野柳",
      "temp": 24.2,
      "at": 21.465455382587564,
      "lat": 25.208817,
      "lon": 121.681783
    },
    {
      "city": "新北市",
      "town": "淡水區",
      "name": "淡水觀海",
      "temp": 26.6,
      "at": 22.499521441557597,
      "lat": 25.186364,
      "lon": 121.400381
    },
    {
      "city": "桃園市",
      "town": "大園區",
      "name": "竹圍",
      "temp": 28.1,
      "at": 27.689113455064252,
      "lat": 25.114458,
      "lon": 121.231594
    },
    {
      "city": "桃園市",
      "town": "新屋區",
      "name": "中大臨海站",
      "temp": 31.7,
      "at": 35.64983922131399,
      "lat": 24.967883,
      "lon": 121.000364
    },
    {
      "city": "新北市",
      "town": "石門區",
      "name": "石門",
      "temp": 23.3,
      "at": 24.554805587027005,
      "lat": 25.275453,
      "lon": 121.592956
    },
    {
      "city": "桃園市",
      "town": "觀音區",
      "name": "觀音工業區",
      "temp": 29.4,
      "at": 30.663462226060204,
      "lat": 25.066525,
      "lon": 121.106631
    },
    {
      "city": "新竹市",
      "town": "北區",
      "name": "海天一線",
      "temp": 27.9,
      "at": 29.717158897732247,
      "lat": 24.833742,
      "lon": 120.906231
    },
    {
      "city": "新竹市",
      "town": "香山區",
      "name": "香山濕地",
      "temp": 29.2,
      "at": 32.369016418422085,
      "lat": 24.785386,
      "lon": 120.906781
    },
    {
      "city": "新北市",
      "town": "瑞芳區",
      "name": "水湳洞",
      "temp": 24.5,
      "at": 25.32659958476556,
      "lat": 25.125492,
      "lon": 121.854006
    },
    {
      "city": "基隆市",
      "town": "中正區",
      "name": "八斗子",
      "temp": 24.9,
      "at": 25.195644067118966,
      "lat": 25.146547,
      "lon": 121.783436
    },
    {
      "city": "新竹縣",
      "town": "新豐鄉",
      "name": "外湖",
      "temp": 28.5,
      "at": 30.611689837469214,
      "lat": 24.919492,
      "lon": 120.960497
    },
    {
      "city": "苗栗縣",
      "town": "後龍鎮",
      "name": "海埔",
      "temp": 27.6,
      "at": 30.849228441372787,
      "lat": 24.650519,
      "lon": 120.764242
    },
    {
      "city": "苗栗縣",
      "town": "通霄鎮",
      "name": "通霄漁港",
      "temp": 26.1,
      "at": 27.285494490362208,
      "lat": 24.500339,
      "lon": 120.665694
    },
    {
      "city": "臺中市",
      "town": "大甲區",
      "name": "松柏",
      "temp": 26.8,
      "at": 30.08935878339657,
      "lat": 24.430864,
      "lon": 120.609306
    },
    {
      "city": "臺中市",
      "town": "大安區",
      "name": "溫寮",
      "temp": 26.5,
      "at": 27.89312407233189,
      "lat": 24.373925,
      "lon": 120.574953
    },
    {
      "city": "苗栗縣",
      "town": "竹南鎮",
      "name": "龍鳳",
      "temp": 27.2,
      "at": 29.162668411336348,
      "lat": 24.701789,
      "lon": 120.850928
    },
    {
      "city": "宜蘭縣",
      "town": "礁溪鄉",
      "name": "淡江大學蘭陽校園",
      "temp": 20.3,
      "at": 23.501970500669437,
      "lat": 24.825033,
      "lon": 121.722172
    },
    {
      "city": "屏東縣",
      "town": "林邊鄉",
      "name": "林邊",
      "temp": 31.9,
      "at": 34.92652577430927,
      "lat": 22.465232,
      "lon": 120.52585
    },
    {
      "city": "新北市",
      "town": "淡水區",
      "name": "六塊厝",
      "temp": 28.0,
      "at": 28.970431249100827,
      "lat": 25.241776,
      "lon": 121.439863
    },
    {
      "city": "新北市",
      "town": "三芝區",
      "name": "田寮",
      "temp": 26.8,
      "at": 26.87385072536719,
      "lat": 25.271575,
      "lon": 121.480355
    },
    {
      "city": "桃園市",
      "town": "觀音區",
      "name": "新興坑尾",
      "temp": 28.0,
      "at": 25.906096454338122,
      "lat": 25.007827,
      "lon": 121.088851
    },
    {
      "city": "宜蘭縣",
      "town": "蘇澳鎮",
      "name": "蘇澳",
      "temp": 22.3,
      "at": 24.19812234548932,
      "lat": 24.59875,
      "lon": 121.848895
    },
    {
      "city": "宜蘭縣",
      "town": "壯圍鄉",
      "name": "壯圍",
      "temp": 22.7,
      "at": 25.73557103215078,
      "lat": 24.737723,
      "lon": 121.808046
    },
    {
      "city": "彰化縣",
      "town": "伸港鄉",
      "name": "防潮門",
      "temp": 27.6,
      "at": 29.43070039743911,
      "lat": 24.185242,
      "lon": 120.478972
    },
    {
      "city": "臺中市",
      "town": "龍井區",
      "name": "臺中電廠",
      "temp": 27.1,
      "at": 29.929836963592976,
      "lat": 24.216388,
      "lon": 120.482584
    },
    {
      "city": "彰化縣",
      "town": "福興鄉",
      "name": "福寶",
      "temp": 26.9,
      "at": 26.55739343237901,
      "lat": 24.046048,
      "lon": 120.373213
    },
    {
      "city": "彰化縣",
      "town": "大城鄉",
      "name": "三豐",
      "temp": 26.7,
      "at": 26.775842582851805,
      "lat": 23.883719,
      "lon": 120.281409
    },
    {
      "city": "雲林縣",
      "town": "口湖鄉",
      "name": "箔子寮",
      "temp": 27.1,
      "at": 26.845914214893227,
      "lat": 23.621487,
      "lon": 120.13192
    },
    {
      "city": "嘉義縣",
      "town": "布袋鎮",
      "name": "好美里",
      "temp": 29.1,
      "at": 31.1884426875936,
      "lat": 23.338176,
      "lon": 120.129936
    },
    {
      "city": "新北市",
      "town": "板橋區",
      "name": "板橋",
      "temp": 27.6,
      "at": 27.892733232178834,
      "lat": 25.012431,
      "lon": 121.440638
    },
    {
      "city": "連江縣",
      "town": "莒光鄉",
      "name": "東莒",
      "temp": 20.5,
      "at": 20.218850204921374,
      "lat": 25.966883,
      "lon": 119.9724
    },
    {
      "city": "澎湖縣",
      "town": "西嶼鄉",
      "name": "西嶼",
      "temp": 25.7,
      "at": 25.093309805635176,
      "lat": 23.564311,
      "lon": 119.460328
    },
    {
      "city": "澎湖縣",
      "town": "望安鄉",
      "name": "花嶼",
      "temp": 27.2,
      "at": 30.142668411336345,
      "lat": 23.401778,
      "lon": 119.314667
    },
    {
      "city": "金門縣",
      "town": "金沙鎮",
      "name": "金沙",
      "temp": 23.0,
      "at": 24.475529303448997,
      "lat": 24.489931,
      "lon": 118.400617
    },
    {
      "city": "金門縣",
      "town": "金寧鄉",
      "name": "金寧",
      "temp": 22.8,
      "at": 21.93776821083671,
      "lat": 24.459339,
      "lon": 118.320831
    },
    {
      "city": "金門縣",
      "town": "烏坵鄉",
      "name": "烏坵",
      "temp": 21.7,
      "at": 16.079068875484246,
      "lat": 24.996081,
      "lon": 119.441347
    },
    {
      "city": "臺北市",
      "town": "松山區",
      "name": "松山",
      "temp": 26.4,
      "at": 27.96219729039453,
      "lat": 25.050492,
      "lon": 121.542203
    },
    {
      "city": "苗栗縣",
      "town": "後龍鎮",
      "name": "高鐵苗栗",
      "temp": 29.6,
      "at": 34.236728426325534,
      "lat": 24.609,
      "lon": 120.817906
    },
    {
      "city": "雲林縣",
      "town": "虎尾鎮",
      "name": "高鐵雲林",
      "temp": 29.8,
      "at": 34.12697854691505,
      "lat": 23.739206,
      "lon": 120.409817
    },
    {
      "city": "桃園市",
      "town": "龜山區",
      "name": "國一五楊N44K",
      "temp": 25.5,
      "at": 28.287579323708485,
      "lat": 25.065633,
      "lon": 121.332769
    },
    {
      "city": "基隆市",
      "town": "中正區",
      "name": "基隆嶼",
      "temp": 24.4,
      "at": 23.785470097684012,
      "lat": 25.1932,
      "lon": 121.775678
    },
    {
      "city": "臺東縣",
      "town": "蘭嶼鄉",
      "name": "蘭嶼高中",
      "temp": 29.4,
      "at": 34.05204219234453,
      "lat": 22.050931,
      "lon": 121.504119
    },
    {
      "city": "臺東縣",
      "town": "蘭嶼鄉",
      "name": "蘭嶼燈塔",
      "temp": 27.4,
      "at": 32.34528585006911,
      "lat": 22.083031,
      "lon": 121.495094
    },
    {
      "city": "新北市",
      "town": "石門區",
      "name": "白沙灣",
      "temp": 25.8,
      "at": 27.09087259767091,
      "lat": 25.284903,
      "lon": 121.510814
    },
    {
      "city": "高雄市",
      "town": "甲仙區",
      "name": "小林",
      "temp": 31.4,
      "at": 34.93138235909502,
      "lat": 23.150164,
      "lon": 120.625189
    },
    {
      "city": "桃園市",
      "town": "大溪區",
      "name": "大溪永福",
      "temp": 29.3,
      "at": 32.75316283305974,
      "lat": 24.894711,
      "lon": 121.316761
    },
    {
      "city": "宜蘭縣",
      "town": "大同鄉",
      "name": "玉蘭",
      "temp": 20.0,
      "at": 21.722554933201966,
      "lat": 24.677222,
      "lon": 121.578889
    },
    {
      "city": "宜蘭縣",
      "town": "五結鄉",
      "name": "五結",
      "temp": 22.8,
      "at": 26.77713613669872,
      "lat": 24.688722,
      "lon": 121.790222
    },
    {
      "city": "宜蘭縣",
      "town": "大同鄉",
      "name": "太平山",
      "temp": 14.5,
      "at": 15.829007760684611,
      "lat": 24.507222,
      "lon": 121.5175
    },
    {
      "city": "宜蘭縣",
      "town": "大同鄉",
      "name": "南山",
      "temp": 18.8,
      "at": 20.46513176078965,
      "lat": 24.439167,
      "lon": 121.373333
    },
    {
      "city": "宜蘭縣",
      "town": "頭城鎮",
      "name": "頭城",
      "temp": 22.2,
      "at": 25.887513463212652,
      "lat": 24.855031,
      "lon": 121.822586
    },
    {
      "city": "宜蘭縣",
      "town": "礁溪鄉",
      "name": "大礁溪",
      "temp": 19.9,
      "at": 23.339037323168668,
      "lat": 24.792836,
      "lon": 121.666839
    },
    {
      "city": "宜蘭縣",
      "town": "三星鄉",
      "name": "三星",
      "temp": 21.7,
      "at": 24.322541664416182,
      "lat": 24.669917,
      "lon": 121.644819
    },
    {
      "city": "宜蘭縣",
      "town": "員山鄉",
      "name": "內城",
      "temp": 22.0,
      "at": 25.301028589798364,
      "lat": 24.719928,
      "lon": 121.679461
    },
    {
      "city": "宜蘭縣",
      "town": "冬山鄉",
      "name": "冬山",
      "temp": 22.9,
      "at": 25.88408886193708,
      "lat": 24.635528,
      "lon": 121.7855
    },
    {
      "city": "宜蘭縣",
      "town": "礁溪鄉",
      "name": "礁溪",
      "temp": 22.9,
      "at": 27.235981132175525,
      "lat": 24.819336,
      "lon": 121.757397
    },
    {
      "city": "宜蘭縣",
      "town": "頭城鎮",
      "name": "龜山島",
      "temp": 21.0,
      "at": 21.066032716104015,
      "lat": 24.843392,
      "lon": 121.944947
    },
    {
      "city": "新北市",
      "town": "貢寮區",
      "name": "三貂角",
      "temp": 22.8,
      "at": 23.98910648595985,
      "lat": 25.009444,
      "lon": 121.993889
    },
    {
      "city": "宜蘭縣",
      "town": "羅東鎮",
      "name": "羅東",
      "temp": 22.8,
      "at": 27.79382751231444,
      "lat": 24.683636,
      "lon": 121.741144
    },
    {
      "city": "宜蘭縣",
      "town": "頭城鎮",
      "name": "鶯子嶺",
      "temp": 16.9,
      "at": 13.569529013145495,
      "lat": 24.899333,
      "lon": 121.784231
    },
    {
      "city": "宜蘭縣",
      "town": "壯圍鄉",
      "name": "大福",
      "temp": 22.2,
      "at": 26.21713779005202,
      "lat": 24.802436,
      "lon": 121.805683
    },
    {
      "city": "宜蘭縣",
      "town": "頭城鎮",
      "name": "坪林石牌",
      "temp": 19.4,
      "at": 21.975617350136332,
      "lat": 24.866578,
      "lon": 121.76575
    },
    {
      "city": "花蓮縣",
      "town": "秀林鄉",
      "name": "天祥",
      "temp": 23.1,
      "at": 26.91178886179948,
      "lat": 24.181389,
      "lon": 121.4875
    },
    {
      "city": "花蓮縣",
      "town": "壽豐鄉",
      "name": "東華",
      "temp": 23.5,
      "at": 29.027825712079654,
      "lat": 23.897056,
      "lon": 121.541694
    },
    {
      "city": "花蓮縣",
      "town": "壽豐鄉",
      "name": "鯉魚潭",
      "temp": 23.1,
      "at": 28.214888602946544,
      "lat": 23.937444,
      "lon": 121.500806
    },
    {
      "city": "花蓮縣",
      "town": "秀林鄉",
      "name": "水源",
      "temp": 21.2,
      "at": 25.41625124937903,
      "lat": 23.993718,
      "lon": 121.529043
    },
    {
      "city": "花蓮縣",
      "town": "鳳林鎮",
      "name": "鳳林山",
      "temp": 21.1,
      "at": 24.355639239754407,
      "lat": 23.737072,
      "lon": 121.411994
    },
    {
      "city": "花蓮縣",
      "town": "光復鄉",
      "name": "光復",
      "temp": 24.7,
      "at": 28.80453252182128,
      "lat": 23.662497,
      "lon": 121.416839
    },
    {
      "city": "花蓮縣",
      "town": "萬榮鄉",
      "name": "西林",
      "temp": 23.6,
      "at": 28.739451698023082,
      "lat": 23.813667,
      "lon": 121.433194
    },
    {
      "city": "花蓮縣",
      "town": "壽豐鄉",
      "name": "月眉山",
      "temp": 21.8,
      "at": 26.325669974780126,
      "lat": 23.811736,
      "lon": 121.531686
    },
    {
      "city": "花蓮縣",
      "town": "壽豐鄉",
      "name": "大坑",
      "temp": 21.4,
      "at": 25.71829127576273,
      "lat": 23.882433,
      "lon": 121.573839
    },
    {
      "city": "花蓮縣",
      "town": "豐濱鄉",
      "name": "加路蘭山",
      "temp": 20.1,
      "at": 22.086747202688688,
      "lat": 23.684706,
      "lon": 121.519219
    },
    {
      "city": "花蓮縣",
      "town": "壽豐鄉",
      "name": "水璉",
      "temp": 22.7,
      "at": 27.77871982515706,
      "lat": 23.798889,
      "lon": 121.534167
    },
    {
      "city": "花蓮縣",
      "town": "豐濱鄉",
      "name": "豐濱",
      "temp": 23.0,
      "at": 26.987572073119917,
      "lat": 23.585708,
      "lon": 121.506678
    },
    {
      "city": "花蓮縣",
      "town": "富里鄉",
      "name": "明里",
      "temp": 24.7,
      "at": 24.8792890920962,
      "lat": 23.210556,
      "lon": 121.254167
    },
    {
      "city": "花蓮縣",
      "town": "玉里鎮",
      "name": "玉里",
      "temp": 23.6,
      "at": 27.674333413294416,
      "lat": 23.323306,
      "lon": 121.331556
    },
    {
      "city": "花蓮縣",
      "town": "瑞穗鄉",
      "name": "舞鶴",
      "temp": 23.7,
      "at": 28.335208405185064,
      "lat": 23.469722,
      "lon": 121.365833
    },
    {
      "city": "花蓮縣",
      "town": "卓溪鄉",
      "name": "佳心",
      "temp": 22.9,
      "at": 26.107058429791056,
      "lat": 23.347464,
      "lon": 121.205061
    },
    {
      "city": "花蓮縣",
      "town": "光復鄉",
      "name": "富源",
      "temp": 22.7,
      "at": 25.87557103215078,
      "lat": 23.58975,
      "lon": 121.370389
    },
    {
      "city": "花蓮縣",
      "town": "吉安鄉",
      "name": "吉安光華",
      "temp": 23.9,
      "at": 28.136392192019613,
      "lat": 23.932733,
      "lon": 121.587003
    },
    {
      "city": "花蓮縣",
      "town": "鳳林鎮",
      "name": "鳳林",
      "temp": 22.9,
      "at": 26.535981132175525,
      "lat": 23.747917,
      "lon": 121.445278
    },
    {
      "city": "花蓮縣",
      "town": "卓溪鄉",
      "name": "卓溪",
      "temp": 23.2,
      "at": 25.89504250000345,
      "lat": 23.346133,
      "lon": 121.294748
    },
    {
      "city": "花蓮縣",
      "town": "新城鄉",
      "name": "新城",
      "temp": 22.6,
      "at": 22.012946557176384,
      "lat": 24.042289,
      "lon": 121.596724
    },
    {
      "city": "花蓮縣",
      "town": "秀林鄉",
      "name": "富世",
      "temp": 22.2,
      "at": 24.767513463212655,
      "lat": 24.149236,
      "lon": 121.621542
    },
    {
      "city": "花蓮縣",
      "town": "鳳林鎮",
      "name": "萬榮",
      "temp": 23.6,
      "at": 28.418480365839635,
      "lat": 23.711022,
      "lon": 121.411969
    },
    {
      "city": "花蓮縣",
      "town": "瑞穗鄉",
      "name": "瑞穗",
      "temp": 24.8,
      "at": 28.879123074722784,
      "lat": 23.525708,
      "lon": 121.382086
    },
    {
      "city": "花蓮縣",
      "town": "卓溪鄉",
      "name": "瑞穗林道",
      "temp": 19.0,
      "at": 21.944056069319796,
      "lat": 23.494642,
      "lon": 121.298764
    },
    {
      "city": "花蓮縣",
      "town": "壽豐鄉",
      "name": "蕃薯寮",
      "temp": 21.3,
      "at": 24.447134851121117,
      "lat": 23.740156,
      "lon": 121.531975
    },
    {
      "city": "花蓮縣",
      "town": "玉里鎮",
      "name": "德武",
      "temp": 24.5,
      "at": 28.59358268727874,
      "lat": 23.476069,
      "lon": 121.402597
    },
    {
      "city": "花蓮縣",
      "town": "玉里鎮",
      "name": "赤柯山",
      "temp": 20.0,
      "at": 23.12951977945913,
      "lat": 23.370733,
      "lon": 121.374825
    },
    {
      "city": "花蓮縣",
      "town": "富里鄉",
      "name": "東里",
      "temp": 23.6,
      "at": 25.626039508203974,
      "lat": 23.270336,
      "lon": 121.297364
    },
    {
      "city": "花蓮縣",
      "town": "秀林鄉",
      "name": "清水斷崖",
      "temp": 21.8,
      "at": 24.457799875536725,
      "lat": 24.2201,
      "lon": 121.680972
    },
    {
      "city": "花蓮縣",
      "town": "卓溪鄉",
      "name": "清水林道",
      "temp": 22.0,
      "at": 26.142987446206426,
      "lat": 23.273047,
      "lon": 121.180172
    },
    {
      "city": "花蓮縣",
      "town": "玉里鎮",
      "name": "安通山",
      "temp": 22.4,
      "at": 26.0676807040654,
      "lat": 23.292536,
      "lon": 121.340419
    },
    {
      "city": "花蓮縣",
      "town": "豐濱鄉",
      "name": "靜浦",
      "temp": 23.3,
      "at": 28.29376944841613,
      "lat": 23.456944,
      "lon": 121.486667
    },
    {
      "city": "臺東縣",
      "town": "長濱鄉",
      "name": "長濱",
      "temp": 22.1,
      "at": 25.716588315327666,
      "lat": 23.288611,
      "lon": 121.403889
    },
    {
      "city": "臺東縣",
      "town": "東河鄉",
      "name": "東河",
      "temp": 25.3,
      "at": 29.41493713118745,
      "lat": 22.973611,
      "lon": 121.298333
    },
    {
      "city": "臺東縣",
      "town": "綠島鄉",
      "name": "綠島",
      "temp": 28.2,
      "at": 29.51726079019565,
      "lat": 22.669025,
      "lon": 121.467267
    },
    {
      "city": "臺東縣",
      "town": "海端鄉",
      "name": "下馬",
      "temp": 26.7,
      "at": 29.185811614577233,
      "lat": 23.152222,
      "lon": 121.062222
    },
    {
      "city": "臺東縣",
      "town": "海端鄉",
      "name": "向陽",
      "temp": 15.3,
      "at": 16.624219321486112,
      "lat": 23.25,
      "lon": 120.978056
    },
    {
      "city": "臺東縣",
      "town": "海端鄉",
      "name": "紅石",
      "temp": 18.5,
      "at": 20.390237537381026,
      "lat": 23.070902,
      "lon": 121.11777
    },
    {
      "city": "臺東縣",
      "town": "池上鄉",
      "name": "池上",
      "temp": 25.8,
      "at": 28.653009732694855,
      "lat": 23.121389,
      "lon": 121.201667
    },
    {
      "city": "臺東縣",
      "town": "鹿野鄉",
      "name": "鹿野",
      "temp": 27.6,
      "at": 31.870396704974794,
      "lat": 22.919517,
      "lon": 121.114908
    },
    {
      "city": "臺東縣",
      "town": "達仁鄉",
      "name": "土坂",
      "temp": 26.7,
      "at": 31.704884303180457,
      "lat": 22.454908,
      "lon": 120.879528
    },
    {
      "city": "臺東縣",
      "town": "太麻里鄉",
      "name": "大溪山",
      "temp": 24.4,
      "at": 27.521083689990675,
      "lat": 22.48,
      "lon": 120.935278
    },
    {
      "city": "臺東縣",
      "town": "達仁鄉",
      "name": "南田",
      "temp": 29.1,
      "at": 31.82593011842569,
      "lat": 22.291944,
      "lon": 120.881944
    },
    {
      "city": "臺東縣",
      "town": "太麻里鄉",
      "name": "金崙",
      "temp": 25.9,
      "at": 31.094189227437823,
      "lat": 22.54,
      "lon": 120.958889
    },
    {
      "city": "臺東縣",
      "town": "太麻里鄉",
      "name": "太麻里",
      "temp": 22.3,
      "at": 24.725345973815408,
      "lat": 22.610825,
      "lon": 120.977275
    },
    {
      "city": "臺東縣",
      "town": "卑南鄉",
      "name": "知本",
      "temp": 22.5,
      "at": 26.259680986636543,
      "lat": 22.686667,
      "lon": 120.997583
    },
    {
      "city": "花蓮縣",
      "town": "富里鄉",
      "name": "富里",
      "temp": 26.1,
      "at": 28.956806708802965,
      "lat": 23.173442,
      "lon": 121.241286
    },
    {
      "city": "桃園市",
      "town": "中壢區",
      "name": "中壢",
      "temp": 27.7,
      "at": 28.457480502943582,
      "lat": 24.979428,
      "lon": 121.248156
    },
    {
      "city": "臺南市",
      "town": "柳營區",
      "name": "柳營",
      "temp": 32.0,
      "at": 33.64311171151169,
      "lat": 23.255089,
      "lon": 120.367158
    },
    {
      "city": "新竹縣",
      "town": "關西鎮",
      "name": "關西",
      "temp": 30.0,
      "at": 32.2728579641389,
      "lat": 24.799421,
      "lon": 121.165033
    },
    {
      "city": "嘉義縣",
      "town": "阿里山鄉",
      "name": "新美",
      "temp": 29.8,
      "at": 32.27375549199403,
      "lat": 23.339792,
      "lon": 120.675231
    },
    {
      "city": "彰化縣",
      "town": "竹塘鄉",
      "name": "竹塘",
      "temp": 29.3,
      "at": 33.049600763791084,
      "lat": 23.85,
      "lon": 120.378628
    },
    {
      "city": "雲林縣",
      "town": "東勢鄉",
      "name": "雲林東勢",
      "temp": 28.5,
      "at": 32.86166888054146,
      "lat": 23.675939,
      "lon": 120.2476
    },
    {
      "city": "屏東縣",
      "town": "車城鄉",
      "name": "車城",
      "temp": 31.9,
      "at": 33.64294679793298,
      "lat": 22.075833,
      "lon": 120.708056
    },
    {
      "city": "屏東縣",
      "town": "春日鄉",
      "name": "大漢山",
      "temp": 19.3,
      "at": 21.88490099371578,
      "lat": 22.405861,
      "lon": 120.745083
    },
    {
      "city": "屏東縣",
      "town": "枋山鄉",
      "name": "枋山",
      "temp": 30.8,
      "at": 33.808214407077806,
      "lat": 22.249572,
      "lon": 120.652748
    },
    {
      "city": "屏東縣",
      "town": "枋寮鄉",
      "name": "枋寮",
      "temp": 29.2,
      "at": 31.77934428537737,
      "lat": 22.369511,
      "lon": 120.582611
    },
    {
      "city": "屏東縣",
      "town": "枋山鄉",
      "name": "楓港",
      "temp": 30.4,
      "at": 33.922182730201385,
      "lat": 22.191928,
      "lon": 120.684131
    },
    {
      "city": "屏東縣",
      "town": "滿州鄉",
      "name": "檳榔",
      "temp": 29.1,
      "at": 32.88341754925777,
      "lat": 22.077883,
      "lon": 120.828758
    },
    {
      "city": "屏東縣",
      "town": "牡丹鄉",
      "name": "牡丹",
      "temp": 29.3,
      "at": 33.00935746894034,
      "lat": 22.131817,
      "lon": 120.784589
    },
    {
      "city": "屏東縣",
      "town": "滿州鄉",
      "name": "佳樂水",
      "temp": 29.1,
      "at": 29.165930118425685,
      "lat": 21.995386,
      "lon": 120.853619
    },
    {
      "city": "屏東縣",
      "town": "恆春鎮",
      "name": "墾丁",
      "temp": 28.3,
      "at": 33.55206297223264,
      "lat": 21.968561,
      "lon": 120.802258
    },
    {
      "city": "屏東縣",
      "town": "牡丹鄉",
      "name": "旭海",
      "temp": 26.2,
      "at": 29.52711220520679,
      "lat": 22.207208,
      "lon": 120.879586
    },
    {
      "city": "屏東縣",
      "town": "恆春鎮",
      "name": "貓鼻頭",
      "temp": 30.2,
      "at": 32.08734187666542,
      "lat": 21.923578,
      "lon": 120.727792
    },
    {
      "city": "屏東縣",
      "town": "恆春鎮",
      "name": "墾雷",
      "temp": 30.2,
      "at": 35.175422371242405,
      "lat": 21.90265,
      "lon": 120.847244
    },
    {
      "city": "屏東縣",
      "town": "牡丹鄉",
      "name": "四林格山",
      "temp": 27.9,
      "at": 29.428249825004507,
      "lat": 22.078792,
      "lon": 120.794419
    },
    {
      "city": "屏東縣",
      "town": "恆春鎮",
      "name": "大坪頂",
      "temp": 30.6,
      "at": 32.90263170987339,
      "lat": 22.026433,
      "lon": 120.685536
    },
    {
      "city": "屏東縣",
      "town": "恆春鎮",
      "name": "龍磐",
      "temp": 29.0,
      "at": 30.751271283177836,
      "lat": 21.933481,
      "lon": 120.830933
    },
    {
      "city": "屏東縣",
      "town": "獅子鄉",
      "name": "獅子",
      "temp": 30.8,
      "at": 33.26035726833467,
      "lat": 22.204106,
      "lon": 120.69721
    },
    {
      "city": "宜蘭縣",
      "town": "南澳鄉",
      "name": "東澳",
      "temp": 22.2,
      "at": 26.831363193948402,
      "lat": 24.523767,
      "lon": 121.824986
    },
    {
      "city": "宜蘭縣",
      "town": "南澳鄉",
      "name": "南澳",
      "temp": 22.0,
      "at": 24.339997732104415,
      "lat": 24.451153,
      "lon": 121.802036
    },
    {
      "city": "花蓮縣",
      "town": "秀林鄉",
      "name": "和中",
      "temp": 21.1,
      "at": 24.903282847356863,
      "lat": 24.268567,
      "lon": 121.732861
    },
    {
      "city": "宜蘭縣",
      "town": "大同鄉",
      "name": "翠峰湖",
      "temp": 14.7,
      "at": 15.508352682788928,
      "lat": 24.51265,
      "lon": 121.599858
    },
    {
      "city": "花蓮縣",
      "town": "秀林鄉",
      "name": "和平林道",
      "temp": 20.5,
      "at": 24.078226227420572,
      "lat": 24.345722,
      "lon": 121.648142
    },
    {
      "city": "花蓮縣",
      "town": "秀林鄉",
      "name": "和平",
      "temp": 22.3,
      "at": 22.602286903000184,
      "lat": 24.308961,
      "lon": 121.761903
    },
    {
      "city": "宜蘭縣",
      "town": "南澳鄉",
      "name": "樟樹山",
      "temp": 19.1,
      "at": 21.468576871613237,
      "lat": 24.415731,
      "lon": 121.775067
    },
    {
      "city": "宜蘭縣",
      "town": "頭城鎮",
      "name": "桃源谷",
      "temp": 19.8,
      "at": 20.671846011965624,
      "lat": 24.964408,
      "lon": 121.880658
    },
    {
      "city": "宜蘭縣",
      "town": "南澳鄉",
      "name": "西帽山",
      "temp": 18.0,
      "at": 18.974863993509693,
      "lat": 24.557164,
      "lon": 121.794436
    },
    {
      "city": "宜蘭縣",
      "town": "南澳鄉",
      "name": "西德山",
      "temp": 18.1,
      "at": 19.397643381898682,
      "lat": 24.562447,
      "lon": 121.744417
    },
    {
      "city": "新北市",
      "town": "烏來區",
      "name": "福山植物園",
      "temp": 20.0,
      "at": 23.108625240687637,
      "lat": 24.762506,
      "lon": 121.573147
    },
    {
      "city": "宜蘭縣",
      "town": "大同鄉",
      "name": "鴛鴦湖",
      "temp": 16.2,
      "at": 17.731974694117238,
      "lat": 24.592053,
      "lon": 121.404039
    },
    {
      "city": "宜蘭縣",
      "town": "大同鄉",
      "name": "白嶺",
      "temp": 17.8,
      "at": 20.510007588231222,
      "lat": 24.529611,
      "lon": 121.510844
    },
    {
      "city": "宜蘭縣",
      "town": "大同鄉",
      "name": "土場",
      "temp": 21.6,
      "at": 25.261770437545096,
      "lat": 24.578356,
      "lon": 121.487153
    },
    {
      "city": "宜蘭縣",
      "town": "員山鄉",
      "name": "員山",
      "temp": 22.2,
      "at": 25.23943832858053,
      "lat": 24.746147,
      "lon": 121.714269
    },
    {
      "city": "桃園市",
      "town": "蘆竹區",
      "name": "蘆竹",
      "temp": 28.8,
      "at": 29.355177689454834,
      "lat": 25.086111,
      "lon": 121.2575
    },
    {
      "city": "新竹縣",
      "town": "橫山鄉",
      "name": "橫山",
      "temp": 30.0,
      "at": 35.48652482243798,
      "lat": 24.712925,
      "lon": 121.108733
    },
    {
      "city": "新竹縣",
      "town": "新豐鄉",
      "name": "新豐",
      "temp": 30.7,
      "at": 34.79498699615143,
      "lat": 24.872436,
      "lon": 120.969
    },
    {
      "city": "新竹縣",
      "town": "五峰鄉",
      "name": "雪霸",
      "temp": 15.6,
      "at": 17.144245584061025,
      "lat": 24.528722,
      "lon": 121.107917
    },
    {
      "city": "新竹縣",
      "town": "竹東鎮",
      "name": "竹東",
      "temp": 32.6,
      "at": 37.37670412880169,
      "lat": 24.76925,
      "lon": 121.049861
    },
    {
      "city": "桃園市",
      "town": "平鎮區",
      "name": "平鎮",
      "temp": 27.6,
      "at": 28.868621056444155,
      "lat": 24.899444,
      "lon": 121.206389
    },
    {
      "city": "桃園市",
      "town": "大溪區",
      "name": "大溪",
      "temp": 27.6,
      "at": 29.535677144311492,
      "lat": 24.884722,
      "lon": 121.256944
    },
    {
      "city": "苗栗縣",
      "town": "頭份市",
      "name": "頭份",
      "temp": 30.2,
      "at": 35.59080494576984,
      "lat": 24.69,
      "lon": 120.904167
    },
    {
      "city": "新竹縣",
      "town": "寶山鄉",
      "name": "寶山",
      "temp": 30.8,
      "at": 35.856428698963114,
      "lat": 24.736722,
      "lon": 121.016769
    },
    {
      "city": "苗栗縣",
      "town": "獅潭鄉",
      "name": "獅潭",
      "temp": 31.5,
      "at": 33.93377083596855,
      "lat": 24.541028,
      "lon": 120.911972
    },
    {
      "city": "新竹縣",
      "town": "湖口鄉",
      "name": "湖口",
      "temp": 29.7,
      "at": 31.415707428177278,
      "lat": 24.906556,
      "lon": 121.035417
    },
    {
      "city": "桃園市",
      "town": "龍潭區",
      "name": "龍潭",
      "temp": 27.2,
      "at": 28.932001308502258,
      "lat": 24.871833,
      "lon": 121.213194
    },
    {
      "city": "新竹市",
      "town": "東區",
      "name": "新竹市東區",
      "temp": 30.2,
      "at": 32.844643956615876,
      "lat": 24.800436,
      "lon": 120.978742
    },
    {
      "city": "苗栗縣",
      "town": "三灣鄉",
      "name": "大河",
      "temp": 31.2,
      "at": 34.480442579044656,
      "lat": 24.619833,
      "lon": 120.94055
    },
    {
      "city": "臺中市",
      "town": "和平區",
      "name": "桃山",
      "temp": 8.9,
      "at": 8.129851967723091,
      "lat": 24.434519,
      "lon": 121.295628
    },
    {
      "city": "臺中市",
      "town": "和平區",
      "name": "雪山東峰",
      "temp": 9.4,
      "at": 8.407286261645543,
      "lat": 24.390581,
      "lon": 121.263286
    },
    {
      "city": "臺中市",
      "town": "和平區",
      "name": "雪山圈谷",
      "temp": 6.7,
      "at": 5.094539482927125,
      "lat": 24.390375,
      "lon": 121.228197
    },
    {
      "city": "桃園市",
      "town": "龜山區",
      "name": "龜山",
      "temp": 25.0,
      "at": 25.248335671210356,
      "lat": 25.030231,
      "lon": 121.378336
    },
    {
      "city": "臺中市",
      "town": "和平區",
      "name": "審馬陣",
      "temp": 10.0,
      "at": 9.765721307038573,
      "lat": 24.383461,
      "lon": 121.412122
    },
    {
      "city": "臺中市",
      "town": "和平區",
      "name": "南湖圈谷",
      "temp": 7.1,
      "at": 5.584542002294812,
      "lat": 24.365503,
      "lon": 121.436489
    },
    {
      "city": "苗栗縣",
      "town": "苗栗市",
      "name": "苗栗",
      "temp": 30.7,
      "at": 33.664503544662665,
      "lat": 24.566667,
      "lon": 120.816444
    },
    {
      "city": "苗栗縣",
      "town": "銅鑼鄉",
      "name": "銅鑼",
      "temp": 31.9,
      "at": 35.61842047247421,
      "lat": 24.491528,
      "lon": 120.782639
    },
    {
      "city": "苗栗縣",
      "town": "西湖鄉",
      "name": "西湖",
      "temp": 29.3,
      "at": 33.52769808173138,
      "lat": 24.564417,
      "lon": 120.740278
    },
    {
      "city": "臺中市",
      "town": "大安區",
      "name": "大安",
      "temp": 26.6,
      "at": 28.774296545824612,
      "lat": 24.347444,
      "lon": 120.579972
    },
    {
      "city": "臺中市",
      "town": "后里區",
      "name": "后里",
      "temp": 28.4,
      "at": 32.16244583882342,
      "lat": 24.312111,
      "lon": 120.7215
    },
    {
      "city": "臺中市",
      "town": "豐原區",
      "name": "豐原",
      "temp": 30.4,
      "at": 35.909954138298374,
      "lat": 24.256306,
      "lon": 120.712333
    },
    {
      "city": "臺中市",
      "town": "潭子區",
      "name": "潭子",
      "temp": 28.8,
      "at": 33.49826065762535,
      "lat": 24.21475,
      "lon": 120.695833
    },
    {
      "city": "臺中市",
      "town": "清水區",
      "name": "清水",
      "temp": 27.4,
      "at": 30.834974917712103,
      "lat": 24.314028,
      "lon": 120.554083
    },
    {
      "city": "臺中市",
      "town": "外埔區",
      "name": "外埔",
      "temp": 28.3,
      "at": 33.98814416559538,
      "lat": 24.349556,
      "lon": 120.697472
    },
    {
      "city": "臺中市",
      "town": "龍井區",
      "name": "龍井",
      "temp": 28.3,
      "at": 31.562502077210596,
      "lat": 24.186278,
      "lon": 120.520833
    },
    {
      "city": "彰化縣",
      "town": "伸港鄉",
      "name": "伸港",
      "temp": 27.7,
      "at": 29.608031725819934,
      "lat": 24.150528,
      "lon": 120.476167
    },
    {
      "city": "苗栗縣",
      "town": "苑裡鎮",
      "name": "苑裡",
      "temp": 27.1,
      "at": 29.75996571576006,
      "lat": 24.441458,
      "lon": 120.644883
    },
    {
      "city": "臺中市",
      "town": "石岡區",
      "name": "石岡",
      "temp": 28.8,
      "at": 31.847549203432152,
      "lat": 24.277822,
      "lon": 120.769478
    },
    {
      "city": "臺中市",
      "town": "和平區",
      "name": "中坑",
      "temp": 24.1,
      "at": 27.804264754151014,
      "lat": 24.250283,
      "lon": 120.895153
    },
    {
      "city": "南投縣",
      "town": "魚池鄉",
      "name": "魚池",
      "temp": 27.3,
      "at": 29.48984760528012,
      "lat": 23.897478,
      "lon": 120.933219
    },
    {
      "city": "南投縣",
      "town": "國姓鄉",
      "name": "國姓",
      "temp": 30.5,
      "at": 32.15051368347747,
      "lat": 24.039567,
      "lon": 120.846925
    },
    {
      "city": "南投縣",
      "town": "仁愛鄉",
      "name": "仁愛",
      "temp": 24.6,
      "at": 25.643247217675025,
      "lat": 24.023903,
      "lon": 121.124056
    },
    {
      "city": "南投縣",
      "town": "水里鄉",
      "name": "水里",
      "temp": 28.4,
      "at": 29.292627724558734,
      "lat": 23.814322,
      "lon": 120.841658
    },
    {
      "city": "南投縣",
      "town": "集集鎮",
      "name": "集集",
      "temp": 31.1,
      "at": 33.74077756689902,
      "lat": 23.829972,
      "lon": 120.793328
    },
    {
      "city": "南投縣",
      "town": "名間鄉",
      "name": "名間",
      "temp": 30.5,
      "at": 33.344108281278935,
      "lat": 23.838817,
      "lon": 120.693306
    },
    {
      "city": "南投縣",
      "town": "仁愛鄉",
      "name": "萬大林道",
      "temp": 21.6,
      "at": 22.27365637894101,
      "lat": 23.930008,
      "lon": 121.083267
    },
    {
      "city": "南投縣",
      "town": "仁愛鄉",
      "name": "梅峰",
      "temp": 17.8,
      "at": 19.022206222349602,
      "lat": 24.087056,
      "lon": 121.165414
    },
    {
      "city": "南投縣",
      "town": "信義鄉",
      "name": "玉山風口",
      "temp": 6.7,
      "at": 5.724539482927124,
      "lat": 23.472294,
      "lon": 120.947853
    },
    {
      "city": "南投縣",
      "town": "仁愛鄉",
      "name": "小奇萊",
      "temp": 10.0,
      "at": 8.314349667827415,
      "lat": 24.13355,
      "lon": 121.287556
    },
    {
      "city": "臺中市",
      "town": "大里區",
      "name": "大里",
      "temp": 31.0,
      "at": 33.08038999592742,
      "lat": 24.094389,
      "lon": 120.692194
    },
    {
      "city": "臺中市",
      "town": "烏日區",
      "name": "烏日",
      "temp": 31.4,
      "at": 34.5893393315703,
      "lat": 24.108833,
      "lon": 120.615917
    },
    {
      "city": "臺中市",
      "town": "西屯區",
      "name": "西屯",
      "temp": 28.2,
      "at": 31.604108345122448,
      "lat": 24.182028,
      "lon": 120.632861
    },
    {
      "city": "臺中市",
      "town": "南屯區",
      "name": "南屯",
      "temp": 30.8,
      "at": 34.60857156021999,
      "lat": 24.138861,
      "lon": 120.630111
    },
    {
      "city": "彰化縣",
      "town": "福興鄉",
      "name": "福興",
      "temp": 29.8,
      "at": 33.496978546915045,
      "lat": 24.042972,
      "lon": 120.429528
    },
    {
      "city": "彰化縣",
      "town": "秀水鄉",
      "name": "秀水",
      "temp": 30.1,
      "at": 32.63477866749231,
      "lat": 24.035917,
      "lon": 120.495722
    },
    {
      "city": "彰化縣",
      "town": "埔鹽鄉",
      "name": "埔鹽",
      "temp": 29.4,
      "at": 33.681332175486695,
      "lat": 24.002167,
      "lon": 120.423583
    },
    {
      "city": "彰化縣",
      "town": "埔心鄉",
      "name": "埔心",
      "temp": 31.0,
      "at": 35.77879490051202,
      "lat": 23.948694,
      "lon": 120.517611
    },
    {
      "city": "彰化縣",
      "town": "田尾鄉",
      "name": "田尾",
      "temp": 32.6,
      "at": 38.267426442116346,
      "lat": 23.903417,
      "lon": 120.501389
    },
    {
      "city": "彰化縣",
      "town": "社頭鄉",
      "name": "社頭",
      "temp": 32.1,
      "at": 38.19669445781408,
      "lat": 23.899417,
      "lon": 120.578083
    },
    {
      "city": "彰化縣",
      "town": "二水鄉",
      "name": "二水",
      "temp": 30.7,
      "at": 34.15450354466267,
      "lat": 23.812778,
      "lon": 120.609028
    },
    {
      "city": "苗栗縣",
      "town": "造橋鄉",
      "name": "造橋",
      "temp": 30.2,
      "at": 35.31080494576984,
      "lat": 24.63875,
      "lon": 120.856583
    },
    {
      "city": "新竹縣",
      "town": "尖石鄉",
      "name": "梅花",
      "temp": 26.4,
      "at": 31.005097139860894,
      "lat": 24.680119,
      "lon": 121.200361
    },
    {
      "city": "新北市",
      "town": "坪林區",
      "name": "坪林",
      "temp": 20.7,
      "at": 24.103370875414356,
      "lat": 24.939975,
      "lon": 121.701531
    },
    {
      "city": "新北市",
      "town": "雙溪區",
      "name": "泰平",
      "temp": 20.3,
      "at": 24.00037424310044,
      "lat": 24.973056,
      "lon": 121.815278
    },
    {
      "city": "新北市",
      "town": "汐止區",
      "name": "五指山",
      "temp": 19.5,
      "at": 18.883324496500148,
      "lat": 25.133889,
      "lon": 121.600278
    },
    {
      "city": "新北市",
      "town": "汐止區",
      "name": "汐止",
      "temp": 26.5,
      "at": 28.90755182788216,
      "lat": 25.068667,
      "lon": 121.650556
    },
    {
      "city": "新北市",
      "town": "三峽區",
      "name": "三峽",
      "temp": 30.5,
      "at": 34.864432650499396,
      "lat": 24.940806,
      "lon": 121.3615
    },
    {
      "city": "臺北市",
      "town": "信義區",
      "name": "信義",
      "temp": 26.8,
      "at": 29.586506647994696,
      "lat": 25.039606,
      "lon": 121.556372
    },
    {
      "city": "臺北市",
      "town": "文山區",
      "name": "文山",
      "temp": 27.4,
      "at": 32.515845528311715,
      "lat": 25.004083,
      "lon": 121.567528
    },
    {
      "city": "新北市",
      "town": "新莊區",
      "name": "新莊",
      "temp": 27.2,
      "at": 28.813334622009798,
      "lat": 25.05325,
      "lon": 121.438528
    },
    {
      "city": "新北市",
      "town": "樹林區",
      "name": "山佳",
      "temp": 28.7,
      "at": 28.804552790613606,
      "lat": 24.976719,
      "lon": 121.393789
    },
    {
      "city": "新北市",
      "town": "烏來區",
      "name": "桶後",
      "temp": 21.7,
      "at": 24.385371171333723,
      "lat": 24.850056,
      "lon": 121.589639
    },
    {
      "city": "新北市",
      "town": "雙溪區",
      "name": "雙溪",
      "temp": 23.8,
      "at": 28.77910101718456,
      "lat": 25.037861,
      "lon": 121.856056
    },
    {
      "city": "宜蘭縣",
      "town": "大同鄉",
      "name": "多加屯",
      "temp": 12.0,
      "at": 12.410031069992431,
      "lat": 24.3704,
      "lon": 121.365011
    },
    {
      "city": "新北市",
      "town": "瑞芳區",
      "name": "鼻頭角",
      "temp": 24.5,
      "at": 20.442418836859872,
      "lat": 25.130833,
      "lon": 121.915278
    },
    {
      "city": "新北市",
      "town": "萬里區",
      "name": "大坪",
      "temp": 21.7,
      "at": 23.63906887548425,
      "lat": 25.167694,
      "lon": 121.62475
    },
    {
      "city": "新北市",
      "town": "金山區",
      "name": "三和",
      "temp": 22.0,
      "at": 24.884946302614498,
      "lat": 25.234933,
      "lon": 121.586997
    },
    {
      "city": "新北市",
      "town": "金山區",
      "name": "金山",
      "temp": 24.7,
      "at": 28.642641096134,
      "lat": 25.225278,
      "lon": 121.635556
    },
    {
      "city": "桃園市",
      "town": "復興區",
      "name": "復興",
      "temp": 26.7,
      "at": 29.844853334905885,
      "lat": 24.822,
      "lon": 121.344094
    },
    {
      "city": "桃園市",
      "town": "八德區",
      "name": "八德",
      "temp": 27.6,
      "at": 28.294205188245165,
      "lat": 24.930528,
      "lon": 121.275
    },
    {
      "city": "新北市",
      "town": "中和區",
      "name": "中和",
      "temp": 27.7,
      "at": 29.73402719355994,
      "lat": 24.993403,
      "lon": 121.483569
    },
    {
      "city": "基隆市",
      "town": "暖暖區",
      "name": "暖暖",
      "temp": 26.1,
      "at": 28.73053004375693,
      "lat": 25.097533,
      "lon": 121.732069
    },
    {
      "city": "臺北市",
      "town": "士林區",
      "name": "天母",
      "temp": 27.5,
      "at": 28.91203903541974,
      "lat": 25.119253,
      "lon": 121.528939
    },
    {
      "city": "臺北市",
      "town": "士林區",
      "name": "社子",
      "temp": 28.6,
      "at": 31.498045619029355,
      "lat": 25.111389,
      "lon": 121.461389
    },
    {
      "city": "臺北市",
      "town": "北投區",
      "name": "大屯山",
      "temp": 18.0,
      "at": 19.604863993509692,
      "lat": 25.177333,
      "lon": 121.514167
    },
    {
      "city": "新北市",
      "town": "八里區",
      "name": "八里",
      "temp": 27.5,
      "at": 27.874334875217667,
      "lat": 25.15225,
      "lon": 121.395306
    },
    {
      "city": "新北市",
      "town": "蘆洲區",
      "name": "蘆洲",
      "temp": 27.6,
      "at": 30.003036924643148,
      "lat": 25.088528,
      "lon": 121.464056
    },
    {
      "city": "新北市",
      "town": "土城區",
      "name": "土城",
      "temp": 26.2,
      "at": 26.771031160900783,
      "lat": 24.974944,
      "lon": 121.436917
    },
    {
      "city": "新北市",
      "town": "鶯歌區",
      "name": "鶯歌",
      "temp": 28.0,
      "at": 27.77210522291432,
      "lat": 24.953,
      "lon": 121.33725
    },
    {
      "city": "新北市",
      "town": "永和區",
      "name": "永和",
      "temp": 27.2,
      "at": 27.958001367979634,
      "lat": 25.013028,
      "lon": 121.499889
    },
    {
      "city": "臺北市",
      "town": "士林區",
      "name": "平等",
      "temp": 23.9,
      "at": 27.59322288724395,
      "lat": 25.130925,
      "lon": 121.568856
    },
    {
      "city": "新北市",
      "town": "林口區",
      "name": "林口",
      "temp": 25.1,
      "at": 25.987318946831444,
      "lat": 25.073953,
      "lon": 121.372611
    },
    {
      "city": "新北市",
      "town": "深坑區",
      "name": "深坑",
      "temp": 26.9,
      "at": 29.708194317900933,
      "lat": 25.004489,
      "lon": 121.620106
    },
    {
      "city": "基隆市",
      "town": "七堵區",
      "name": "七堵",
      "temp": 27.4,
      "at": 30.35516147712631,
      "lat": 25.096608,
      "lon": 121.708897
    },
    {
      "city": "新北市",
      "town": "五股區",
      "name": "五股",
      "temp": 26.6,
      "at": 30.524296545824612,
      "lat": 25.076228,
      "lon": 121.419053
    },
    {
      "city": "新北市",
      "town": "新店區",
      "name": "屈尺",
      "temp": 27.0,
      "at": 29.626400087242423,
      "lat": 24.923619,
      "lon": 121.536533
    },
    {
      "city": "臺北市",
      "town": "北投區",
      "name": "石牌",
      "temp": 28.6,
      "at": 32.0942631091384,
      "lat": 25.117336,
      "lon": 121.504825
    },
    {
      "city": "臺東縣",
      "town": "金峰鄉",
      "name": "金峰嘉蘭",
      "temp": 25.8,
      "at": 29.969447840988288,
      "lat": 22.596589,
      "lon": 120.952772
    },
    {
      "city": "臺東縣",
      "town": "延平鄉",
      "name": "延平",
      "temp": 28.8,
      "at": 32.81612629504576,
      "lat": 22.904381,
      "lon": 121.075983
    },
    {
      "city": "臺東縣",
      "town": "長濱鄉",
      "name": "石寧山",
      "temp": 23.6,
      "at": 27.210186460749192,
      "lat": 23.225581,
      "lon": 121.398542
    },
    {
      "city": "臺東縣",
      "town": "東河鄉",
      "name": "七塊厝",
      "temp": 25.3,
      "at": 28.421758608393503,
      "lat": 22.957525,
      "lon": 121.221089
    },
    {
      "city": "臺東縣",
      "town": "臺東市",
      "name": "知本(水試所)",
      "temp": 29.1,
      "at": 34.058442687593605,
      "lat": 22.704053,
      "lon": 121.074603
    },
    {
      "city": "臺東縣",
      "town": "太麻里鄉",
      "name": "香蘭",
      "temp": 26.3,
      "at": 29.460184167152704,
      "lat": 22.589372,
      "lon": 120.985322
    },
    {
      "city": "臺東縣",
      "town": "大武鄉",
      "name": "加津林",
      "temp": 28.0,
      "at": 29.46678358101591,
      "lat": 22.418014,
      "lon": 120.9189
    },
    {
      "city": "臺東縣",
      "town": "達仁鄉",
      "name": "勝林山",
      "temp": 21.0,
      "at": 24.706032716104016,
      "lat": 22.432239,
      "lon": 120.885742
    },
    {
      "city": "臺東縣",
      "town": "大武鄉",
      "name": "山豬窟",
      "temp": 24.8,
      "at": 26.919123074722783,
      "lat": 22.320422,
      "lon": 120.849339
    },
    {
      "city": "臺東縣",
      "town": "太麻里鄉",
      "name": "歷坵",
      "temp": 25.2,
      "at": 29.568553087727246,
      "lat": 22.522769,
      "lon": 120.883803
    },
    {
      "city": "臺東縣",
      "town": "卑南鄉",
      "name": "檳榔四格山",
      "temp": 25.1,
      "at": 28.401236417902425,
      "lat": 22.811789,
      "lon": 121.101247
    },
    {
      "city": "臺東縣",
      "town": "太麻里鄉",
      "name": "金崙山",
      "temp": 20.4,
      "at": 23.518857294242878,
      "lat": 22.569219,
      "lon": 120.951617
    },
    {
      "city": "臺東縣",
      "town": "成功鎮",
      "name": "都歷",
      "temp": 24.1,
      "at": 25.925854129949286,
      "lat": 23.022142,
      "lon": 121.315558
    },
    {
      "city": "臺東縣",
      "town": "達仁鄉",
      "name": "達仁林場",
      "temp": 23.6,
      "at": 28.03189255565875,
      "lat": 22.266147,
      "lon": 120.815942
    },
    {
      "city": "屏東縣",
      "town": "牡丹鄉",
      "name": "牡丹池山",
      "temp": 25.5,
      "at": 30.06641003247737,
      "lat": 22.170192,
      "lon": 120.8332
    },
    {
      "city": "屏東縣",
      "town": "牡丹鄉",
      "name": "高士",
      "temp": 24.6,
      "at": 28.034562363184023,
      "lat": 22.123631,
      "lon": 120.828758
    },
    {
      "city": "屏東縣",
      "town": "來義鄉",
      "name": "白鷺",
      "temp": 34.1,
      "at": 37.699841303014836,
      "lat": 22.456067,
      "lon": 120.658178
    },
    {
      "city": "屏東縣",
      "town": "獅子鄉",
      "name": "內獅",
      "temp": 31.5,
      "at": 37.50969150995766,
      "lat": 22.306856,
      "lon": 120.634956
    },
    {
      "city": "屏東縣",
      "town": "獅子鄉",
      "name": "丹路",
      "temp": 29.1,
      "at": 35.97125691679146,
      "lat": 22.206281,
      "lon": 120.742964
    },
    {
      "city": "屏東縣",
      "town": "滿州鄉",
      "name": "九棚",
      "temp": 29.4,
      "at": 34.81168718391561,
      "lat": 22.143756,
      "lon": 120.886331
    },
    {
      "city": "屏東縣",
      "town": "滿州鄉",
      "name": "滿州",
      "temp": 28.7,
      "at": 30.57198415225227,
      "lat": 22.026208,
      "lon": 120.831875
    },
    {
      "city": "屏東縣",
      "town": "車城鄉",
      "name": "保力",
      "temp": 30.3,
      "at": 32.72764261952161,
      "lat": 22.072925,
      "lon": 120.756094
    },
    {
      "city": "屏東縣",
      "town": "滿州鄉",
      "name": "南仁湖",
      "temp": 25.7,
      "at": 28.895168629284143,
      "lat": 22.086486,
      "lon": 120.855333
    },
    {
      "city": "南投縣",
      "town": "仁愛鄉",
      "name": "合歡山頂",
      "temp": 9.5,
      "at": 7.732352473637553,
      "lat": 24.144778,
      "lon": 121.264083
    },
    {
      "city": "臺中市",
      "town": "北屯區",
      "name": "大坑",
      "temp": 30.5,
      "at": 34.16802724830085,
      "lat": 24.174889,
      "lon": 120.714139
    },
    {
      "city": "彰化縣",
      "town": "溪湖鎮",
      "name": "溪湖",
      "temp": 31.5,
      "at": 35.37370473095948,
      "lat": 23.95175,
      "lon": 120.471056
    },
    {
      "city": "彰化縣",
      "town": "員林市",
      "name": "員林",
      "temp": 31.3,
      "at": 35.50776901361444,
      "lat": 23.948333,
      "lon": 120.577528
    },
    {
      "city": "南投縣",
      "town": "草屯鎮",
      "name": "草屯",
      "temp": 31.7,
      "at": 35.244934867326606,
      "lat": 23.975444,
      "lon": 120.672194
    },
    {
      "city": "彰化縣",
      "town": "芬園鄉",
      "name": "芬園",
      "temp": 31.0,
      "at": 35.60007886316038,
      "lat": 24.017222,
      "lon": 120.613056
    },
    {
      "city": "臺中市",
      "town": "東勢區",
      "name": "東勢",
      "temp": 30.1,
      "at": 33.33093971900759,
      "lat": 24.248194,
      "lon": 120.824917
    },
    {
      "city": "南投縣",
      "town": "竹山鎮",
      "name": "竹山",
      "temp": 30.0,
      "at": 34.1601437605528,
      "lat": 23.764722,
      "lon": 120.677778
    },
    {
      "city": "苗栗縣",
      "town": "泰安鄉",
      "name": "馬都安",
      "temp": 25.4,
      "at": 29.191254891692388,
      "lat": 24.453056,
      "lon": 120.921944
    },
    {
      "city": "苗栗縣",
      "town": "頭屋鄉",
      "name": "明德",
      "temp": 31.5,
      "at": 35.13773998696432,
      "lat": 24.58525,
      "lon": 120.877222
    },
    {
      "city": "苗栗縣",
      "town": "通霄鎮",
      "name": "通霄",
      "temp": 27.7,
      "at": 31.566760646641747,
      "lat": 24.473639,
      "lon": 120.696444
    },
    {
      "city": "臺中市",
      "town": "神岡區",
      "name": "神岡",
      "temp": 27.8,
      "at": 31.25010494784317,
      "lat": 24.274222,
      "lon": 120.650306
    },
    {
      "city": "苗栗縣",
      "town": "卓蘭鎮",
      "name": "卓蘭",
      "temp": 30.2,
      "at": 33.41041573845658,
      "lat": 24.314319,
      "lon": 120.816192
    },
    {
      "city": "臺中市",
      "town": "新社區",
      "name": "新社",
      "temp": 28.3,
      "at": 31.05381939214444,
      "lat": 24.201583,
      "lon": 120.8075
    },
    {
      "city": "南投縣",
      "town": "埔里鎮",
      "name": "埔里",
      "temp": 29.3,
      "at": 30.596481607477642,
      "lat": 23.973944,
      "lon": 120.944278
    },
    {
      "city": "南投縣",
      "town": "信義鄉",
      "name": "信義",
      "temp": 29.7,
      "at": 33.65570742817728,
      "lat": 23.691389,
      "lon": 120.842778
    },
    {
      "city": "南投縣",
      "town": "仁愛鄉",
      "name": "昆陽",
      "temp": 10.0,
      "at": 9.345721307038573,
      "lat": 24.123139,
      "lon": 121.265361
    },
    {
      "city": "南投縣",
      "town": "仁愛鄉",
      "name": "廬山",
      "temp": 23.7,
      "at": 25.2430220348717,
      "lat": 24.035,
      "lon": 121.173333
    },
    {
      "city": "南投縣",
      "town": "信義鄉",
      "name": "神木村",
      "temp": 24.3,
      "at": 26.637378029314135,
      "lat": 23.534519,
      "lon": 120.835553
    },
    {
      "city": "臺中市",
      "town": "大雅區",
      "name": "大雅",
      "temp": 27.6,
      "at": 30.363340617107454,
      "lat": 24.217056,
      "lon": 120.616239
    },
    {
      "city": "南投縣",
      "town": "南投市",
      "name": "南投",
      "temp": 31.0,
      "at": 32.57490358098676,
      "lat": 23.913208,
      "lon": 120.679183
    },
    {
      "city": "彰化縣",
      "town": "花壇鄉",
      "name": "花壇",
      "temp": 30.4,
      "at": 33.322731279108076,
      "lat": 24.032075,
      "lon": 120.541314
    },
    {
      "city": "彰化縣",
      "town": "線西鄉",
      "name": "線西",
      "temp": 26.7,
      "at": 27.455363443016132,
      "lat": 24.141081,
      "lon": 120.435381
    },
    {
      "city": "臺中市",
      "town": "霧峰區",
      "name": "霧峰",
      "temp": 32.5,
      "at": 35.491019586996956,
      "lat": 24.043658,
      "lon": 120.691323
    },
    {
      "city": "雲林縣",
      "town": "虎尾鎮",
      "name": "虎尾",
      "temp": 30.3,
      "at": 32.91800529344137,
      "lat": 23.720939,
      "lon": 120.433911
    },
    {
      "city": "雲林縣",
      "town": "口湖鄉",
      "name": "宜梧",
      "temp": 29.3,
      "at": 31.755308809970188,
      "lat": 23.538014,
      "lon": 120.1612
    },
    {
      "city": "嘉義縣",
      "town": "義竹鄉",
      "name": "東後寮",
      "temp": 30.1,
      "at": 32.35163770964117,
      "lat": 23.371644,
      "lon": 120.239936
    },
    {
      "city": "臺南市",
      "town": "東山區",
      "name": "東河",
      "temp": 31.9,
      "at": 32.98273637797937,
      "lat": 23.298339,
      "lon": 120.377492
    },
    {
      "city": "臺南市",
      "town": "佳里區",
      "name": "佳里",
      "temp": 32.2,
      "at": 35.3570074035263,
      "lat": 23.175,
      "lon": 120.136667
    },
    {
      "city": "彰化縣",
      "town": "二林鎮",
      "name": "二林",
      "temp": 27.8,
      "at": 31.39485836066052,
      "lat": 23.905067,
      "lon": 120.367928
    },
    {
      "city": "臺南市",
      "town": "白河區",
      "name": "白河",
      "temp": 31.3,
      "at": 33.735230583098094,
      "lat": 23.349228,
      "lon": 120.406328
    },
    {
      "city": "嘉義縣",
      "town": "番路鄉",
      "name": "番路",
      "temp": 29.5,
      "at": 31.754812503078604,
      "lat": 23.466408,
      "lon": 120.546028
    },
    {
      "city": "臺南市",
      "town": "新營區",
      "name": "新營",
      "temp": 30.6,
      "at": 33.01613498707275,
      "lat": 23.312447,
      "lon": 120.308586
    },
    {
      "city": "臺南市",
      "town": "將軍區",
      "name": "將軍",
      "temp": 30.3,
      "at": 32.80157008473766,
      "lat": 23.216733,
      "lon": 120.127656
    },
    {
      "city": "雲林縣",
      "town": "褒忠鄉",
      "name": "褒忠",
      "temp": 28.2,
      "at": 31.449896456390746,
      "lat": 23.692672,
      "lon": 120.295503
    },
    {
      "city": "嘉義縣",
      "town": "溪口鄉",
      "name": "溪口",
      "temp": 29.4,
      "at": 32.763462226060206,
      "lat": 23.605872,
      "lon": 120.395439
    },
    {
      "city": "雲林縣",
      "town": "二崙鄉",
      "name": "二崙",
      "temp": 28.9,
      "at": 32.63339442410106,
      "lat": 23.77455,
      "lon": 120.400811
    },
    {
      "city": "嘉義縣",
      "town": "竹崎鄉",
      "name": "竹崎",
      "temp": 30.0,
      "at": 33.182857964138904,
      "lat": 23.527931,
      "lon": 120.547378
    },
    {
      "city": "嘉義縣",
      "town": "中埔鄉",
      "name": "中埔",
      "temp": 29.7,
      "at": 30.802703211469286,
      "lat": 23.427144,
      "lon": 120.514797
    },
    {
      "city": "臺南市",
      "town": "鹽水區",
      "name": "鹽水",
      "temp": 30.9,
      "at": 32.45978886927518,
      "lat": 23.274339,
      "lon": 120.239506
    },
    {
      "city": "臺南市",
      "town": "學甲區",
      "name": "學甲",
      "temp": 30.9,
      "at": 33.30669412144382,
      "lat": 23.2321,
      "lon": 120.174072
    },
    {
      "city": "臺南市",
      "town": "後壁區",
      "name": "後壁",
      "temp": 30.9,
      "at": 33.75431513011838,
      "lat": 23.368094,
      "lon": 120.354211
    },
    {
      "city": "雲林縣",
      "town": "西螺鎮",
      "name": "西螺",
      "temp": 30.1,
      "at": 33.96303369090835,
      "lat": 23.80215,
      "lon": 120.459253
    },
    {
      "city": "雲林縣",
      "town": "土庫鎮",
      "name": "土庫",
      "temp": 29.4,
      "at": 32.1334622260602,
      "lat": 23.680772,
      "lon": 120.387436
    },
    {
      "city": "嘉義縣",
      "town": "大林鎮",
      "name": "大林",
      "temp": 29.6,
      "at": 32.72205558369298,
      "lat": 23.602361,
      "lon": 120.450281
    },
    {
      "city": "嘉義縣",
      "town": "東石鄉",
      "name": "東石",
      "temp": 29.0,
      "at": 31.274270148075026,
      "lat": 23.460653,
      "lon": 120.145722
    },
    {
      "city": "嘉義縣",
      "town": "水上鄉",
      "name": "水上",
      "temp": 30.2,
      "at": 32.356952669352154,
      "lat": 23.421475,
      "lon": 120.380792
    },
    {
      "city": "嘉義市",
      "town": "東區",
      "name": "嘉義市東區",
      "temp": 32.8,
      "at": 35.997655626855064,
      "lat": 23.459414,
      "lon": 120.452408
    },
    {
      "city": "臺南市",
      "town": "白河區",
      "name": "關子嶺",
      "temp": 29.5,
      "at": 32.249212287508286,
      "lat": 23.332933,
      "lon": 120.499931
    },
    {
      "city": "臺南市",
      "town": "新化區",
      "name": "虎頭埤",
      "temp": 33.6,
      "at": 36.61191860451749,
      "lat": 23.023139,
      "lon": 120.339806
    },
    {
      "city": "臺南市",
      "town": "歸仁區",
      "name": "媽廟",
      "temp": 33.6,
      "at": 36.23880348824644,
      "lat": 22.993514,
      "lon": 120.285431
    },
    {
      "city": "臺南市",
      "town": "龍崎區",
      "name": "崎頂",
      "temp": 34.4,
      "at": 37.24922325634057,
      "lat": 22.961306,
      "lon": 120.361194
    },
    {
      "city": "臺南市",
      "town": "新市區",
      "name": "新市",
      "temp": 34.1,
      "at": 38.61677022527829,
      "lat": 23.063556,
      "lon": 120.290417
    },
    {
      "city": "臺南市",
      "town": "南化區",
      "name": "北寮",
      "temp": 35.6,
      "at": 39.39008577191159,
      "lat": 23.081611,
      "lon": 120.486944
    },
    {
      "city": "臺南市",
      "town": "善化區",
      "name": "善化",
      "temp": 32.9,
      "at": 35.40495725183665,
      "lat": 23.114444,
      "lon": 120.289444
    },
    {
      "city": "高雄市",
      "town": "桃源區",
      "name": "復興",
      "temp": 30.4,
      "at": 31.58441132210438,
      "lat": 23.224167,
      "lon": 120.797778
    },
    {
      "city": "臺南市",
      "town": "六甲區",
      "name": "王爺宮",
      "temp": 30.8,
      "at": 35.168571560219995,
      "lat": 23.223828,
      "lon": 120.392758
    },
    {
      "city": "臺南市",
      "town": "大內區",
      "name": "大內",
      "temp": 31.4,
      "at": 35.32274946263114,
      "lat": 23.120611,
      "lon": 120.35275
    },
    {
      "city": "高雄市",
      "town": "阿蓮區",
      "name": "阿蓮",
      "temp": 33.2,
      "at": 36.27571055593689,
      "lat": 22.884944,
      "lon": 120.319528
    },
    {
      "city": "臺南市",
      "town": "北區",
      "name": "臺南市北區",
      "temp": 32.1,
      "at": 34.63087858174229,
      "lat": 23.012167,
      "lon": 120.186333
    },
    {
      "city": "臺南市",
      "town": "南區",
      "name": "臺南市南區",
      "temp": 31.4,
      "at": 34.264792490155855,
      "lat": 22.963028,
      "lon": 120.180417
    },
    {
      "city": "臺南市",
      "town": "安平區",
      "name": "安平",
      "temp": 32.4,
      "at": 34.24640692274897,
      "lat": 22.994972,
      "lon": 120.144111
    },
    {
      "city": "臺南市",
      "town": "麻豆區",
      "name": "麻豆",
      "temp": 32.1,
      "at": 36.011548027523695,
      "lat": 23.185056,
      "lon": 120.2405
    },
    {
      "city": "臺南市",
      "town": "安定區",
      "name": "安定",
      "temp": 31.9,
      "at": 35.75031517063916,
      "lat": 23.104417,
      "lon": 120.219972
    },
    {
      "city": "臺南市",
      "town": "山上區",
      "name": "山上",
      "temp": 32.4,
      "at": 37.04526367089636,
      "lat": 23.077444,
      "lon": 120.355194
    },
    {
      "city": "臺南市",
      "town": "關廟區",
      "name": "關廟",
      "temp": 33.3,
      "at": 36.338061373688326,
      "lat": 22.964861,
      "lon": 120.319722
    },
    {
      "city": "臺南市",
      "town": "官田區",
      "name": "官田",
      "temp": 31.9,
      "at": 34.631052099768034,
      "lat": 23.195028,
      "lon": 120.307528
    },
    {
      "city": "臺南市",
      "town": "西港區",
      "name": "西港",
      "temp": 30.2,
      "at": 32.635798312984015,
      "lat": 23.127417,
      "lon": 120.195083
    },
    {
      "city": "臺南市",
      "town": "仁德區",
      "name": "仁德",
      "temp": 32.4,
      "at": 35.58550865343621,
      "lat": 22.970111,
      "lon": 120.249778
    },
    {
      "city": "嘉義縣",
      "town": "大埔鄉",
      "name": "表湖",
      "temp": 27.2,
      "at": 30.067334562532423,
      "lat": 23.243628,
      "lon": 120.633564
    },
    {
      "city": "屏東縣",
      "town": "泰武鄉",
      "name": "舊泰武",
      "temp": 27.1,
      "at": 28.900351972261312,
      "lat": 22.58995,
      "lon": 120.656922
    },
    {
      "city": "高雄市",
      "town": "茂林區",
      "name": "萬山",
      "temp": 31.0,
      "at": 31.968444336164787,
      "lat": 22.907694,
      "lon": 120.68
    },
    {
      "city": "高雄市",
      "town": "六龜區",
      "name": "六龜",
      "temp": 31.8,
      "at": 34.929082292898116,
      "lat": 22.99975,
      "lon": 120.625528
    },
    {
      "city": "屏東縣",
      "town": "里港鄉",
      "name": "里港",
      "temp": 33.2,
      "at": 35.92571055593689,
      "lat": 22.780972,
      "lon": 120.486528
    },
    {
      "city": "高雄市",
      "town": "左營區",
      "name": "左營",
      "temp": 29.5,
      "at": 31.076414874352132,
      "lat": 22.676689,
      "lon": 120.27685
    },
    {
      "city": "屏東縣",
      "town": "東港鎮",
      "name": "東港",
      "temp": 31.6,
      "at": 33.09150080786018,
      "lat": 22.464244,
      "lon": 120.432703
    },
    {
      "city": "屏東縣",
      "town": "萬丹鄉",
      "name": "萬丹",
      "temp": 29.0,
      "at": 27.40826106725248,
      "lat": 22.590256,
      "lon": 120.477031
    },
    {
      "city": "屏東縣",
      "town": "霧臺鄉",
      "name": "阿禮",
      "temp": 26.6,
      "at": 28.583004705379587,
      "lat": 22.744444,
      "lon": 120.735556
    },
    {
      "city": "屏東縣",
      "town": "瑪家鄉",
      "name": "瑪家",
      "temp": 27.4,
      "at": 30.28429086652669,
      "lat": 22.684722,
      "lon": 120.678889
    },
    {
      "city": "高雄市",
      "town": "大樹區",
      "name": "溪埔",
      "temp": 36.2,
      "at": 38.513363724657445,
      "lat": 22.740278,
      "lon": 120.438611
    },
    {
      "city": "高雄市",
      "town": "燕巢區",
      "name": "阿公店",
      "temp": 33.4,
      "at": 35.85042739046625,
      "lat": 22.805944,
      "lon": 120.347444
    },
    {
      "city": "高雄市",
      "town": "田寮區",
      "name": "古亭坑",
      "temp": 33.7,
      "at": 37.567735963925074,
      "lat": 22.895,
      "lon": 120.393889
    },
    {
      "city": "屏東縣",
      "town": "琉球鄉",
      "name": "琉球嶼",
      "temp": 34.9,
      "at": 38.41182446021739,
      "lat": 22.334025,
      "lon": 120.354194
    },
    {
      "city": "屏東縣",
      "town": "鹽埔鄉",
      "name": "鹽埔",
      "temp": 32.5,
      "at": 35.797582720916466,
      "lat": 22.741342,
      "lon": 120.522697
    },
    {
      "city": "高雄市",
      "town": "小港區",
      "name": "鳳森",
      "temp": 33.3,
      "at": 35.80527224634022,
      "lat": 22.546944,
      "lon": 120.3845
    },
    {
      "city": "屏東縣",
      "town": "萬巒鄉",
      "name": "赤山",
      "temp": 33.4,
      "at": 35.797846568105356,
      "lat": 22.594139,
      "lon": 120.60625
    },
    {
      "city": "屏東縣",
      "town": "內埔鄉",
      "name": "三地門",
      "temp": 35.8,
      "at": 38.3733860730704,
      "lat": 22.711667,
      "lon": 120.631889
    },
    {
      "city": "屏東縣",
      "town": "潮州鎮",
      "name": "潮州",
      "temp": 32.0,
      "at": 34.849465632095246,
      "lat": 22.536139,
      "lon": 120.531972
    },
    {
      "city": "高雄市",
      "town": "新興區",
      "name": "新興",
      "temp": 31.9,
      "at": 34.911052099768035,
      "lat": 22.629111,
      "lon": 120.290583
    },
    {
      "city": "高雄市",
      "town": "湖內區",
      "name": "湖內",
      "temp": 31.7,
      "at": 33.08866095582345,
      "lat": 22.888889,
      "lon": 120.236444
    },
    {
      "city": "高雄市",
      "town": "永安區",
      "name": "永安",
      "temp": 30.9,
      "at": 33.64884139096158,
      "lat": 22.824944,
      "lon": 120.228806
    },
    {
      "city": "高雄市",
      "town": "大社區",
      "name": "大社",
      "temp": 33.4,
      "at": 36.14784656810536,
      "lat": 22.731944,
      "lon": 120.338583
    },
    {
      "city": "高雄市",
      "town": "梓官區",
      "name": "梓官",
      "temp": 30.8,
      "at": 31.918214407077805,
      "lat": 22.762444,
      "lon": 120.25925
    },
    {
      "city": "高雄市",
      "town": "路竹區",
      "name": "路竹",
      "temp": 33.8,
      "at": 37.3607298234521,
      "lat": 22.856639,
      "lon": 120.251361
    },
    {
      "city": "高雄市",
      "town": "茄萣區",
      "name": "茄萣",
      "temp": 30.5,
      "at": 33.95802724830085,
      "lat": 22.908444,
      "lon": 120.174583
    },
    {
      "city": "高雄市",
      "town": "岡山區",
      "name": "岡山",
      "temp": 33.4,
      "at": 35.33128766458655,
      "lat": 22.798844,
      "lon": 120.286889
    },
    {
      "city": "高雄市",
      "town": "彌陀區",
      "name": "彌陀",
      "temp": 30.8,
      "at": 33.33035726833467,
      "lat": 22.785583,
      "lon": 120.238278
    },
    {
      "city": "高雄市",
      "town": "橋頭區",
      "name": "橋頭",
      "temp": 32.6,
      "at": 34.74806983158725,
      "lat": 22.759583,
      "lon": 120.297694
    },
    {
      "city": "高雄市",
      "town": "仁武區",
      "name": "仁武",
      "temp": 32.2,
      "at": 34.91887999618946,
      "lat": 22.702861,
      "lon": 120.339667
    },
    {
      "city": "高雄市",
      "town": "三民區",
      "name": "三民",
      "temp": 31.8,
      "at": 35.91505965691698,
      "lat": 22.646917,
      "lon": 120.303278
    },
    {
      "city": "高雄市",
      "town": "鼓山區",
      "name": "鼓山",
      "temp": 29.8,
      "at": 30.503323855839035,
      "lat": 22.625139,
      "lon": 120.2675
    },
    {
      "city": "高雄市",
      "town": "苓雅區",
      "name": "苓雅",
      "temp": 32.4,
      "at": 34.955508653436205,
      "lat": 22.624528,
      "lon": 120.322583
    },
    {
      "city": "高雄市",
      "town": "旗山區",
      "name": "旗山",
      "temp": 34.4,
      "at": 36.448042401836865,
      "lat": 22.890389,
      "lon": 120.475528
    },
    {
      "city": "屏東縣",
      "town": "長治鄉",
      "name": "長治",
      "temp": 34.4,
      "at": 37.45095727481462,
      "lat": 22.694833,
      "lon": 120.534611
    },
    {
      "city": "屏東縣",
      "town": "麟洛鄉",
      "name": "麟洛",
      "temp": 34.3,
      "at": 37.94848331017122,
      "lat": 22.652556,
      "lon": 120.519139
    },
    {
      "city": "屏東縣",
      "town": "南州鄉",
      "name": "南州",
      "temp": 31.3,
      "at": 34.07692287010899,
      "lat": 22.487694,
      "lon": 120.494694
    },
    {
      "city": "屏東縣",
      "town": "佳冬鄉",
      "name": "佳冬",
      "temp": 29.9,
      "at": 32.185017133359615,
      "lat": 22.421194,
      "lon": 120.544222
    },
    {
      "city": "屏東縣",
      "town": "新園鄉",
      "name": "新園",
      "temp": 31.4,
      "at": 34.065929200509466,
      "lat": 22.545194,
      "lon": 120.4535
    },
    {
      "city": "屏東縣",
      "town": "崁頂鄉",
      "name": "崁頂",
      "temp": 31.3,
      "at": 32.687204917944136,
      "lat": 22.516639,
      "lon": 120.498972
    },
    {
      "city": "高雄市",
      "town": "林園區",
      "name": "林園",
      "temp": 30.8,
      "at": 32.3200001151925,
      "lat": 22.509583,
      "lon": 120.386556
    },
    {
      "city": "彰化縣",
      "town": "溪州鄉",
      "name": "溪州",
      "temp": 30.3,
      "at": 31.58996902604939,
      "lat": 23.853347,
      "lon": 120.490944
    },
    {
      "city": "雲林縣",
      "town": "斗南鎮",
      "name": "斗南",
      "temp": 29.6,
      "at": 32.72567374903119,
      "lat": 23.680478,
      "lon": 120.470231
    },
    {
      "city": "雲林縣",
      "town": "斗六市",
      "name": "斗六",
      "temp": 30.9,
      "at": 33.775978364937906,
      "lat": 23.722303,
      "lon": 120.532972
    },
    {
      "city": "嘉義縣",
      "town": "朴子市",
      "name": "朴子",
      "temp": 29.6,
      "at": 32.022055583692975,
      "lat": 23.436364,
      "lon": 120.230928
    },
    {
      "city": "雲林縣",
      "town": "北港鎮",
      "name": "北港",
      "temp": 30.1,
      "at": 33.82338268622514,
      "lat": 23.575803,
      "lon": 120.283672
    },
    {
      "city": "嘉義縣",
      "town": "太保市",
      "name": "太保",
      "temp": 30.2,
      "at": 32.918107025720296,
      "lat": 23.456792,
      "lon": 120.323303
    },
    {
      "city": "雲林縣",
      "town": "林內鄉",
      "name": "林內",
      "temp": 30.9,
      "at": 33.80359937361246,
      "lat": 23.750436,
      "lon": 120.601508
    },
    {
      "city": "彰化縣",
      "town": "大城鄉",
      "name": "大城",
      "temp": 27.2,
      "at": 29.9573348599193,
      "lat": 23.854225,
      "lon": 120.312789
    },
    {
      "city": "嘉義縣",
      "town": "民雄鄉",
      "name": "民雄",
      "temp": 29.8,
      "at": 32.74536701945454,
      "lat": 23.553497,
      "lon": 120.420331
    },
    {
      "city": "雲林縣",
      "town": "大埤鄉",
      "name": "大埤",
      "temp": 30.4,
      "at": 33.28385130777228,
      "lat": 23.647817,
      "lon": 120.4234
    },
    {
      "city": "雲林縣",
      "town": "莿桐鄉",
      "name": "莿桐",
      "temp": 29.8,
      "at": 32.52923752860804,
      "lat": 23.762947,
      "lon": 120.494247
    },
    {
      "city": "雲林縣",
      "town": "臺西鄉",
      "name": "臺西",
      "temp": 28.2,
      "at": 30.246744011317553,
      "lat": 23.703283,
      "lon": 120.189422
    },
    {
      "city": "雲林縣",
      "town": "水林鄉",
      "name": "水林",
      "temp": 29.9,
      "at": 34.98251763728195,
      "lat": 23.574658,
      "lon": 120.237839
    },
    {
      "city": "雲林縣",
      "town": "元長鄉",
      "name": "元長",
      "temp": 28.9,
      "at": 32.01240260755915,
      "lat": 23.644608,
      "lon": 120.311544
    },
    {
      "city": "嘉義縣",
      "town": "布袋鎮",
      "name": "布袋",
      "temp": 30.2,
      "at": 31.588107025720298,
      "lat": 23.382611,
      "lon": 120.159667
    },
    {
      "city": "嘉義縣",
      "town": "鹿草鄉",
      "name": "鹿草",
      "temp": 31.4,
      "at": 33.94024564874141,
      "lat": 23.413075,
      "lon": 120.300231
    },
    {
      "city": "嘉義縣",
      "town": "六腳鄉",
      "name": "六腳",
      "temp": 30.4,
      "at": 33.84940558939168,
      "lat": 23.494611,
      "lon": 120.2825
    },
    {
      "city": "嘉義縣",
      "town": "新港鄉",
      "name": "新港",
      "temp": 30.2,
      "at": 33.40926138208844,
      "lat": 23.555011,
      "lon": 120.3376
    },
    {
      "city": "嘉義縣",
      "town": "梅山鄉",
      "name": "梅山",
      "temp": 29.5,
      "at": 32.23161314978957,
      "lat": 23.587147,
      "lon": 120.547464
    },
    {
      "city": "嘉義縣",
      "town": "阿里山鄉",
      "name": "達邦",
      "temp": 26.8,
      "at": 27.799572522264373,
      "lat": 23.455769,
      "lon": 120.741403
    },
    {
      "city": "臺南市",
      "town": "白河區",
      "name": "鹿寮",
      "temp": 31.9,
      "at": 35.04368372706184,
      "lat": 23.387811,
      "lon": 120.469225
    },
    {
      "city": "嘉義縣",
      "town": "阿里山鄉",
      "name": "茶山",
      "temp": 30.1,
      "at": 31.64779876115645,
      "lat": 23.300847,
      "lon": 120.656664
    },
    {
      "city": "雲林縣",
      "town": "古坑鄉",
      "name": "棋山",
      "temp": 31.4,
      "at": 35.30365577980224,
      "lat": 23.688211,
      "lon": 120.595289
    },
    {
      "city": "雲林縣",
      "town": "水林鄉",
      "name": "蔦松",
      "temp": 29.9,
      "at": 33.308766377476104,
      "lat": 23.516064,
      "lon": 120.221625
    },
    {
      "city": "臺南市",
      "town": "北門區",
      "name": "北門",
      "temp": 29.3,
      "at": 32.06364942276124,
      "lat": 23.269517,
      "lon": 120.117367
    },
    {
      "city": "基隆市",
      "town": "仁愛區",
      "name": "基隆",
      "temp": 25.2,
      "at": 26.171202289695103,
      "lat": 25.135104,
      "lon": 121.732242
    },
    {
      "city": "新北市",
      "town": "淡水區",
      "name": "淡水",
      "temp": 27.7,
      "at": 27.546209423765394,
      "lat": 25.166664,
      "lon": 121.440672
    },
    {
      "city": "新北市",
      "town": "新店區",
      "name": "新北",
      "temp": 26.6,
      "at": 28.729521441557594,
      "lat": 24.96099,
      "lon": 121.516977
    },
    {
      "city": "臺北市",
      "town": "北投區",
      "name": "陽明山",
      "temp": 21.1,
      "at": 23.285006138586336,
      "lat": 25.163858,
      "lon": 121.536313
    },
    {
      "city": "臺北市",
      "town": "北投區",
      "name": "鞍部",
      "temp": 18.4,
      "at": 19.197399435379573,
      "lat": 25.184365,
      "lon": 121.521495
    },
    {
      "city": "新竹縣",
      "town": "竹北市",
      "name": "新竹",
      "temp": 31.5,
      "at": 34.27374880096553,
      "lat": 24.830335,
      "lon": 121.006343
    },
    {
      "city": "臺中市",
      "town": "北區",
      "name": "臺中",
      "temp": 30.7,
      "at": 34.30498699615143,
      "lat": 24.147494,
      "lon": 120.675919
    },
    {
      "city": "臺中市",
      "town": "梧棲區",
      "name": "梧棲",
      "temp": 26.2,
      "at": 28.25280921220248,
      "lat": 24.257753,
      "lon": 120.515211
    },
    {
      "city": "澎湖縣",
      "town": "馬公市",
      "name": "澎湖",
      "temp": 27.3,
      "at": 30.259012832101746,
      "lat": 23.56722,
      "lon": 119.554987
    },
    {
      "city": "南投縣",
      "town": "魚池鄉",
      "name": "日月潭",
      "temp": 24.6,
      "at": 27.787403119884402,
      "lat": 23.883099,
      "lon": 120.899911
    },
    {
      "city": "嘉義縣",
      "town": "阿里山鄉",
      "name": "阿里山",
      "temp": 13.8,
      "at": 14.57903138041154,
      "lat": 23.509984,
      "lon": 120.805129
    },
    {
      "city": "嘉義市",
      "town": "西區",
      "name": "嘉義",
      "temp": 30.1,
      "at": 32.84233570027476,
      "lat": 23.497684,
      "lon": 120.424796
    },
    {
      "city": "臺南市",
      "town": "中西區",
      "name": "臺南",
      "temp": 32.8,
      "at": 34.317655626855064,
      "lat": 22.995039,
      "lon": 120.196846
    },
    {
      "city": "高雄市",
      "town": "楠梓區",
      "name": "高雄",
      "temp": 33.1,
      "at": 35.08895507802679,
      "lat": 22.732201,
      "lon": 120.304459
    },
    {
      "city": "屏東縣",
      "town": "恆春鎮",
      "name": "恆春",
      "temp": 31.1,
      "at": 32.996533507982896,
      "lat": 22.0057,
      "lon": 120.738326
    },
    {
      "city": "宜蘭縣",
      "town": "宜蘭市",
      "name": "宜蘭",
      "temp": 22.7,
      "at": 25.73557103215078,
      "lat": 24.765773,
      "lon": 121.748322
    },
    {
      "city": "花蓮縣",
      "town": "花蓮市",
      "name": "花蓮",
      "temp": 24.1,
      "at": 28.153399380055724,
      "lat": 23.976933,
      "lon": 121.605126
    },
    {
      "city": "臺東縣",
      "town": "成功鎮",
      "name": "成功",
      "temp": 24.6,
      "at": 27.499870826512538,
      "lat": 23.099296,
      "lon": 121.36534
    },
    {
      "city": "臺東縣",
      "town": "臺東市",
      "name": "臺東",
      "temp": 27.8,
      "at": 30.463001065577956,
      "lat": 22.754017,
      "lon": 121.146522
    },
    {
      "city": "臺東縣",
      "town": "大武鄉",
      "name": "大武",
      "temp": 28.5,
      "at": 32.407681454698114,
      "lat": 22.357523,
      "lon": 120.895703
    },
    {
      "city": "臺東縣",
      "town": "蘭嶼鄉",
      "name": "蘭嶼",
      "temp": 25.7,
      "at": 27.526525492009316,
      "lat": 22.038737,
      "lon": 121.55041
    },
    {
      "city": "基隆市",
      "town": "中正區",
      "name": "彭佳嶼",
      "temp": 23.5,
      "at": 22.692817083905318,
      "lat": 25.629774,
      "lon": 122.071474
    },
    {
      "city": "澎湖縣",
      "town": "望安鄉",
      "name": "東吉島",
      "temp": 28.3,
      "at": 28.428583270573327,
      "lat": 23.258999,
      "lon": 119.659533
    },
    {
      "city": "高雄市",
      "town": "旗津區",
      "name": "東沙島",
      "temp": 29.0,
      "at": 34.395273553383475,
      "lat": 20.70252,
      "lon": 116.722116
    },
    {
      "city": "臺南市",
      "town": "永康區",
      "name": "永康",
      "temp": 33.0,
      "at": 34.559067697302424,
      "lat": 23.040146,
      "lon": 120.228623
    },
    {
      "city": "金門縣",
      "town": "金湖鎮",
      "name": "金門(東)",
      "temp": 24.1,
      "at": 26.494445754576752,
      "lat": 24.450074,
      "lon": 118.443627
    },
    {
      "city": "臺北市",
      "town": "中正區",
      "name": "臺北",
      "temp": 27.0,
      "at": 28.150832076773327,
      "lat": 25.039439,
      "lon": 121.506628
    },
    {
      "city": "彰化縣",
      "town": "彰化市",
      "name": "彰師大",
      "temp": 29.1,
      "at": 32.36346782592943,
      "lat": 24.08314,
      "lon": 120.548508
    },
    {
      "city": "金門縣",
      "town": "金城鎮",
      "name": "金門",
      "temp": 23.1,
      "at": 23.83178886179948,
      "lat": 24.408942,
      "lon": 118.281127
    },
    {
      "city": "連江縣",
      "town": "南竿鄉",
      "name": "馬祖",
      "temp": 19.7,
      "at": 18.769360427155434,
      "lat": 26.171145,
      "lon": 119.914855
    },
    {
      "city": "雲林縣",
      "town": "麥寮鄉",
      "name": "麥寮",
      "temp": 28.0,
      "at": 29.389444401965108,
      "lat": 23.800517,
      "lon": 120.209572
    },
    {
      "city": "桃園市",
      "town": "新屋區",
      "name": "新屋",
      "temp": 29.9,
      "at": 31.628766377476104,
      "lat": 25.008484,
      "lon": 121.039271
    },
    {
      "city": "雲林縣",
      "town": "古坑鄉",
      "name": "古坑(花卉中心)",
      "temp": 30.6,
      "at": 34.73146395080693,
      "lat": 23.6353,
      "lon": 120.54428
    },
    {
      "city": "臺北市",
      "town": "大安區",
      "name": "大安森林",
      "temp": 27.4,
      "at": 30.694104307112482,
      "lat": 25.031331,
      "lon": 121.528056
    },
    {
      "city": "南投縣",
      "town": "竹山鎮",
      "name": "消防署訓練中心",
      "temp": 32.0,
      "at": 35.376757790928146,
      "lat": 23.82313,
      "lon": 120.7148
    },
    {
      "city": "彰化縣",
      "town": "田中鎮",
      "name": "田中",
      "temp": 31.3,
      "at": 34.227204917944135,
      "lat": 23.875561,
      "lon": 120.573149
    },
    {
      "city": "桃園市",
      "town": "復興區",
      "name": "拉拉山",
      "temp": 17.3,
      "at": 17.61172182955319,
      "lat": 24.7011,
      "lon": 121.418933
    },
    {
      "city": "連江縣",
      "town": "東引鄉",
      "name": "東引",
      "temp": 20.6,
      "at": 19.43714589352674,
      "lat": 26.360539,
      "lon": 120.475308
    },
    {
      "city": "高雄市",
      "town": "旗津區",
      "name": "高雄燈塔",
      "temp": 32.7,
      "at": 38.38409218194795,
      "lat": 22.616364,
      "lon": 120.256631
    },
    {
      "city": "臺中市",
      "town": "和平區",
      "name": "武陵",
      "temp": 19.3,
      "at": 19.640963286691658,
      "lat": 24.354609,
      "lon": 121.300112
    },
    {
      "city": "苗栗縣",
      "town": "造橋鄉",
      "name": "後龍",
      "temp": 28.8,
      "at": 32.17802350622762,
      "lat": 24.650318,
      "lon": 120.823641
    },
    {
      "city": "雲林縣",
      "town": "古坑鄉",
      "name": "古坑",
      "temp": 30.0,
      "at": 33.94969139328845,
      "lat": 23.635298,
      "lon": 120.543786
    },
    {
      "city": "桃園市",
      "town": "中壢區",
      "name": "中央大學",
      "temp": 28.7,
      "at": 29.378662611991736,
      "lat": 24.969417,
      "lon": 121.176946
    },
    {
      "city": "臺北市",
      "town": "士林區",
      "name": "文化大學",
      "temp": 23.9,
      "at": 22.894479892660563,
      "lat": 25.137855,
      "lon": 121.531657
    },
    {
      "city": "臺北市",
      "town": "大安區",
      "name": "臺灣大學",
      "temp": 27.3,
      "at": 29.679210265681398,
      "lat": 25.01606,
      "lon": 121.531193
    },
    {
      "city": "臺東縣",
      "town": "卑南鄉",
      "name": "東改班鳩分場",
      "temp": 25.3,
      "at": 29.268347869790475,
      "lat": 22.831307,
      "lon": 121.069619
    },
    {
      "city": "南投縣",
      "town": "鹿谷鄉",
      "name": "臺大溪頭",
      "temp": 23.2,
      "at": 24.980032692310342,
      "lat": 23.672071,
      "lon": 120.790065
    },
    {
      "city": "彰化縣",
      "town": "大村鄉",
      "name": "臺中農改",
      "temp": 31.0,
      "at": 33.344592448219714,
      "lat": 24.004779,
      "lon": 120.526236
    },
    {
      "city": "雲林縣",
      "town": "斗南鎮",
      "name": "南改斗南分場",
      "temp": 31.2,
      "at": 35.48475845963017,
      "lat": 23.636304,
      "lon": 120.469202
    },
    {
      "city": "臺南市",
      "town": "新化區",
      "name": "臺南農改",
      "temp": 33.3,
      "at": 37.7098640918513,
      "lat": 23.062242,
      "lon": 120.334096
    },
    {
      "city": "高雄市",
      "town": "旗山區",
      "name": "高改旗南分場",
      "temp": 33.9,
      "at": 36.36468269469813,
      "lat": 22.859612,
      "lon": 120.508583
    },
    {
      "city": "屏東縣",
      "town": "長治鄉",
      "name": "高雄農改",
      "temp": 34.0,
      "at": 37.20521366941009,
      "lat": 22.711084,
      "lon": 120.517814
    },
    {
      "city": "苗栗縣",
      "town": "西湖鄉",
      "name": "畜試北區分所",
      "temp": 29.5,
      "at": 33.21561638334438,
      "lat": 24.529569,
      "lon": 120.762788
    },
    {
      "city": "桃園市",
      "town": "新屋區",
      "name": "桃園農改",
      "temp": 30.8,
      "at": 33.342500129591556,
      "lat": 24.952721,
      "lon": 121.022375
    },
    {
      "city": "新竹縣",
      "town": "五峰鄉",
      "name": "桃改五峰分場",
      "temp": 22.6,
      "at": 26.33103434407835,
      "lat": 24.613978,
      "lon": 121.148983
    },
    {
      "city": "桃園市",
      "town": "楊梅區",
      "name": "茶改場",
      "temp": 28.9,
      "at": 32.49752535943057,
      "lat": 24.910258,
      "lon": 121.17713
    },
    {
      "city": "桃園市",
      "town": "中壢區",
      "name": "農工中心",
      "temp": 28.9,
      "at": 31.009508992514377,
      "lat": 24.987706,
      "lon": 121.231626
    },
    {
      "city": "新北市",
      "town": "石碇區",
      "name": "茶改北部分場",
      "temp": 22.6,
      "at": 25.36960018425483,
      "lat": 24.957588,
      "lon": 121.623022
    },
    {
      "city": "宜蘭縣",
      "town": "三星鄉",
      "name": "花改蘭陽分場",
      "temp": 22.4,
      "at": 25.825983398994588,
      "lat": 24.688121,
      "lon": 121.708402
    },
    {
      "city": "苗栗縣",
      "town": "公館鄉",
      "name": "苗栗農改",
      "temp": 30.1,
      "at": 32.84303369090834,
      "lat": 24.497488,
      "lon": 120.82093
    },
    {
      "city": "苗栗縣",
      "town": "大湖鄉",
      "name": "苗改生物防治研究中心",
      "temp": 30.6,
      "at": 33.84730274613921,
      "lat": 24.42463,
      "lon": 120.863657
    },
    {
      "city": "臺中市",
      "town": "新社區",
      "name": "種苗繁殖",
      "temp": 28.4,
      "at": 30.34262772455873,
      "lat": 24.227737,
      "lon": 120.792753
    },
    {
      "city": "南投縣",
      "town": "鹿谷鄉",
      "name": "茶改南部分場",
      "temp": 28.0,
      "at": 29.352748506711137,
      "lat": 23.76429,
      "lon": 120.732364
    },
    {
      "city": "南投縣",
      "town": "魚池鄉",
      "name": "茶改中部分場",
      "temp": 24.9,
      "at": 26.892379081686922,
      "lat": 23.877382,
      "lon": 120.905442
    },
    {
      "city": "嘉義市",
      "town": "東區",
      "name": "農試嘉義分所",
      "temp": 31.0,
      "at": 33.74136282580873,
      "lat": 23.486776,
      "lon": 120.465684
    },
    {
      "city": "嘉義縣",
      "town": "義竹鄉",
      "name": "南改義竹分場",
      "temp": 31.8,
      "at": 34.38666871130943,
      "lat": 23.362432,
      "lon": 120.271244
    },
    {
      "city": "臺南市",
      "town": "新化區",
      "name": "畜試所",
      "temp": 32.4,
      "at": 34.46608027936251,
      "lat": 23.060713,
      "lon": 120.328308
    },
    {
      "city": "高雄市",
      "town": "鳳山區",
      "name": "農試鳳山分所",
      "temp": 33.4,
      "at": 35.19128766458655,
      "lat": 22.648354,
      "lon": 120.34801
    },
    {
      "city": "屏東縣",
      "town": "恆春鎮",
      "name": "畜試南區分所",
      "temp": 30.6,
      "at": 32.408215589406616,
      "lat": 21.947348,
      "lon": 120.794139
    },
    {
      "city": "花蓮縣",
      "town": "吉安鄉",
      "name": "花蓮農改",
      "temp": 23.5,
      "at": 27.60254745495886,
      "lat": 23.977028,
      "lon": 121.555752
    },
    {
      "city": "南投縣",
      "town": "魚池鄉",
      "name": "蓮華池",
      "temp": 28.5,
      "at": 32.43574013409583,
      "lat": 23.920106,
      "lon": 120.877136
    },
    {
      "city": "南投縣",
      "town": "魚池鄉",
      "name": "中改埔里分場",
      "temp": 28.1,
      "at": 32.2288749939011,
      "lat": 23.904982,
      "lon": 120.955222
    },
    {
      "city": "南投縣",
      "town": "信義鄉",
      "name": "臺大和社",
      "temp": 28.5,
      "at": 32.39972755993917,
      "lat": 23.592633,
      "lon": 120.880744
    },
    {
      "city": "南投縣",
      "town": "信義鄉",
      "name": "臺大內茅埔",
      "temp": 29.4,
      "at": 33.14452725134695,
      "lat": 23.691497,
      "lon": 120.842992
    },
    {
      "city": "嘉義縣",
      "town": "溪口鄉",
      "name": "農試溪口農場",
      "temp": 29.7,
      "at": 33.14304638378794,
      "lat": 23.587406,
      "lon": 120.399994
    },
    {
      "city": "雲林縣",
      "town": "四湖鄉",
      "name": "四湖植物園",
      "temp": 28.8,
      "at": 36.08181792859133,
      "lat": 23.678718,
      "lon": 120.155296
    },
    {
      "city": "臺中市",
      "town": "霧峰區",
      "name": "農業試驗所",
      "temp": 31.7,
      "at": 36.068469663798226,
      "lat": 24.033022,
      "lon": 120.679986
    },
    {
      "city": "嘉義縣",
      "town": "鹿草鄉",
      "name": "南改鹿草分場",
      "temp": 30.1,
      "at": 31.86128871432438,
      "lat": 23.418608,
      "lon": 120.274941
    },
    {
      "city": "臺南市",
      "town": "七股區",
      "name": "七股研究中心",
      "temp": 29.4,
      "at": 31.666864688130076,
      "lat": 23.083472,
      "lon": 120.054792
    },
    {
      "city": "南投縣",
      "town": "仁愛鄉",
      "name": "萬大發電廠",
      "temp": 27.0,
      "at": 28.75069339731111,
      "lat": 23.980611,
      "lon": 121.131497
    },
    {
      "city": "屏東縣",
      "town": "東港鎮",
      "name": "東港工作站",
      "temp": 30.4,
      "at": 33.50495987101108,
      "lat": 22.481778,
      "lon": 120.458017
    },
    {
      "city": "雲林縣",
      "town": "口湖鄉",
      "name": "口湖工作站",
      "temp": 28.9,
      "at": 32.03942715793344,
      "lat": 23.591722,
      "lon": 120.172281
    },
    {
      "city": "屏東縣",
      "town": "車城鄉",
      "name": "恆春工作站",
      "temp": 30.8,
      "at": 31.07214297644937,
      "lat": 22.081478,
      "lon": 120.706406
    },
    {
      "city": "雲林縣",
      "town": "二崙鄉",
      "name": "大庄合作社",
      "temp": 29.2,
      "at": 33.36245904074051,
      "lat": 23.80855,
      "lon": 120.359808
    },
    {
      "city": "雲林縣",
      "town": "麥寮鄉",
      "name": "麥寮合作社",
      "temp": 26.9,
      "at": 28.681193948933462,
      "lat": 23.755583,
      "lon": 120.286657
    },
    {
      "city": "臺東縣",
      "town": "太麻里鄉",
      "name": "太麻里(1)",
      "temp": 24.8,
      "at": 29.744074356651822,
      "lat": 22.600724,
      "lon": 120.971991
    },
    {
      "city": "臺東縣",
      "town": "太麻里鄉",
      "name": "太麻里(2)",
      "temp": 25.5,
      "at": 29.734861330203962,
      "lat": 22.599802,
      "lon": 120.9897
    },
    {
      "city": "新北市",
      "town": "樹林區",
      "name": "桃改樹林分場",
      "temp": 27.8,
      "at": 27.516663181821492,
      "lat": 24.946279,
      "lon": 121.378755
    },
    {
      "city": "南投縣",
      "town": "仁愛鄉",
      "name": "畢祿溪站",
      "temp": 16.7,
      "at": 17.770338739145807,
      "lat": 24.22873,
      "lon": 121.300362
    },
    {
      "city": "臺南市",
      "town": "後壁區",
      "name": "蘭花園區",
      "temp": 32.0,
      "at": 34.289465632095244,
      "lat": 23.342018,
      "lon": 120.371562
    },
    {
      "city": "宜蘭縣",
      "town": "五結鄉",
      "name": "畜試東區分所",
      "temp": 23.3,
      "at": 27.56963175393197,
      "lat": 24.670842,
      "lon": 121.824362
    },
    {
      "city": "雲林縣",
      "town": "虎尾鎮",
      "name": "雲林臺大",
      "temp": 29.5,
      "at": 33.04961422764117,
      "lat": 23.732381,
      "lon": 120.415777
    },
    {
      "city": "高雄市",
      "town": "六龜區",
      "name": "六龜林試",
      "temp": 31.7,
      "at": 34.68630442484236,
      "lat": 22.993482,
      "lon": 120.637645
    },
    {
      "city": "新竹縣",
      "town": "新埔鎮",
      "name": "桃改新埔分場",
      "temp": 30.8,
      "at": 32.886071545820926,
      "lat": 24.836,
      "lon": 121.058
    },
    {
      "city": "臺南市",
      "town": "七股區",
      "name": "水試所海水繁養殖中心",
      "temp": 28.7,
      "at": 30.928901786218667,
      "lat": 23.122553,
      "lon": 120.071594
    },
    {
      "city": "嘉義縣",
      "town": "布袋鎮",
      "name": "布袋國中",
      "temp": 29.8,
      "at": 31.479237528608046,
      "lat": 23.360676,
      "lon": 120.17216
    },
    {
      "city": "臺南市",
      "town": "六甲區",
      "name": "六官養殖協會",
      "temp": 31.2,
      "at": 32.66987416710321,
      "lat": 23.230568,
      "lon": 120.29153
    },
    {
      "city": "嘉義縣",
      "town": "梅山鄉",
      "name": "外寮",
      "temp": 24.6,
      "at": 26.712094656555884,
      "lat": 23.564411,
      "lon": 120.657572
    },
    {
      "city": "嘉義縣",
      "town": "梅山鄉",
      "name": "碧湖",
      "temp": 24.3,
      "at": 26.74715003186319,
      "lat": 23.570397,
      "lon": 120.616047
    },