{
  "meta": {
    "updated_at": "2026-07-18 06:12:50",
    "source": "CWA Auto Stations",
    "count": 846
  },
  "data": [
    {
      "city": "花蓮縣",
      "town": "秀林鄉",
      "name": "崇德",
      "temp": 27.7,
      "at": 33.176760646641746,
      "lat": 24.167948,
      "lon": 121.649251
    },
    {
      "city": "臺東縣",
      "town": "卑南鄉",
      "name": "富山",
      "temp": 25.9,
      "at": 30.464189227437828,
      "lat": 22.82419,
      "lon": 121.182756
    },
    {
      "city": "臺東縣",
      "town": "蘭嶼鄉",
      "name": "東清國小",
      "temp": 28.7,
      "at": 32.409415513890934,
      "lat": 22.058965,
      "lon": 121.556901
    },
    {
      "city": "臺東縣",
      "town": "綠島鄉",
      "name": "牛頭山",
      "temp": 27.6,
      "at": 33.06247604596976,
      "lat": 22.678485,
      "lon": 121.498883
    },
    {
      "city": "花蓮縣",
      "town": "萬榮鄉",
      "name": "西林林道12.5K",
      "temp": 22.3,
      "at": 25.962286903000184,
      "lat": 23.83143,
      "lon": 121.40419
    },
    {
      "city": "花蓮縣",
      "town": "萬榮鄉",
      "name": "光復林道16K",
      "temp": 23.9,
      "at": 28.236009732147807,
      "lat": 23.66881,
      "lon": 121.36136
    },
    {
      "city": "花蓮縣",
      "town": "萬榮鄉",
      "name": "虎頭山",
      "temp": 21.8,
      "at": 24.702276178310914,
      "lat": 23.53029,
      "lon": 121.331805
    },
    {
      "city": "花蓮縣",
      "town": "秀林鄉",
      "name": "新白楊",
      "temp": 18.2,
      "at": 19.49572009806742,
      "lat": 24.19999,
      "lon": 121.424797
    },
    {
      "city": "臺東縣",
      "town": "海端鄉",
      "name": "龍泉苗圃",
      "temp": 23.5,
      "at": 27.4839301123885,
      "lat": 23.1684,
      "lon": 121.17201
    },
    {
      "city": "花蓮縣",
      "town": "秀林鄉",
      "name": "綠水",
      "temp": 22.7,
      "at": 26.632422239144496,
      "lat": 24.180212,
      "lon": 121.499787
    },
    {
      "city": "臺東縣",
      "town": "長濱鄉",
      "name": "樟原南溪",
      "temp": 25.1,
      "at": 30.256391064892284,
      "lat": 23.40411,
      "lon": 121.41507
    },
    {
      "city": "嘉義縣",
      "town": "竹崎鄉",
      "name": "水社寮",
      "temp": 19.1,
      "at": 21.379076490600315,
      "lat": 23.50594,
      "lon": 120.65223
    },
    {
      "city": "南投縣",
      "town": "信義鄉",
      "name": "鹿林山",
      "temp": 10.8,
      "at": 8.583365629802577,
      "lat": 23.47046,
      "lon": 120.86517
    },
    {
      "city": "嘉義縣",
      "town": "竹崎鄉",
      "name": "交力坪",
      "temp": 23.0,
      "at": 25.791037337147973,
      "lat": 23.53344,
      "lon": 120.63544
    },
    {
      "city": "嘉義縣",
      "town": "阿里山鄉",
      "name": "二萬平",
      "temp": 14.4,
      "at": 14.304573016154059,
      "lat": 23.51016,
      "lon": 120.78199
    },
    {
      "city": "高雄市",
      "town": "桃源區",
      "name": "天池",
      "temp": 14.8,
      "at": 15.524113655093885,
      "lat": 23.27956,
      "lon": 120.90759
    },
    {
      "city": "南投縣",
      "town": "仁愛鄉",
      "name": "奧萬大",
      "temp": 18.6,
      "at": 20.60234127699813,
      "lat": 23.95473,
      "lon": 121.170332
    },
    {
      "city": "高雄市",
      "town": "桃源區",
      "name": "美瓏山",
      "temp": 19.2,
      "at": 21.148647531039416,
      "lat": 23.12148,
      "lon": 120.73922
    },
    {
      "city": "高雄市",
      "town": "甲仙區",
      "name": "五指寮林道3.5K",
      "temp": 23.2,
      "at": 26.12575164835468,
      "lat": 23.13855,
      "lon": 120.63219
    },
    {
      "city": "高雄市",
      "town": "甲仙區",
      "name": "西阿里關山",
      "temp": 20.2,
      "at": 22.878779752793847,
      "lat": 23.18479,
      "lon": 120.63334
    },
    {
      "city": "屏東縣",
      "town": "三地門鄉",
      "name": "上德文",
      "temp": 20.7,
      "at": 23.872653222179636,
      "lat": 22.76515,
      "lon": 120.696523
    },
    {
      "city": "高雄市",
      "town": "六龜區",
      "name": "花菓",
      "temp": 21.4,
      "at": 24.32004758439832,
      "lat": 23.03655,
      "lon": 120.67607
    },
    {
      "city": "新北市",
      "town": "八里區",
      "name": "硬漢嶺",
      "temp": 24.2,
      "at": 26.026723862062273,
      "lat": 25.137872,
      "lon": 121.41814
    },
    {
      "city": "花蓮縣",
      "town": "秀林鄉",
      "name": "秀林",
      "temp": 24.4,
      "at": 27.732101942300005,
      "lat": 24.304668,
      "lon": 121.722972
    },
    {
      "city": "花蓮縣",
      "town": "秀林鄉",
      "name": "和仁",
      "temp": 27.7,
      "at": 33.14112510705265,
      "lat": 24.243199,
      "lon": 121.704304
    },
    {
      "city": "花蓮縣",
      "town": "秀林鄉",
      "name": "立霧山",
      "temp": 20.4,
      "at": 22.344417273048872,
      "lat": 24.185061,
      "lon": 121.633735
    },
    {
      "city": "臺中市",
      "town": "和平區",
      "name": "鞍馬山工作站",
      "temp": 14.3,
      "at": 14.925889985068139,
      "lat": 24.2681,
      "lon": 120.9926
    },
    {
      "city": "臺中市",
      "town": "和平區",
      "name": "大雪山埡口",
      "temp": 13.8,
      "at": 14.369031380411538,
      "lat": 24.2744,
      "lon": 121.0224
    },
    {
      "city": "臺中市",
      "town": "和平區",
      "name": "小雪山天池",
      "temp": 12.3,
      "at": 11.607993052593667,
      "lat": 24.2825,
      "lon": 121.0182
    },
    {
      "city": "臺中市",
      "town": "和平區",
      "name": "小雪山林道",
      "temp": 9.9,
      "at": 7.707233642118403,
      "lat": 24.2968,
      "lon": 121.0283
    },
    {
      "city": "臺中市",
      "town": "和平區",
      "name": "大雪山",
      "temp": 15.2,
      "at": 15.549518807703855,
      "lat": 24.2562,
      "lon": 120.9991
    },
    {
      "city": "臺中市",
      "town": "和平區",
      "name": "出雲山苗圃",
      "temp": 19.0,
      "at": 20.60005256498731,
      "lat": 24.2328,
      "lon": 120.8965
    },
    {
      "city": "臺中市",
      "town": "和平區",
      "name": "雪山橋",
      "temp": 18.0,
      "at": 20.115377594158723,
      "lat": 24.2336,
      "lon": 120.9704
    },
    {
      "city": "臺中市",
      "town": "和平區",
      "name": "八仙山苗圃",
      "temp": 19.8,
      "at": 22.577679870888716,
      "lat": 24.1944,
      "lon": 120.9932
    },
    {
      "city": "臺中市",
      "town": "和平區",
      "name": "中橫21.6k",
      "temp": 18.4,
      "at": 20.25000748054921,
      "lat": 24.2516,
      "lon": 121.1373
    },
    {
      "city": "苗栗縣",
      "town": "泰安鄉",
      "name": "雪見",
      "temp": 17.5,
      "at": 17.544327101178826,
      "lat": 24.4277,
      "lon": 121.0052
    },
    {
      "city": "苗栗縣",
      "town": "泰安鄉",
      "name": "松安",
      "temp": 18.9,
      "at": 21.09337604515046,
      "lat": 24.3996,
      "lon": 120.9778
    },
    {
      "city": "苗栗縣",
      "town": "泰安鄉",
      "name": "觀霧分站",
      "temp": 15.1,
      "at": 15.41675221902879,
      "lat": 24.5075,
      "lon": 121.1057
    },
    {
      "city": "新竹縣",
      "town": "五峰鄉",
      "name": "樂山林道6k",
      "temp": 14.3,
      "at": 15.560608707836998,
      "lat": 24.5017,
      "lon": 121.0795
    },
    {
      "city": "新竹縣",
      "town": "五峰鄉",
      "name": "大坪苗圃",
      "temp": 22.1,
      "at": 23.1952668396662,
      "lat": 24.5379,
      "lon": 121.1026
    },
    {
      "city": "桃園市",
      "town": "復興區",
      "name": "東眼山",
      "temp": 20.6,
      "at": 23.55727979046917,
      "lat": 24.8301,
      "lon": 121.4006
    },
    {
      "city": "桃園市",
      "town": "復興區",
      "name": "四稜",
      "temp": 19.7,
      "at": 22.504967665365093,
      "lat": 24.6796,
      "lon": 121.4211
    },
    {
      "city": "宜蘭縣",
      "town": "大同鄉",
      "name": "明池",
      "temp": 18.6,
      "at": 20.67344319861914,
      "lat": 24.6506,
      "lon": 121.4673
    },
    {
      "city": "宜蘭縣",
      "town": "大同鄉",
      "name": "太平山中間站",
      "temp": 22.0,
      "at": 26.055977160308444,
      "lat": 24.5437,
      "lon": 121.5052
    },
    {
      "city": "宜蘭縣",
      "town": "大同鄉",
      "name": "翠峰林道6K",
      "temp": 15.4,
      "at": 16.116079064628146,
      "lat": 24.4995,
      "lon": 121.5604
    },
    {
      "city": "宜蘭縣",
      "town": "大同鄉",
      "name": "太平山莊",
      "temp": 17.7,
      "at": 19.06117340710475,
      "lat": 24.4959,
      "lon": 121.5281
    },
    {
      "city": "高雄市",
      "town": "大樹區",
      "name": "大樹",
      "temp": 25.7,
      "at": 30.357882354734492,
      "lat": 22.686423,
      "lon": 120.424748
    },
    {
      "city": "新北市",
      "town": "林口區",
      "name": "太平里",
      "temp": 28.4,
      "at": 32.25793345441166,
      "lat": 25.136709,
      "lon": 121.356668
    },
    {
      "city": "臺東縣",
      "town": "太麻里鄉",
      "name": "美和",
      "temp": 27.3,
      "at": 32.36710081330555,
      "lat": 22.683881,
      "lon": 121.052177
    },
    {
      "city": "臺東縣",
      "town": "臺東市",
      "name": "富岡",
      "temp": 28.2,
      "at": 34.02462512400054,
      "lat": 22.794274,
      "lon": 121.184602
    },
    {
      "city": "臺東縣",
      "town": "東河鄉",
      "name": "新蘭",
      "temp": 27.5,
      "at": 31.85045711467881,
      "lat": 22.871021,
      "lon": 121.215155
    },
    {
      "city": "臺東縣",
      "town": "東河鄉",
      "name": "興隆",
      "temp": 28.4,
      "at": 33.86147060764694,
      "lat": 22.915469,
      "lon": 121.249394
    },
    {
      "city": "臺東縣",
      "town": "成功鎮",
      "name": "叭嗡嗡",
      "temp": 28.5,
      "at": 33.899664689155905,
      "lat": 23.048871,
      "lon": 121.335138
    },
    {
      "city": "臺東縣",
      "town": "成功鎮",
      "name": "白守蓮",
      "temp": 27.5,
      "at": 32.3019876745441,
      "lat": 23.12858,
      "lon": 121.393824
    },
    {
      "city": "臺東縣",
      "town": "成功鎮",
      "name": "小港漁港",
      "temp": 27.8,
      "at": 33.37037777198662,
      "lat": 23.160368,
      "lon": 121.392338
    },
    {
      "city": "臺東縣",
      "town": "長濱鄉",
      "name": "長濱漁港",
      "temp": 28.3,
      "at": 33.20466446393606,
      "lat": 23.315454,
      "lon": 121.451891
    },
    {
      "city": "花蓮縣",
      "town": "花蓮市",
      "name": "花蓮漁港",
      "temp": 27.5,
      "at": 30.921222394611455,
      "lat": 23.997128,
      "lon": 121.63018
    },
    {
      "city": "花蓮縣",
      "town": "秀林鄉",
      "name": "加灣",
      "temp": 27.3,
      "at": 33.0258261341081,
      "lat": 24.083828,
      "lon": 121.600788
    },
    {
      "city": "花蓮縣",
      "town": "壽豐鄉",
      "name": "鹽寮",
      "temp": 28.6,
      "at": 35.274089723053315,
      "lat": 23.847418,
      "lon": 121.584524
    },
    {
      "city": "臺中市",
      "town": "大甲區",
      "name": "大甲溪埔",
      "temp": 28.1,
      "at": 31.10417307035504,
      "lat": 24.372375,
      "lon": 120.611895
    },
    {
      "city": "彰化縣",
      "town": "和美鎮",
      "name": "和美",
      "temp": 27.2,
      "at": 30.426001546411754,
      "lat": 24.106919,
      "lon": 120.483978
    },
    {
      "city": "屏東縣",
      "town": "滿州鄉",
      "name": "鼻頭",
      "temp": 28.6,
      "at": 33.720393906204905,
      "lat": 22.106107,
      "lon": 120.889862
    },
    {
      "city": "屏東縣",
      "town": "滿州鄉",
      "name": "興海",
      "temp": 27.9,
      "at": 32.797158897732245,
      "lat": 21.976985,
      "lon": 120.835907
    },
    {
      "city": "屏東縣",
      "town": "恆春鎮",
      "name": "後壁湖",
      "temp": 28.1,
      "at": 33.95066345262469,
      "lat": 21.94747,
      "lon": 120.737695
    },
    {
      "city": "屏東縣",
      "town": "恆春鎮",
      "name": "山海",
      "temp": 28.6,
      "at": 29.97661139631395,
      "lat": 21.989579,
      "lon": 120.701107
    },
    {
      "city": "屏東縣",
      "town": "車城鄉",
      "name": "竹坑",
      "temp": 27.4,
      "at": 31.744974917712106,
      "lat": 22.140248,
      "lon": 120.694128
    },
    {
      "city": "屏東縣",
      "town": "枋山鄉",
      "name": "加祿堂",
      "temp": 26.7,
      "at": 30.408207313755604,
      "lat": 22.338096,
      "lon": 120.613688
    },
    {
      "city": "臺南市",
      "town": "將軍區",
      "name": "鯤鯓國小",
      "temp": 27.8,
      "at": 33.44196224292574,
      "lat": 23.189624,
      "lon": 120.080813
    },
    {
      "city": "屏東縣",
      "town": "枋寮鄉",
      "name": "下寮",
      "temp": 26.4,
      "at": 31.960246612993167,
      "lat": 22.394648,
      "lon": 120.546743
    },
    {
      "city": "屏東縣",
      "town": "佳冬鄉",
      "name": "塭仔",
      "temp": 25.5,
      "at": 31.31695363117828,
      "lat": 22.418718,
      "lon": 120.511622
    },
    {
      "city": "高雄市",
      "town": "林園區",
      "name": "汕尾",
      "temp": 26.1,
      "at": 31.07418227192145,
      "lat": 22.479984,
      "lon": 120.407094
    },
    {
      "city": "高雄市",
      "town": "小港區",
      "name": "鳳鼻頭",
      "temp": 25.8,
      "at": 30.345173570940396,
      "lat": 22.510051,
      "lon": 120.351098
    },
    {
      "city": "高雄市",
      "town": "梓官區",
      "name": "蚵仔寮",
      "temp": 26.5,
      "at": 31.472589377894053,
      "lat": 22.727414,
      "lon": 120.244618
    },
    {
      "city": "高雄市",
      "town": "彌陀區",
      "name": "南寮",
      "temp": 25.8,
      "at": 29.96446119259908,
      "lat": 22.763381,
      "lon": 120.225866
    },
    {
      "city": "高雄市",
      "town": "彌陀區",
      "name": "文安",
      "temp": 27.2,
      "at": 32.64133509782881,
      "lat": 22.804288,
      "lon": 120.208308
    },
    {
      "city": "高雄市",
      "town": "茄萣區",
      "name": "興達",
      "temp": 26.5,
      "at": 32.558161622343775,
      "lat": 22.879517,
      "lon": 120.204681
    },
    {
      "city": "臺南市",
      "town": "安南區",
      "name": "城西",
      "temp": 28.3,
      "at": 33.9907456572988,
      "lat": 23.058558,
      "lon": 120.087492
    },
    {
      "city": "臺南市",
      "town": "安南區",
      "name": "四草",
      "temp": 28.6,
      "at": 33.10165474283522,
      "lat": 23.025295,
      "lon": 120.103558
    },
    {
      "city": "臺南市",
      "town": "北門區",
      "name": "蘆竹溝",
      "temp": 27.9,
      "at": 32.89993162955031,
      "lat": 23.236154,
      "lon": 120.088035
    },
    {
      "city": "臺南市",
      "town": "北門區",
      "name": "蚵寮",
      "temp": 28.0,
      "at": 32.7484575548294,
      "lat": 23.302745,
      "lon": 120.102281
    },
    {
      "city": "高雄市",
      "town": "前鎮區",
      "name": "前鎮",
      "temp": 26.3,
      "at": 30.94530472917952,
      "lat": 22.573925,
      "lon": 120.303144
    },
    {
      "city": "新北市",
      "town": "貢寮區",
      "name": "澳底",
      "temp": 26.8,
      "at": 31.04303082208282,
      "lat": 25.056993,
      "lon": 121.917036
    },
    {
      "city": "澎湖縣",
      "town": "七美鄉",
      "name": "七美",
      "temp": 27.0,
      "at": 31.71482144267717,
      "lat": 23.221053,
      "lon": 119.436809
    },
    {
      "city": "澎湖縣",
      "town": "望安鄉",
      "name": "望安",
      "temp": 26.5,
      "at": 30.57205468345621,
      "lat": 23.382282,
      "lon": 119.485981
    },
    {
      "city": "澎湖縣",
      "town": "湖西鄉",
      "name": "湖西",
      "temp": 27.2,
      "at": 31.597335157306176,
      "lat": 23.598035,
      "lon": 119.664639
    },
    {
      "city": "連江縣",
      "town": "北竿鄉",
      "name": "北竿",
      "temp": 26.6,
      "at": 28.56450705806938,
      "lat": 26.222038,
      "lon": 119.966574
    },
    {
      "city": "金門縣",
      "town": "烈嶼鄉",
      "name": "九宮",
      "temp": 26.8,
      "at": 32.97445688978375,
      "lat": 24.425386,
      "lon": 118.232031
    },
    {
      "city": "屏東縣",
      "town": "新埤鄉",
      "name": "萬隆國小",
      "temp": 24.7,
      "at": 28.621667377233656,
      "lat": 22.509453,
      "lon": 120.579772
    },
    {
      "city": "苗栗縣",
      "town": "通霄鎮",
      "name": "白沙屯",
      "temp": 28.2,
      "at": 30.69410834512245,
      "lat": 24.551198,
      "lon": 120.688617
    },
    {
      "city": "屏東縣",
      "town": "內埔鄉",
      "name": "內埔",
      "temp": 24.8,
      "at": 28.986132818336976,
      "lat": 22.610267,
      "lon": 120.562662
    },
    {
      "city": "臺北市",
      "town": "士林區",
      "name": "科教館",
      "temp": 29.9,
      "at": 35.05751662943727,
      "lat": 25.098133,
      "lon": 121.508275
    },
    {
      "city": "宜蘭縣",
      "town": "頭城鎮",
      "name": "大溪漁港",
      "temp": 29.2,
      "at": 35.44901641842208,
      "lat": 24.943603,
      "lon": 121.894736
    },
    {
      "city": "宜蘭縣",
      "town": "頭城鎮",
      "name": "石城",
      "temp": 28.5,
      "at": 34.9716479236137,
      "lat": 24.982247,
      "lon": 121.942992
    },
    {
      "city": "基隆市",
      "town": "安樂區",
      "name": "大武崙",
      "temp": 29.6,
      "at": 34.72672842632553,
      "lat": 25.168464,
      "lon": 121.698758
    },
    {
      "city": "新北市",
      "town": "萬里區",
      "name": "野柳",
      "temp": 29.4,
      "at": 28.97041477241924,
      "lat": 25.208817,
      "lon": 121.681783
    },
    {
      "city": "新北市",
      "town": "淡水區",
      "name": "淡水觀海",
      "temp": 29.1,
      "at": 32.89090498008986,
      "lat": 25.186364,
      "lon": 121.400381
    },
    {
      "city": "桃園市",
      "town": "大園區",
      "name": "竹圍",
      "temp": 28.8,
      "at": 30.71778635482989,
      "lat": 25.114458,
      "lon": 121.231594
    },
    {
      "city": "桃園市",
      "town": "新屋區",
      "name": "中大臨海站",
      "temp": 28.3,
      "at": 30.781623867254694,
      "lat": 24.967883,
      "lon": 121.000364
    },
    {
      "city": "新北市",
      "town": "石門區",
      "name": "石門",
      "temp": 28.0,
      "at": 29.833435633388923,
      "lat": 25.275453,
      "lon": 121.592956
    },
    {
      "city": "桃園市",
      "town": "觀音區",
      "name": "觀音工業區",
      "temp": 29.0,
      "at": 31.85477185072925,
      "lat": 25.066525,
      "lon": 121.106631
    },
    {
      "city": "新竹市",
      "town": "北區",
      "name": "海天一線",
      "temp": 28.6,
      "at": 26.14913306957459,
      "lat": 24.833742,
      "lon": 120.906231
    },
    {
      "city": "新竹市",
      "town": "香山區",
      "name": "香山濕地",
      "temp": 28.4,
      "at": 26.912263953088114,
      "lat": 24.785386,
      "lon": 120.906781
    },
    {
      "city": "新北市",
      "town": "瑞芳區",
      "name": "水湳洞",
      "temp": 29.9,
      "at": 33.866266881398445,
      "lat": 25.125492,
      "lon": 121.854006
    },
    {
      "city": "基隆市",
      "town": "中正區",
      "name": "八斗子",
      "temp": 29.5,
      "at": 33.74521444321149,
      "lat": 25.146547,
      "lon": 121.783436
    },
    {
      "city": "新竹縣",
      "town": "新豐鄉",
      "name": "外湖",
      "temp": 28.8,
      "at": 26.51944641461401,
      "lat": 24.919492,
      "lon": 120.960497
    },
    {
      "city": "苗栗縣",
      "town": "後龍鎮",
      "name": "海埔",
      "temp": 28.5,
      "at": 30.401689837469213,
      "lat": 24.650519,
      "lon": 120.764242
    },
    {
      "city": "苗栗縣",
      "town": "通霄鎮",
      "name": "通霄漁港",
      "temp": 27.8,
      "at": 30.811416594638835,
      "lat": 24.500339,
      "lon": 120.665694
    },
    {
      "city": "臺中市",
      "town": "大甲區",
      "name": "松柏",
      "temp": 27.6,
      "at": 30.17186866104113,
      "lat": 24.430864,
      "lon": 120.609306
    },
    {
      "city": "臺中市",
      "town": "大安區",
      "name": "溫寮",
      "temp": 27.7,
      "at": 29.609302804998116,
      "lat": 24.373925,
      "lon": 120.574953
    },
    {
      "city": "苗栗縣",
      "town": "竹南鎮",
      "name": "龍鳳",
      "temp": 28.5,
      "at": 32.407681454698114,
      "lat": 24.701789,
      "lon": 120.850928
    },
    {
      "city": "宜蘭縣",
      "town": "礁溪鄉",
      "name": "淡江大學蘭陽校園",
      "temp": 26.5,
      "at": 32.38258937789405,
      "lat": 24.825033,
      "lon": 121.722172
    },
    {
      "city": "屏東縣",
      "town": "林邊鄉",
      "name": "林邊",
      "temp": 24.4,
      "at": 30.036135923066674,
      "lat": 22.465232,
      "lon": 120.52585
    },
    {
      "city": "新北市",
      "town": "淡水區",
      "name": "六塊厝",
      "temp": 28.4,
      "at": 31.099702031029295,
      "lat": 25.241776,
      "lon": 121.439863
    },
    {
      "city": "新北市",
      "town": "三芝區",
      "name": "田寮",
      "temp": 28.8,
      "at": 31.0270749006367,
      "lat": 25.271575,
      "lon": 121.480355
    },
    {
      "city": "桃園市",
      "town": "觀音區",
      "name": "新興坑尾",
      "temp": 28.0,
      "at": 28.44077481243972,
      "lat": 25.007827,
      "lon": 121.088851
    },
    {
      "city": "宜蘭縣",
      "town": "蘇澳鎮",
      "name": "蘇澳",
      "temp": 27.4,
      "at": 33.07541022301191,
      "lat": 24.59875,
      "lon": 121.848895
    },
    {
      "city": "宜蘭縣",
      "town": "壯圍鄉",
      "name": "壯圍",
      "temp": 28.1,
      "at": 34.435126915007615,
      "lat": 24.737723,
      "lon": 121.808046
    },
    {
      "city": "宜蘭縣",
      "town": "頭城鎮",
      "name": "北關",
      "temp": 27.8,
      "at": 34.37065059613007,
      "lat": 24.90902,
      "lon": 121.865211
    },
    {
      "city": "彰化縣",
      "town": "伸港鄉",
      "name": "防潮門",
      "temp": 27.6,
      "at": 31.427756485306453,
      "lat": 24.185242,
      "lon": 120.478972
    },
    {
      "city": "臺中市",
      "town": "龍井區",
      "name": "臺中電廠",
      "temp": 27.2,
      "at": 31.60066829238159,
      "lat": 24.216388,
      "lon": 120.482584
    },
    {
      "city": "彰化縣",
      "town": "福興鄉",
      "name": "福寶",
      "temp": 26.5,
      "at": 30.676482439006485,
      "lat": 24.046048,
      "lon": 120.373213
    },
    {
      "city": "彰化縣",
      "town": "大城鄉",
      "name": "三豐",
      "temp": 26.4,
      "at": 29.66057172589339,
      "lat": 23.883719,
      "lon": 120.281409
    },
    {
      "city": "雲林縣",
      "town": "口湖鄉",
      "name": "箔子寮",
      "temp": 28.4,
      "at": 32.84323918426459,
      "lat": 23.621487,
      "lon": 120.13192
    },
    {
      "city": "嘉義縣",
      "town": "布袋鎮",
      "name": "好美里",
      "temp": 27.6,
      "at": 32.1051162656381,
      "lat": 23.338176,
      "lon": 120.129936
    },
    {
      "city": "新北市",
      "town": "板橋區",
      "name": "板橋",
      "temp": 29.1,
      "at": 34.415930118425685,
      "lat": 25.012431,
      "lon": 121.440638
    },
    {
      "city": "連江縣",
      "town": "莒光鄉",
      "name": "東莒",
      "temp": 26.3,
      "at": 27.977865010192918,
      "lat": 25.966883,
      "lon": 119.9724
    },
    {
      "city": "澎湖縣",
      "town": "西嶼鄉",
      "name": "西嶼",
      "temp": 26.2,
      "at": 27.916607216866275,
      "lat": 23.564311,
      "lon": 119.460328
    },
    {
      "city": "澎湖縣",
      "town": "望安鄉",
      "name": "花嶼",
      "temp": 26.6,
      "at": 33.48363624211388,
      "lat": 23.401778,
      "lon": 119.314667
    },
    {
      "city": "金門縣",
      "town": "金沙鎮",
      "name": "金沙",
      "temp": 26.9,
      "at": 33.39359291582454,
      "lat": 24.489931,
      "lon": 118.400617
    },
    {
      "city": "金門縣",
      "town": "金寧鄉",
      "name": "金寧",
      "temp": 27.3,
      "at": 31.61327677571318,
      "lat": 24.459339,
      "lon": 118.320831
    },
    {
      "city": "金門縣",
      "town": "烏坵鄉",
      "name": "烏坵",
      "temp": 26.0,
      "at": 28.176899652051127,
      "lat": 24.996081,
      "lon": 119.441347
    },
    {
      "city": "臺北市",
      "town": "松山區",
      "name": "松山",
      "temp": 27.6,
      "at": 33.74806017777077,
      "lat": 25.050492,
      "lon": 121.542203
    },
    {
      "city": "苗栗縣",
      "town": "後龍鎮",
      "name": "高鐵苗栗",
      "temp": 28.3,
      "at": 31.89642088384786,
      "lat": 24.609,
      "lon": 120.817906
    },
    {
      "city": "雲林縣",
      "town": "虎尾鎮",
      "name": "高鐵雲林",
      "temp": 26.0,
      "at": 30.670447114189656,
      "lat": 23.739206,
      "lon": 120.409817
    },
    {
      "city": "桃園市",
      "town": "龜山區",
      "name": "國一五楊N44K",
      "temp": 26.5,
      "at": 30.84976570565729,
      "lat": 25.065633,
      "lon": 121.332769
    },
    {
      "city": "基隆市",
      "town": "中正區",
      "name": "基隆嶼",
      "temp": 27.5,
      "at": 29.59816127488088,
      "lat": 25.1932,
      "lon": 121.775678
    },
    {
      "city": "臺東縣",
      "town": "蘭嶼鄉",
      "name": "蘭嶼高中",
      "temp": 28.5,
      "at": 32.20563534945705,
      "lat": 22.050931,
      "lon": 121.504119
    },
    {
      "city": "臺東縣",
      "town": "蘭嶼鄉",
      "name": "蘭嶼燈塔",
      "temp": 27.0,
      "at": 28.818394770194345,
      "lat": 22.083031,
      "lon": 121.495094
    },
    {
      "city": "新北市",
      "town": "石門區",
      "name": "白沙灣",
      "temp": 28.6,
      "at": 32.27291557946554,
      "lat": 25.284903,
      "lon": 121.510814
    },
    {
      "city": "高雄市",
      "town": "甲仙區",
      "name": "小林",
      "temp": 22.8,
      "at": 26.621783036206143,
      "lat": 23.150164,
      "lon": 120.625189
    },
    {
      "city": "桃園市",
      "town": "大溪區",
      "name": "大溪永福",
      "temp": 24.6,
      "at": 29.988101338736364,
      "lat": 24.894711,
      "lon": 121.316761
    },
    {
      "city": "宜蘭縣",
      "town": "大同鄉",
      "name": "玉蘭",
      "temp": 26.9,
      "at": 31.76159439169443,
      "lat": 24.677222,
      "lon": 121.578889
    },
    {
      "city": "宜蘭縣",
      "town": "五結鄉",
      "name": "五結",
      "temp": 27.4,
      "at": 32.4250371041835,
      "lat": 24.688722,
      "lon": 121.790222
    },
    {
      "city": "宜蘭縣",
      "town": "大同鄉",
      "name": "太平山",
      "temp": 17.3,
      "at": 18.606664435234748,
      "lat": 24.507222,
      "lon": 121.5175
    },
    {
      "city": "宜蘭縣",
      "town": "員山鄉",
      "name": "雙連埤",
      "temp": 22.9,
      "at": 26.719765672652418,
      "lat": 24.754722,
      "lon": 121.633056
    },
    {
      "city": "宜蘭縣",
      "town": "頭城鎮",
      "name": "頭城",
      "temp": 27.4,
      "at": 34.855969901254525,
      "lat": 24.855031,
      "lon": 121.822586
    },
    {
      "city": "宜蘭縣",
      "town": "礁溪鄉",
      "name": "大礁溪",
      "temp": 25.3,
      "at": 30.318347869790472,
      "lat": 24.792836,
      "lon": 121.666839
    },
    {
      "city": "宜蘭縣",
      "town": "三星鄉",
      "name": "三星",
      "temp": 26.7,
      "at": 31.14488430318046,
      "lat": 24.669917,
      "lon": 121.644819
    },
    {
      "city": "宜蘭縣",
      "town": "員山鄉",
      "name": "內城",
      "temp": 27.4,
      "at": 33.36516147712631,
      "lat": 24.719928,
      "lon": 121.679461
    },
    {
      "city": "宜蘭縣",
      "town": "冬山鄉",
      "name": "冬山",
      "temp": 28.5,
      "at": 34.7856563063848,
      "lat": 24.635528,
      "lon": 121.7855
    },
    {
      "city": "宜蘭縣",
      "town": "礁溪鄉",
      "name": "礁溪",
      "temp": 26.3,
      "at": 31.812744448166107,
      "lat": 24.819336,
      "lon": 121.757397
    },
    {
      "city": "宜蘭縣",
      "town": "頭城鎮",
      "name": "龜山島",
      "temp": 27.3,
      "at": 32.73773815290428,
      "lat": 24.843392,
      "lon": 121.944947
    },
    {
      "city": "新北市",
      "town": "貢寮區",
      "name": "三貂角",
      "temp": 28.4,
      "at": 33.415982992058716,
      "lat": 25.009444,
      "lon": 121.993889
    },
    {
      "city": "宜蘭縣",
      "town": "羅東鎮",
      "name": "羅東",
      "temp": 26.9,
      "at": 31.87759365375949,
      "lat": 24.683636,
      "lon": 121.741144
    },
    {
      "city": "宜蘭縣",
      "town": "頭城鎮",
      "name": "鶯子嶺",
      "temp": 24.6,
      "at": 26.603864144332057,
      "lat": 24.899333,
      "lon": 121.784231
    },
    {
      "city": "宜蘭縣",
      "town": "壯圍鄉",
      "name": "大福",
      "temp": 27.5,
      "at": 34.00657935413995,
      "lat": 24.802436,
      "lon": 121.805683
    },
    {
      "city": "宜蘭縣",
      "town": "頭城鎮",
      "name": "坪林石牌",
      "temp": 22.4,
      "at": 25.42513474645918,
      "lat": 24.866578,
      "lon": 121.76575
    },
    {
      "city": "花蓮縣",
      "town": "秀林鄉",
      "name": "天祥",
      "temp": 21.9,
      "at": 25.769870309776564,
      "lat": 24.181389,
      "lon": 121.4875
    },
    {
      "city": "花蓮縣",
      "town": "壽豐鄉",
      "name": "東華",
      "temp": 24.8,
      "at": 30.687064613037634,
      "lat": 23.897056,
      "lon": 121.541694
    },
    {
      "city": "花蓮縣",
      "town": "壽豐鄉",
      "name": "鯉魚潭",
      "temp": 23.2,
      "at": 28.463617664838914,
      "lat": 23.937444,
      "lon": 121.500806
    },
    {
      "city": "花蓮縣",
      "town": "秀林鄉",
      "name": "水源",
      "temp": 25.1,
      "at": 30.431236417902426,
      "lat": 23.993718,
      "lon": 121.529043
    },
    {
      "city": "花蓮縣",
      "town": "鳳林鎮",
      "name": "鳳林山",
      "temp": 24.4,
      "at": 30.176135923066674,
      "lat": 23.737072,
      "lon": 121.411994
    },
    {
      "city": "花蓮縣",
      "town": "光復鄉",
      "name": "光復",
      "temp": 24.3,
      "at": 30.096276041634567,
      "lat": 23.662497,
      "lon": 121.416839
    },
    {
      "city": "花蓮縣",
      "town": "萬榮鄉",
      "name": "西林",
      "temp": 26.4,
      "at": 30.22477202696067,
      "lat": 23.813667,
      "lon": 121.433194
    },
    {
      "city": "花蓮縣",
      "town": "壽豐鄉",
      "name": "月眉山",
      "temp": 23.9,
      "at": 29.65956149679529,
      "lat": 23.811736,
      "lon": 121.531686
    },
    {
      "city": "花蓮縣",
      "town": "壽豐鄉",
      "name": "大坑",
      "temp": 24.7,
      "at": 30.93782851374568,
      "lat": 23.882433,
      "lon": 121.573839
    },
    {
      "city": "花蓮縣",
      "town": "豐濱鄉",
      "name": "加路蘭山",
      "temp": 25.2,
      "at": 30.096844204972257,
      "lat": 23.684706,
      "lon": 121.519219
    },
    {
      "city": "花蓮縣",
      "town": "壽豐鄉",
      "name": "水璉",
      "temp": 25.6,
      "at": 31.86018698731003,
      "lat": 23.798889,
      "lon": 121.534167
    },
    {
      "city": "花蓮縣",
      "town": "豐濱鄉",
      "name": "豐濱",
      "temp": 25.5,
      "at": 30.574861330203966,
      "lat": 23.585708,
      "lon": 121.506678
    },
    {
      "city": "花蓮縣",
      "town": "富里鄉",
      "name": "明里",
      "temp": 24.4,
      "at": 28.942767767682682,
      "lat": 23.210556,
      "lon": 121.254167
    },
    {
      "city": "花蓮縣",
      "town": "玉里鎮",
      "name": "玉里",
      "temp": 24.6,
      "at": 29.89279287540785,
      "lat": 23.323306,
      "lon": 121.331556
    },
    {
      "city": "花蓮縣",
      "town": "瑞穗鄉",
      "name": "舞鶴",
      "temp": 24.0,
      "at": 29.42552779073283,
      "lat": 23.469722,
      "lon": 121.365833
    },
    {
      "city": "花蓮縣",
      "town": "卓溪鄉",
      "name": "佳心",
      "temp": 22.2,
      "at": 24.647559962777365,
      "lat": 23.347464,
      "lon": 121.205061
    },
    {
      "city": "花蓮縣",
      "town": "光復鄉",
      "name": "富源",
      "temp": 23.9,
      "at": 29.129179036923475,
      "lat": 23.58975,
      "lon": 121.370389
    },
    {
      "city": "花蓮縣",
      "town": "吉安鄉",
      "name": "吉安光華",
      "temp": 26.5,
      "at": 32.505947744568644,
      "lat": 23.932733,
      "lon": 121.587003
    },
    {
      "city": "花蓮縣",
      "town": "鳳林鎮",
      "name": "鳳林",
      "temp": 26.3,
      "at": 31.840184167152707,
      "lat": 23.747917,
      "lon": 121.445278
    },
    {
      "city": "花蓮縣",
      "town": "卓溪鄉",
      "name": "卓溪",
      "temp": 25.4,
      "at": 30.6854681585923,
      "lat": 23.346133,
      "lon": 121.294748
    },
    {
      "city": "花蓮縣",
      "town": "新城鄉",
      "name": "新城",
      "temp": 27.0,
      "at": 32.80653876670465,
      "lat": 24.042289,
      "lon": 121.596724
    },
    {
      "city": "花蓮縣",
      "town": "秀林鄉",
      "name": "富世",
      "temp": 26.4,
      "at": 31.79767187642703,
      "lat": 24.149236,
      "lon": 121.621542
    },
    {
      "city": "花蓮縣",
      "town": "鳳林鎮",
      "name": "萬榮",
      "temp": 25.8,
      "at": 31.41731070596434,
      "lat": 23.711022,
      "lon": 121.411969
    },
    {
      "city": "花蓮縣",
      "town": "瑞穗鄉",
      "name": "瑞穗",
      "temp": 24.8,
      "at": 30.617064613037634,
      "lat": 23.525708,
      "lon": 121.382086
    },
    {
      "city": "花蓮縣",
      "town": "卓溪鄉",
      "name": "瑞穗林道",
      "temp": 21.4,
      "at": 24.19451593336781,
      "lat": 23.494642,
      "lon": 121.298764
    },
    {
      "city": "花蓮縣",
      "town": "壽豐鄉",
      "name": "蕃薯寮",
      "temp": 25.8,
      "at": 31.01446119259908,
      "lat": 23.740156,
      "lon": 121.531975
    },
    {
      "city": "花蓮縣",
      "town": "玉里鎮",
      "name": "德武",
      "temp": 24.6,
      "at": 30.471640314288706,
      "lat": 23.476069,
      "lon": 121.402597
    },
    {
      "city": "花蓮縣",
      "town": "玉里鎮",
      "name": "赤柯山",
      "temp": 23.0,
      "at": 26.323283320298486,
      "lat": 23.370733,
      "lon": 121.374825
    },
    {
      "city": "花蓮縣",
      "town": "富里鄉",
      "name": "東里",
      "temp": 25.0,
      "at": 29.89324476334371,
      "lat": 23.270336,
      "lon": 121.297364
    },
    {
      "city": "花蓮縣",
      "town": "秀林鄉",
      "name": "清水斷崖",
      "temp": 27.0,
      "at": 32.71382410120121,
      "lat": 24.2201,
      "lon": 121.680972
    },
    {
      "city": "花蓮縣",
      "town": "卓溪鄉",
      "name": "清水林道",
      "temp": 21.6,
      "at": 25.64159898832728,
      "lat": 23.273047,
      "lon": 121.180172
    },
    {
      "city": "花蓮縣",
      "town": "玉里鎮",
      "name": "安通山",
      "temp": 23.0,
      "at": 27.2279785000791,
      "lat": 23.292536,
      "lon": 121.340419
    },
    {
      "city": "花蓮縣",
      "town": "豐濱鄉",
      "name": "靜浦",
      "temp": 26.8,
      "at": 33.48180096715626,
      "lat": 23.456944,
      "lon": 121.486667
    },
    {
      "city": "臺東縣",
      "town": "長濱鄉",
      "name": "長濱",
      "temp": 26.1,
      "at": 31.45673560201353,
      "lat": 23.288611,
      "lon": 121.403889
    },
    {
      "city": "臺東縣",
      "town": "東河鄉",
      "name": "東河",
      "temp": 25.9,
      "at": 30.394189227437828,
      "lat": 22.973611,
      "lon": 121.298333
    },
    {
      "city": "臺東縣",
      "town": "綠島鄉",
      "name": "綠島",
      "temp": 27.7,
      "at": 33.57512963931264,
      "lat": 22.669025,
      "lon": 121.467267
    },
    {
      "city": "臺東縣",
      "town": "海端鄉",
      "name": "下馬",
      "temp": 21.0,
      "at": 22.8826791488422,
      "lat": 23.152222,
      "lon": 121.062222
    },
    {
      "city": "臺東縣",
      "town": "海端鄉",
      "name": "向陽",
      "temp": 15.1,
      "at": 15.241999120724632,
      "lat": 23.25,
      "lon": 120.978056
    },
    {
      "city": "臺東縣",
      "town": "海端鄉",
      "name": "紅石",
      "temp": 18.5,
      "at": 20.59979242706011,
      "lat": 23.070902,
      "lon": 121.11777
    },
    {
      "city": "臺東縣",
      "town": "池上鄉",
      "name": "池上",
      "temp": 24.1,
      "at": 29.285854129949286,
      "lat": 23.121389,
      "lon": 121.201667
    },
    {
      "city": "臺東縣",
      "town": "鹿野鄉",
      "name": "鹿野",
      "temp": 26.2,
      "at": 30.801920186551627,
      "lat": 22.919517,
      "lon": 121.114908
    },
    {
      "city": "臺東縣",
      "town": "達仁鄉",
      "name": "土坂",
      "temp": 29.4,
      "at": 32.71417224291804,
      "lat": 22.454908,
      "lon": 120.879528
    },
    {
      "city": "臺東縣",
      "town": "太麻里鄉",
      "name": "大溪山",
      "temp": 23.4,
      "at": 27.594169996642776,
      "lat": 22.48,
      "lon": 120.935278
    },
    {
      "city": "臺東縣",
      "town": "達仁鄉",
      "name": "南田",
      "temp": 29.8,
      "at": 33.92719436499254,
      "lat": 22.291944,
      "lon": 120.881944
    },
    {
      "city": "臺東縣",
      "town": "太麻里鄉",
      "name": "金崙",
      "temp": 25.6,
      "at": 29.788159431285393,
      "lat": 22.54,
      "lon": 120.958889
    },
    {
      "city": "臺東縣",
      "town": "太麻里鄉",
      "name": "太麻里",
      "temp": 24.1,
      "at": 28.483218379629974,
      "lat": 22.610825,
      "lon": 120.977275
    },
    {
      "city": "臺東縣",
      "town": "卑南鄉",
      "name": "知本",
      "temp": 23.8,
      "at": 28.75208930423579,
      "lat": 22.686667,
      "lon": 120.997583
    },
    {
      "city": "花蓮縣",
      "town": "富里鄉",
      "name": "富里",
      "temp": 24.0,
      "at": 28.76734520957936,
      "lat": 23.173442,
      "lon": 121.241286
    },
    {
      "city": "桃園市",
      "town": "中壢區",
      "name": "中壢",
      "temp": 28.4,
      "at": 31.46890868558814,
      "lat": 24.979428,
      "lon": 121.248156
    },
    {
      "city": "臺南市",
      "town": "柳營區",
      "name": "柳營",
      "temp": 25.8,
      "at": 28.75372211103617,
      "lat": 23.255089,
      "lon": 120.367158
    },
    {
      "city": "新竹縣",
      "town": "關西鎮",
      "name": "關西",
      "temp": 24.8,
      "at": 30.131084100266015,
      "lat": 24.799421,
      "lon": 121.165033
    },
    {
      "city": "嘉義縣",
      "town": "阿里山鄉",
      "name": "新美",
      "temp": 21.4,
      "at": 25.57829127576273,
      "lat": 23.339792,
      "lon": 120.675231
    },
    {
      "city": "彰化縣",
      "town": "永靖鄉",
      "name": "永靖",
      "temp": 27.0,
      "at": 31.308256090732115,
      "lat": 23.926458,
      "lon": 120.539392
    },
    {
      "city": "彰化縣",
      "town": "竹塘鄉",
      "name": "竹塘",
      "temp": 26.8,
      "at": 32.42119480273969,
      "lat": 23.85,
      "lon": 120.378628
    },
    {
      "city": "雲林縣",
      "town": "東勢鄉",
      "name": "雲林東勢",
      "temp": 26.2,
      "at": 31.90660721686627,
      "lat": 23.675939,
      "lon": 120.2476
    },
    {
      "city": "屏東縣",
      "town": "車城鄉",
      "name": "車城",
      "temp": 26.8,
      "at": 31.834866841425942,
      "lat": 22.075833,
      "lon": 120.708056
    },
    {
      "city": "屏東縣",
      "town": "春日鄉",
      "name": "大漢山",
      "temp": 17.3,
      "at": 18.05191314394799,
      "lat": 22.405861,
      "lon": 120.745083
    },
    {
      "city": "屏東縣",
      "town": "枋山鄉",
      "name": "枋山",
      "temp": 27.5,
      "at": 31.4566307150156,
      "lat": 22.249572,
      "lon": 120.652748
    },
    {
      "city": "屏東縣",
      "town": "枋寮鄉",
      "name": "枋寮",
      "temp": 25.5,
      "at": 31.66695363117828,
      "lat": 22.369511,
      "lon": 120.582611
    },
    {
      "city": "屏東縣",
      "town": "枋山鄉",
      "name": "楓港",
      "temp": 26.4,
      "at": 31.884121801160212,
      "lat": 22.191928,
      "lon": 120.684131
    },
    {
      "city": "屏東縣",
      "town": "滿州鄉",
      "name": "檳榔",
      "temp": 25.3,
      "at": 30.08323176188594,
      "lat": 22.077883,
      "lon": 120.828758
    },
    {
      "city": "屏東縣",
      "town": "牡丹鄉",
      "name": "牡丹",
      "temp": 26.6,
      "at": 31.83537787402488,
      "lat": 22.131817,
      "lon": 120.784589
    },
    {
      "city": "屏東縣",
      "town": "滿州鄉",
      "name": "佳樂水",
      "temp": 27.7,
      "at": 32.457671797669015,
      "lat": 21.995386,
      "lon": 120.853619
    },
    {
      "city": "屏東縣",
      "town": "恆春鎮",
      "name": "墾丁",
      "temp": 25.4,
      "at": 30.279304311106536,
      "lat": 21.968561,
      "lon": 120.802258
    },
    {
      "city": "屏東縣",
      "town": "恆春鎮",
      "name": "貓鼻頭",
      "temp": 27.4,
      "at": 32.45559678242611,
      "lat": 21.923578,
      "lon": 120.727792
    },
    {
      "city": "屏東縣",
      "town": "恆春鎮",
      "name": "墾雷",
      "temp": 27.8,
      "at": 33.21644283159963,
      "lat": 21.90265,
      "lon": 120.847244
    },
    {
      "city": "屏東縣",
      "town": "牡丹鄉",
      "name": "四林格山",
      "temp": 23.3,
      "at": 26.68376944841613,
      "lat": 22.078792,
      "lon": 120.794419
    },
    {
      "city": "屏東縣",
      "town": "恆春鎮",
      "name": "大坪頂",
      "temp": 26.7,
      "at": 33.593956991783685,
      "lat": 22.026433,
      "lon": 120.685536
    },
    {
      "city": "屏東縣",
      "town": "恆春鎮",
      "name": "龍磐",
      "temp": 26.9,
      "at": 31.037193210998524,
      "lat": 21.933481,
      "lon": 120.830933
    },
    {
      "city": "屏東縣",
      "town": "獅子鄉",
      "name": "獅子",
      "temp": 26.2,
      "at": 32.200910209870585,
      "lat": 22.204106,
      "lon": 120.69721
    },
    {
      "city": "宜蘭縣",
      "town": "南澳鄉",
      "name": "東澳",
      "temp": 25.7,
      "at": 31.912454903833797,
      "lat": 24.523767,
      "lon": 121.824986
    },
    {
      "city": "宜蘭縣",
      "town": "南澳鄉",
      "name": "南澳",
      "temp": 26.5,
      "at": 31.11426856123135,
      "lat": 24.451153,
      "lon": 121.802036
    },
    {
      "city": "花蓮縣",
      "town": "秀林鄉",
      "name": "和中",
      "temp": 25.1,
      "at": 31.1651538889734,
      "lat": 24.268567,
      "lon": 121.732861
    },
    {
      "city": "宜蘭縣",
      "town": "大同鄉",
      "name": "翠峰湖",
      "temp": 15.4,
      "at": 17.161786238966116,
      "lat": 24.51265,
      "lon": 121.599858
    },
    {
      "city": "花蓮縣",
      "town": "秀林鄉",
      "name": "和平林道",
      "temp": 23.3,
      "at": 26.671704031153713,
      "lat": 24.345722,
      "lon": 121.648142
    },
    {
      "city": "花蓮縣",
      "town": "秀林鄉",
      "name": "和平",
      "temp": 27.8,
      "at": 31.810104947843172,
      "lat": 24.308961,
      "lon": 121.761903
    },
    {
      "city": "宜蘭縣",
      "town": "南澳鄉",
      "name": "樟樹山",
      "temp": 24.7,
      "at": 29.564045662371107,
      "lat": 24.415731,
      "lon": 121.775067
    },
    {
      "city": "宜蘭縣",
      "town": "頭城鎮",
      "name": "桃源谷",
      "temp": 25.6,
      "at": 29.38617124101024,
      "lat": 24.964408,
      "lon": 121.880658
    },
    {
      "city": "宜蘭縣",
      "town": "南澳鄉",
      "name": "西帽山",
      "temp": 25.3,
      "at": 29.966151449324812,
      "lat": 24.557164,
      "lon": 121.794436
    },
    {
      "city": "宜蘭縣",
      "town": "南澳鄉",
      "name": "西德山",
      "temp": 23.0,
      "at": 26.323283320298486,
      "lat": 24.562447,
      "lon": 121.744417
    },
    {
      "city": "新北市",
      "town": "烏來區",
      "name": "福山植物園",
      "temp": 21.4,
      "at": 25.64829127576273,
      "lat": 24.762506,
      "lon": 121.573147
    },
    {
      "city": "宜蘭縣",
      "town": "大同鄉",
      "name": "鴛鴦湖",
      "temp": 16.7,
      "at": 18.329677455735563,
      "lat": 24.592053,
      "lon": 121.404039
    },
    {
      "city": "宜蘭縣",
      "town": "大同鄉",
      "name": "白嶺",
      "temp": 21.5,
      "at": 24.9269551475073,
      "lat": 24.529611,
      "lon": 121.510844
    },
    {
      "city": "宜蘭縣",
      "town": "大同鄉",
      "name": "土場",
      "temp": 23.1,
      "at": 27.81887046819253,
      "lat": 24.578356,
      "lon": 121.487153
    },
    {
      "city": "宜蘭縣",
      "town": "員山鄉",
      "name": "員山",
      "temp": 27.4,
      "at": 33.80553459595471,
      "lat": 24.746147,
      "lon": 121.714269
    },
    {
      "city": "桃園市",
      "town": "蘆竹區",
      "name": "蘆竹",
      "temp": 28.5,
      "at": 31.941689837469212,
      "lat": 25.086111,
      "lon": 121.2575
    },
    {
      "city": "新竹縣",
      "town": "橫山鄉",
      "name": "橫山",
      "temp": 23.7,
      "at": 29.246655297948585,
      "lat": 24.712925,
      "lon": 121.108733
    },
    {
      "city": "新竹縣",
      "town": "新豐鄉",
      "name": "新豐",
      "temp": 27.7,
      "at": 30.781485035203573,
      "lat": 24.872436,
      "lon": 120.969
    },
    {
      "city": "新竹縣",
      "town": "五峰鄉",
      "name": "雪霸",
      "temp": 18.1,
      "at": 18.397973933510087,
      "lat": 24.528722,
      "lon": 121.107917
    },
    {
      "city": "新竹縣",
      "town": "竹東鎮",
      "name": "竹東",
      "temp": 27.6,
      "at": 31.41745279284214,
      "lat": 24.76925,
      "lon": 121.049861
    },
    {
      "city": "桃園市",
      "town": "平鎮區",
      "name": "平鎮",
      "temp": 26.2,
      "at": 30.452425174892156,
      "lat": 24.899444,
      "lon": 121.206389
    },
    {
      "city": "桃園市",
      "town": "大溪區",
      "name": "大溪",
      "temp": 26.1,
      "at": 29.68556559715165,
      "lat": 24.884722,
      "lon": 121.256944
    },
    {
      "city": "苗栗縣",
      "town": "頭份市",
      "name": "頭份",
      "temp": 28.8,
      "at": 33.436363446443494,
      "lat": 24.69,
      "lon": 120.904167
    },
    {
      "city": "新竹縣",
      "town": "寶山鄉",
      "name": "寶山",
      "temp": 27.2,
      "at": 31.512668113949466,
      "lat": 24.736722,
      "lon": 121.016769
    },
    {
      "city": "苗栗縣",
      "town": "獅潭鄉",
      "name": "獅潭",
      "temp": 26.3,
      "at": 28.669460794991863,
      "lat": 24.541028,
      "lon": 120.911972
    },
    {
      "city": "桃園市",
      "town": "楊梅區",
      "name": "楊梅",
      "temp": 27.5,
      "at": 30.48356959528502,
      "lat": 24.914139,
      "lon": 121.134833
    },
    {
      "city": "新竹縣",
      "town": "湖口鄉",
      "name": "湖口",
      "temp": 27.9,
      "at": 30.630181654549666,
      "lat": 24.906556,
      "lon": 121.035417
    },
    {
      "city": "桃園市",
      "town": "龍潭區",
      "name": "龍潭",
      "temp": 26.2,
      "at": 29.61242517489216,
      "lat": 24.871833,
      "lon": 121.213194
    },
    {
      "city": "新竹市",
      "town": "東區",
      "name": "新竹市東區",
      "temp": 27.8,
      "at": 29.79562435916928,
      "lat": 24.800436,
      "lon": 120.978742
    },
    {
      "city": "苗栗縣",
      "town": "三灣鄉",
      "name": "大河",
      "temp": 27.7,
      "at": 29.926209423765393,
      "lat": 24.619833,
      "lon": 120.94055
    },
    {
      "city": "臺中市",
      "town": "和平區",
      "name": "桃山",
      "temp": 9.4,
      "at": 8.096394442522671,
      "lat": 24.434519,
      "lon": 121.295628
    },
    {
      "city": "臺中市",
      "town": "和平區",
      "name": "雪山東峰",
      "temp": 12.8,
      "at": 10.516209820557258,
      "lat": 24.390581,
      "lon": 121.263286
    },
    {
      "city": "臺中市",
      "town": "和平區",
      "name": "雪山圈谷",
      "temp": 10.0,
      "at": 6.193833767208542,
      "lat": 24.390375,
      "lon": 121.228197
    },
    {
      "city": "桃園市",
      "town": "龜山區",
      "name": "龜山",
      "temp": 27.1,
      "at": 31.620094467927146,
      "lat": 25.030231,
      "lon": 121.378336
    },
    {
      "city": "臺中市",
      "town": "和平區",
      "name": "審馬陣",
      "temp": 10.1,
      "at": 6.843396591678193,
      "lat": 24.383461,
      "lon": 121.412122
    },
    {
      "city": "臺中市",
      "town": "和平區",
      "name": "南湖圈谷",
      "temp": 9.1,
      "at": 3.4701739743190005,
      "lat": 24.365503,
      "lon": 121.436489
    },
    {
      "city": "苗栗縣",
      "town": "苗栗市",
      "name": "苗栗",
      "temp": 28.5,
      "at": 31.465719177168076,
      "lat": 24.566667,
      "lon": 120.816444
    },
    {
      "city": "苗栗縣",
      "town": "銅鑼鄉",
      "name": "銅鑼",
      "temp": 27.0,
      "at": 30.676400087242428,
      "lat": 24.491528,
      "lon": 120.782639
    },
    {
      "city": "苗栗縣",
      "town": "西湖鄉",
      "name": "西湖",
      "temp": 26.1,
      "at": 29.96177115540825,
      "lat": 24.564417,
      "lon": 120.740278
    },
    {
      "city": "臺中市",
      "town": "大安區",
      "name": "大安",
      "temp": 27.7,
      "at": 30.903667265409027,
      "lat": 24.347444,
      "lon": 120.579972
    },
    {
      "city": "臺中市",
      "town": "后里區",
      "name": "后里",
      "temp": 27.3,
      "at": 31.69219953009538,
      "lat": 24.312111,
      "lon": 120.7215
    },
    {
      "city": "臺中市",
      "town": "豐原區",
      "name": "豐原",
      "temp": 27.3,
      "at": 31.53156219049665,
      "lat": 24.256306,
      "lon": 120.712333
    },
    {
      "city": "臺中市",
      "town": "潭子區",
      "name": "潭子",
      "temp": 27.7,
      "at": 32.302396186230844,
      "lat": 24.21475,
      "lon": 120.695833
    },
    {
      "city": "臺中市",
      "town": "清水區",
      "name": "清水",
      "temp": 27.9,
      "at": 30.93102255682257,
      "lat": 24.314028,
      "lon": 120.554083
    },
    {
      "city": "臺中市",
      "town": "外埔區",
      "name": "外埔",
      "temp": 29.0,
      "at": 34.56827241828066,
      "lat": 24.349556,
      "lon": 120.697472
    },
    {
      "city": "臺中市",
      "town": "龍井區",
      "name": "龍井",
      "temp": 27.7,
      "at": 31.778031725819936,
      "lat": 24.186278,
      "lon": 120.520833
    },
    {
      "city": "彰化縣",
      "town": "伸港鄉",
      "name": "伸港",
      "temp": 27.4,
      "at": 30.4047883582979,
      "lat": 24.150528,
      "lon": 120.476167
    },
    {
      "city": "苗栗縣",
      "town": "苑裡鎮",
      "name": "苑裡",
      "temp": 28.2,
      "at": 31.56253212258585,
      "lat": 24.441458,
      "lon": 120.644883
    },
    {
      "city": "臺中市",
      "town": "石岡區",
      "name": "石岡",
      "temp": 27.4,
      "at": 30.184601798883698,
      "lat": 24.277822,
      "lon": 120.769478
    },
    {
      "city": "臺中市",
      "town": "和平區",
      "name": "中坑",
      "temp": 20.9,
      "at": 22.645759339174887,
      "lat": 24.250283,
      "lon": 120.895153
    },
    {
      "city": "南投縣",
      "town": "魚池鄉",
      "name": "魚池",
      "temp": 22.4,
      "at": 27.015983398994585,
      "lat": 23.897478,
      "lon": 120.933219
    },
    {
      "city": "南投縣",
      "town": "國姓鄉",
      "name": "國姓",
      "temp": 23.8,
      "at": 28.628065878338248,
      "lat": 24.039567,
      "lon": 120.846925
    },
    {
      "city": "南投縣",
      "town": "仁愛鄉",
      "name": "仁愛",
      "temp": 18.9,
      "at": 21.239029611840156,
      "lat": 24.023903,
      "lon": 121.124056
    },
    {
      "city": "南投縣",
      "town": "水里鄉",
      "name": "水里",
      "temp": 23.8,
      "at": 27.745077591287018,
      "lat": 23.814322,
      "lon": 120.841658
    },
    {
      "city": "南投縣",
      "town": "集集鎮",
      "name": "集集",
      "temp": 24.9,
      "at": 30.325303637098337,
      "lat": 23.829972,
      "lon": 120.793328
    },
    {
      "city": "南投縣",
      "town": "名間鄉",
      "name": "名間",
      "temp": 24.4,
      "at": 29.21389048614401,
      "lat": 23.838817,
      "lon": 120.693306
    },
    {
      "city": "南投縣",
      "town": "仁愛鄉",
      "name": "萬大林道",
      "temp": 18.2,
      "at": 18.999753015666624,
      "lat": 23.930008,
      "lon": 121.083267
    },
    {
      "city": "南投縣",
      "town": "仁愛鄉",
      "name": "梅峰",
      "temp": 13.6,
      "at": 14.678536258229958,
      "lat": 24.087056,
      "lon": 121.165414
    },
    {
      "city": "南投縣",
      "town": "信義鄉",
      "name": "玉山風口",
      "temp": 6.5,
      "at": 0.21702413243659358,
      "lat": 23.472294,
      "lon": 120.947853
    },
    {
      "city": "南投縣",
      "town": "仁愛鄉",
      "name": "小奇萊",
      "temp": 9.3,
      "at": 4.47009751690228,
      "lat": 24.13355,
      "lon": 121.287556
    },
    {
      "city": "南投縣",
      "town": "仁愛鄉",
      "name": "奇萊稜線",
      "temp": 8.4,
      "at": 5.862471167644307,
      "lat": 24.111019,
      "lon": 121.318297
    },
    {
      "city": "臺中市",
      "town": "大里區",
      "name": "大里",
      "temp": 27.5,
      "at": 32.25122239461146,
      "lat": 24.094389,
      "lon": 120.692194
    },
    {
      "city": "臺中市",
      "town": "烏日區",
      "name": "烏日",
      "temp": 26.6,
      "at": 30.524296545824612,
      "lat": 24.108833,
      "lon": 120.615917
    },
    {
      "city": "臺中市",
      "town": "西屯區",
      "name": "西屯",
      "temp": 27.5,
      "at": 31.2466307150156,
      "lat": 24.182028,
      "lon": 120.632861
    },
    {
      "city": "臺中市",
      "town": "南屯區",
      "name": "南屯",
      "temp": 26.7,
      "at": 30.95964473326262,
      "lat": 24.138861,
      "lon": 120.630111
    },
    {
      "city": "彰化縣",
      "town": "福興鄉",
      "name": "福興",
      "temp": 27.2,
      "at": 31.57333491939668,
      "lat": 24.042972,
      "lon": 120.429528
    },
    {
      "city": "彰化縣",
      "town": "秀水鄉",
      "name": "秀水",
      "temp": 27.8,
      "at": 32.899066125190956,
      "lat": 24.035917,
      "lon": 120.495722
    },
    {
      "city": "彰化縣",
      "town": "埔鹽鄉",
      "name": "埔鹽",
      "temp": 27.0,
      "at": 31.45196809771152,
      "lat": 24.002167,
      "lon": 120.423583
    },
    {
      "city": "彰化縣",
      "town": "埔心鄉",
      "name": "埔心",
      "temp": 28.3,
      "at": 34.6207456572988,
      "lat": 23.948694,
      "lon": 120.517611
    },
    {
      "city": "彰化縣",
      "town": "田尾鄉",
      "name": "田尾",
      "temp": 26.5,
      "at": 32.58426856123135,
      "lat": 23.903417,
      "lon": 120.501389
    },
    {
      "city": "彰化縣",
      "town": "埤頭鄉",
      "name": "埤頭",
      "temp": 27.3,
      "at": 33.231364756917,
      "lat": 23.867806,
      "lon": 120.444722
    },
    {
      "city": "彰化縣",
      "town": "社頭鄉",
      "name": "社頭",
      "temp": 27.9,
      "at": 33.63715889773224,
      "lat": 23.899417,
      "lon": 120.578083
    },
    {
      "city": "彰化縣",
      "town": "二水鄉",
      "name": "二水",
      "temp": 27.4,
      "at": 32.57522366359771,
      "lat": 23.812778,
      "lon": 120.609028
    },
    {
      "city": "苗栗縣",
      "town": "造橋鄉",
      "name": "造橋",
      "temp": 27.9,
      "at": 31.40018165454967,
      "lat": 24.63875,
      "lon": 120.856583
    },
    {
      "city": "新竹縣",
      "town": "尖石鄉",
      "name": "梅花",
      "temp": 21.3,
      "at": 25.470392154098693,
      "lat": 24.680119,
      "lon": 121.200361
    },
    {
      "city": "新北市",
      "town": "坪林區",
      "name": "坪林",
      "temp": 23.9,
      "at": 29.073987806987574,
      "lat": 24.939975,
      "lon": 121.701531
    },
    {
      "city": "新北市",
      "town": "雙溪區",
      "name": "泰平",
      "temp": 23.2,
      "at": 28.557189560443348,
      "lat": 24.973056,
      "lon": 121.815278
    },
    {
      "city": "新北市",
      "town": "汐止區",
      "name": "五指山",
      "temp": 22.3,
      "at": 20.908122345489318,
      "lat": 25.133889,
      "lon": 121.600278
    },
    {
      "city": "新北市",
      "town": "汐止區",
      "name": "汐止",
      "temp": 28.9,
      "at": 34.85331258952014,
      "lat": 25.068667,
      "lon": 121.650556
    },
    {
      "city": "新北市",
      "town": "三峽區",
      "name": "三峽",
      "temp": 27.8,
      "at": 34.86065059613007,
      "lat": 24.940806,
      "lon": 121.3615
    },
    {
      "city": "臺北市",
      "town": "信義區",
      "name": "信義",
      "temp": 27.1,
      "at": 32.98781121315956,
      "lat": 25.039606,
      "lon": 121.556372
    },
    {
      "city": "臺北市",
      "town": "文山區",
      "name": "文山",
      "temp": 26.2,
      "at": 32.83040522153006,
      "lat": 25.004083,
      "lon": 121.567528
    },
    {
      "city": "新北市",
      "town": "新莊區",
      "name": "新莊",
      "temp": 28.2,
      "at": 32.095167788780955,
      "lat": 25.05325,
      "lon": 121.438528
    },
    {
      "city": "新北市",
      "town": "樹林區",
      "name": "山佳",
      "temp": 28.4,
      "at": 35.24854491411752,
      "lat": 24.976719,
      "lon": 121.393789
    },
    {
      "city": "新北市",
      "town": "烏來區",
      "name": "桶後",
      "temp": 22.6,
      "at": 26.992229477264623,
      "lat": 24.850056,
      "lon": 121.589639
    },
    {
      "city": "新北市",
      "town": "雙溪區",
      "name": "雙溪",
      "temp": 26.4,
      "at": 32.929921500092945,
      "lat": 25.037861,
      "lon": 121.856056
    },
    {
      "city": "新北市",
      "town": "瑞芳區",
      "name": "鼻頭角",
      "temp": 28.3,
      "at": 33.93682685066153,
      "lat": 25.130833,
      "lon": 121.915278
    },
    {
      "city": "新北市",
      "town": "萬里區",
      "name": "大坪",
      "temp": 25.6,
      "at": 24.374143684985597,
      "lat": 25.167694,
      "lon": 121.62475
    },
    {
      "city": "新北市",
      "town": "金山區",
      "name": "三和",
      "temp": 29.7,
      "at": 32.86021375323928,
      "lat": 25.234933,
      "lon": 121.586997
    },
    {
      "city": "新北市",
      "town": "金山區",
      "name": "金山",
      "temp": 28.8,
      "at": 32.02494053805711,
      "lat": 25.225278,
      "lon": 121.635556
    },
    {
      "city": "新北市",
      "town": "石碇區",
      "name": "石碇",
      "temp": 23.7,
      "at": 28.860931851566825,
      "lat": 24.995758,
      "lon": 121.654639
    },
    {
      "city": "桃園市",
      "town": "復興區",
      "name": "復興",
      "temp": 22.6,
      "at": 27.02342461045089,
      "lat": 24.822,
      "lon": 121.344094
    },
    {
      "city": "桃園市",
      "town": "八德區",
      "name": "八德",
      "temp": 27.9,
      "at": 32.55295438636773,
      "lat": 24.930528,
      "lon": 121.275
    },
    {
      "city": "臺北市",
      "town": "內湖區",
      "name": "內湖",
      "temp": 29.7,
      "at": 33.565879014336616,
      "lat": 25.081206,
      "lon": 121.567222
    },
    {
      "city": "基隆市",
      "town": "暖暖區",
      "name": "暖暖",
      "temp": 28.0,
      "at": 33.85279234959209,
      "lat": 25.097533,
      "lon": 121.732069
    },
    {
      "city": "臺北市",
      "town": "士林區",
      "name": "天母",
      "temp": 29.2,
      "at": 33.68950821885501,
      "lat": 25.119253,
      "lon": 121.528939
    },
    {
      "city": "臺北市",
      "town": "士林區",
      "name": "社子",
      "temp": 30.3,
      "at": 36.095497549953706,
      "lat": 25.111389,
      "lon": 121.461389
    },
    {
      "city": "臺北市",
      "town": "北投區",
      "name": "大屯山",
      "temp": 22.7,
      "at": 18.797932626905492,
      "lat": 25.177333,
      "lon": 121.514167
    },
    {
      "city": "新北市",
      "town": "八里區",
      "name": "八里",
      "temp": 28.8,
      "at": 33.32731205203443,
      "lat": 25.15225,
      "lon": 121.395306
    },
    {
      "city": "新北市",
      "town": "蘆洲區",
      "name": "蘆洲",
      "temp": 30.3,
      "at": 35.60746128256173,
      "lat": 25.088528,
      "lon": 121.464056
    },
    {
      "city": "新北市",
      "town": "土城區",
      "name": "土城",
      "temp": 25.8,
      "at": 31.198735462646965,
      "lat": 24.974944,
      "lon": 121.436917
    },
    {
      "city": "新北市",
      "town": "鶯歌區",
      "name": "鶯歌",
      "temp": 28.1,
      "at": 35.73054422204312,
      "lat": 24.953,
      "lon": 121.33725
    },
    {
      "city": "新北市",
      "town": "永和區",
      "name": "永和",
      "temp": 27.6,
      "at": 32.735116265638105,
      "lat": 25.013028,
      "lon": 121.499889
    },
    {
      "city": "新北市",
      "town": "林口區",
      "name": "林口",
      "temp": 27.5,
      "at": 31.60892655481352,
      "lat": 25.073953,
      "lon": 121.372611
    },
    {
      "city": "新北市",
      "town": "深坑區",
      "name": "深坑",
      "temp": 26.1,
      "at": 32.44542338357277,
      "lat": 25.004489,
      "lon": 121.620106
    },
    {
      "city": "基隆市",
      "town": "七堵區",
      "name": "七堵",
      "temp": 29.4,
      "at": 33.72026715019995,
      "lat": 25.096608,
      "lon": 121.708897
    },
    {
      "city": "新北市",
      "town": "五股區",
      "name": "五股",
      "temp": 27.3,
      "at": 32.8858261341081,
      "lat": 25.076228,
      "lon": 121.419053
    },
    {
      "city": "新北市",
      "town": "三重區",
      "name": "三重",
      "temp": 29.6,
      "at": 35.60416493828166,
      "lat": 25.059108,
      "lon": 121.4924
    },
    {
      "city": "臺北市",
      "town": "北投區",
      "name": "石牌",
      "temp": 30.2,
      "at": 35.51618752029728,
      "lat": 25.117336,
      "lon": 121.504825
    },
    {
      "city": "臺東縣",
      "town": "金峰鄉",
      "name": "金峰嘉蘭",
      "temp": 24.3,
      "at": 28.9966940369613,
      "lat": 22.596589,
      "lon": 120.952772
    },
    {
      "city": "臺東縣",
      "town": "延平鄉",
      "name": "延平",
      "temp": 25.6,
      "at": 30.424163367860338,
      "lat": 22.904381,
      "lon": 121.075983
    },
    {
      "city": "臺東縣",
      "town": "長濱鄉",
      "name": "石寧山",
      "temp": 25.5,
      "at": 30.61222543052874,
      "lat": 23.225581,
      "lon": 121.398542
    },
    {
      "city": "臺東縣",
      "town": "東河鄉",
      "name": "七塊厝",
      "temp": 26.1,
      "at": 31.04053004375693,
      "lat": 22.957525,
      "lon": 121.221089
    },
    {
      "city": "臺東縣",
      "town": "臺東市",
      "name": "知本(水試所)",
      "temp": 25.3,
      "at": 31.063231761885937,
      "lat": 22.704053,
      "lon": 121.074603
    },
    {
      "city": "臺東縣",
      "town": "太麻里鄉",
      "name": "香蘭",
      "temp": 28.0,
      "at": 32.267770428151614,
      "lat": 22.589372,
      "lon": 120.985322
    },
    {
      "city": "臺東縣",
      "town": "大武鄉",
      "name": "加津林",
      "temp": 28.0,
      "at": 34.179787965304,
      "lat": 22.418014,
      "lon": 120.9189
    },
    {
      "city": "臺東縣",
      "town": "達仁鄉",
      "name": "勝林山",
      "temp": 22.5,
      "at": 24.297337303142466,
      "lat": 22.432239,
      "lon": 120.885742
    },
    {
      "city": "臺東縣",
      "town": "大武鄉",
      "name": "山豬窟",
      "temp": 26.7,
      "at": 27.452009464166416,
      "lat": 22.320422,
      "lon": 120.849339
    },
    {
      "city": "臺東縣",
      "town": "太麻里鄉",
      "name": "歷坵",
      "temp": 24.0,
      "at": 27.238241329970425,
      "lat": 22.522769,
      "lon": 120.883803
    },
    {
      "city": "臺東縣",
      "town": "卑南鄉",
      "name": "檳榔四格山",
      "temp": 24.8,
      "at": 29.542113331108588,
      "lat": 22.811789,
      "lon": 121.101247
    },
    {
      "city": "臺東縣",
      "town": "太麻里鄉",
      "name": "金崙山",
      "temp": 24.1,
      "at": 26.384083753725267,
      "lat": 22.569219,
      "lon": 120.951617
    },
    {
      "city": "臺東縣",
      "town": "成功鎮",
      "name": "都歷",
      "temp": 27.3,
      "at": 33.20710081330555,
      "lat": 23.022142,
      "lon": 121.315558
    },
    {
      "city": "臺東縣",
      "town": "達仁鄉",
      "name": "達仁林場",
      "temp": 25.2,
      "at": 29.254023247333677,
      "lat": 22.266147,
      "lon": 120.815942
    },
    {
      "city": "屏東縣",
      "town": "牡丹鄉",
      "name": "牡丹池山",
      "temp": 23.5,
      "at": 24.757825712079654,
      "lat": 22.170192,
      "lon": 120.8332
    },
    {
      "city": "屏東縣",
      "town": "牡丹鄉",
      "name": "高士",
      "temp": 25.0,
      "at": 29.540139868615512,
      "lat": 22.123631,
      "lon": 120.828758
    },
    {
      "city": "屏東縣",
      "town": "來義鄉",
      "name": "白鷺",
      "temp": 22.5,
      "at": 26.600905997277486,
      "lat": 22.456067,
      "lon": 120.658178
    },
    {
      "city": "屏東縣",
      "town": "獅子鄉",
      "name": "內獅",
      "temp": 26.5,
      "at": 31.936482439006483,
      "lat": 22.306856,
      "lon": 120.634956
    },
    {
      "city": "屏東縣",
      "town": "獅子鄉",
      "name": "丹路",
      "temp": 26.6,
      "at": 32.72645920222514,
      "lat": 22.206281,
      "lon": 120.742964
    },
    {
      "city": "屏東縣",
      "town": "滿州鄉",
      "name": "九棚",
      "temp": 27.8,
      "at": 30.830104947843168,
      "lat": 22.143756,
      "lon": 120.886331
    },
    {
      "city": "屏東縣",
      "town": "滿州鄉",
      "name": "滿州",
      "temp": 27.3,
      "at": 31.93455145491064,
      "lat": 22.026208,
      "lon": 120.831875
    },
    {
      "city": "屏東縣",
      "town": "車城鄉",
      "name": "保力",
      "temp": 26.7,
      "at": 30.831561292605315,
      "lat": 22.072925,
      "lon": 120.756094
    },
    {
      "city": "屏東縣",
      "town": "滿州鄉",
      "name": "南仁湖",
      "temp": 25.8,
      "at": 29.89446119259908,
      "lat": 22.086486,
      "lon": 120.855333
    },
    {
      "city": "南投縣",
      "town": "仁愛鄉",
      "name": "合歡山頂",
      "temp": 9.7,
      "at": 8.825228610410242,
      "lat": 24.144778,
      "lon": 121.264083
    },
    {
      "city": "臺中市",
      "town": "北屯區",
      "name": "大坑",
      "temp": 26.7,
      "at": 31.655363443016128,
      "lat": 24.174889,
      "lon": 120.714139
    },
    {
      "city": "彰化縣",
      "town": "溪湖鎮",
      "name": "溪湖",
      "temp": 27.5,
      "at": 33.2819876745441,
      "lat": 23.95175,
      "lon": 120.471056
    },
    {
      "city": "彰化縣",
      "town": "員林市",
      "name": "員林",
      "temp": 27.0,
      "at": 32.831109435697776,
      "lat": 23.948333,
      "lon": 120.577528
    },
    {
      "city": "南投縣",
      "town": "草屯鎮",
      "name": "草屯",
      "temp": 26.3,
      "at": 30.3976238861393,
      "lat": 23.975444,
      "lon": 120.672194
    },
    {
      "city": "彰化縣",
      "town": "芬園鄉",
      "name": "芬園",
      "temp": 24.7,
      "at": 30.835450228608224,
      "lat": 24.017222,
      "lon": 120.613056
    },
    {
      "city": "臺中市",
      "town": "東勢區",
      "name": "東勢",
      "temp": 27.8,
      "at": 32.545897183312725,
      "lat": 24.248194,
      "lon": 120.824917
    },
    {
      "city": "南投縣",
      "town": "竹山鎮",
      "name": "竹山",
      "temp": 25.8,
      "at": 29.40585924606011,
      "lat": 23.764722,
      "lon": 120.677778
    },
    {
      "city": "苗栗縣",
      "town": "泰安鄉",
      "name": "馬都安",
      "temp": 22.7,
      "at": 25.67533745488036,
      "lat": 24.453056,
      "lon": 120.921944
    },
    {
      "city": "苗栗縣",
      "town": "頭屋鄉",
      "name": "明德",
      "temp": 29.2,
      "at": 32.13327870812873,
      "lat": 24.58525,
      "lon": 120.877222
    },
    {
      "city": "苗栗縣",
      "town": "通霄鎮",
      "name": "通霄",
      "temp": 26.9,
      "at": 29.917994096520452,
      "lat": 24.473639,
      "lon": 120.696444
    },
    {
      "city": "臺中市",
      "town": "神岡區",
      "name": "神岡",
      "temp": 26.1,
      "at": 29.933012267059567,
      "lat": 24.274222,
      "lon": 120.650306
    },
    {
      "city": "苗栗縣",
      "town": "卓蘭鎮",
      "name": "卓蘭",
      "temp": 27.2,
      "at": 30.55400142745701,
      "lat": 24.314319,
      "lon": 120.816192
    },
    {
      "city": "臺中市",
      "town": "新社區",
      "name": "新社",
      "temp": 24.7,
      "at": 26.617884525859083,
      "lat": 24.201583,
      "lon": 120.8075
    },
    {
      "city": "南投縣",
      "town": "埔里鎮",
      "name": "埔里",
      "temp": 23.4,
      "at": 27.808289428346505,
      "lat": 23.973944,
      "lon": 120.944278
    },
    {
      "city": "南投縣",
      "town": "信義鄉",
      "name": "信義",
      "temp": 21.7,
      "at": 25.98710756579969,
      "lat": 23.691389,
      "lon": 120.842778
    },
    {
      "city": "南投縣",
      "town": "仁愛鄉",
      "name": "昆陽",
      "temp": 9.0,
      "at": 6.402866155843196,
      "lat": 24.123139,
      "lon": 121.265361
    },
    {
      "city": "南投縣",
      "town": "仁愛鄉",
      "name": "廬山",
      "temp": 17.6,
      "at": 18.94095077814059,
      "lat": 24.035,
      "lon": 121.173333
    },
    {
      "city": "南投縣",
      "town": "信義鄉",
      "name": "神木村",
      "temp": 16.5,
      "at": 18.169865906434683,
      "lat": 23.534519,
      "lon": 120.835553
    },
    {
      "city": "臺中市",
      "town": "大雅區",
      "name": "大雅",
      "temp": 26.1,
      "at": 29.55425337871089,
      "lat": 24.217056,
      "lon": 120.616239
    },
    {
      "city": "南投縣",
      "town": "南投市",
      "name": "南投",
      "temp": 25.7,
      "at": 30.98567059020794,
      "lat": 23.913208,
      "lon": 120.679183
    },
    {
      "city": "彰化縣",
      "town": "花壇鄉",
      "name": "花壇",
      "temp": 27.8,
      "at": 33.969338949334414,
      "lat": 24.032075,
      "lon": 120.541314
    },
    {
      "city": "彰化縣",
      "town": "線西鄉",
      "name": "線西",
      "temp": 27.2,
      "at": 31.013334919396677,
      "lat": 24.141081,
      "lon": 120.435381
    },
    {
      "city": "臺中市",
      "town": "霧峰區",
      "name": "霧峰",
      "temp": 25.8,
      "at": 29.750872597670913,
      "lat": 24.043658,
      "lon": 120.691323
    },
    {
      "city": "雲林縣",
      "town": "虎尾鎮",
      "name": "虎尾",
      "temp": 26.2,
      "at": 30.885718191215418,
      "lat": 23.720939,
      "lon": 120.433911
    },
    {
      "city": "雲林縣",
      "town": "口湖鄉",
      "name": "宜梧",
      "temp": 27.3,
      "at": 32.92710081330555,
      "lat": 23.538014,
      "lon": 120.1612
    },
    {
      "city": "嘉義縣",
      "town": "義竹鄉",
      "name": "東後寮",
      "temp": 26.1,
      "at": 31.732941160270123,
      "lat": 23.371644,
      "lon": 120.239936
    },
    {
      "city": "臺南市",
      "town": "東山區",
      "name": "東河",
      "temp": 25.7,
      "at": 30.826023531085525,
      "lat": 23.298339,
      "lon": 120.377492
    },
    {
      "city": "臺南市",
      "town": "佳里區",
      "name": "佳里",
      "temp": 26.6,
      "at": 31.99450705806938,
      "lat": 23.175,
      "lon": 120.136667
    },
    {
      "city": "臺南市",
      "town": "白河區",
      "name": "白河",
      "temp": 25.0,
      "at": 29.67858742125142,
      "lat": 23.349228,
      "lon": 120.406328
    },
    {
      "city": "嘉義縣",
      "town": "番路鄉",
      "name": "番路",
      "temp": 25.9,
      "at": 29.235157689531526,
      "lat": 23.466408,
      "lon": 120.546028
    },
    {
      "city": "臺南市",
      "town": "新營區",
      "name": "新營",
      "temp": 27.2,
      "at": 32.574668232904216,
      "lat": 23.312447,
      "lon": 120.308586
    },
    {
      "city": "臺南市",
      "town": "將軍區",
      "name": "將軍",
      "temp": 26.9,
      "at": 32.62399335858551,
      "lat": 23.216733,
      "lon": 120.127656
    },
    {
      "city": "雲林縣",
      "town": "褒忠鄉",
      "name": "褒忠",
      "temp": 25.8,
      "at": 29.838023084305654,
      "lat": 23.692672,
      "lon": 120.295503
    },
    {
      "city": "嘉義縣",
      "town": "溪口鄉",
      "name": "溪口",
      "temp": 25.9,
      "at": 30.904382919856566,
      "lat": 23.605872,
      "lon": 120.395439
    },
    {
      "city": "雲林縣",
      "town": "二崙鄉",
      "name": "二崙",
      "temp": 26.4,
      "at": 30.527346763526808,
      "lat": 23.77455,
      "lon": 120.400811
    },
    {
      "city": "嘉義縣",
      "town": "竹崎鄉",
      "name": "竹崎",
      "temp": 24.7,
      "at": 28.244532521821284,
      "lat": 23.527931,
      "lon": 120.547378
    },
    {
      "city": "嘉義縣",
      "town": "中埔鄉",
      "name": "中埔",
      "temp": 26.1,
      "at": 30.554324485500324,
      "lat": 23.427144,
      "lon": 120.514797
    },
    {
      "city": "臺南市",
      "town": "鹽水區",
      "name": "鹽水",
      "temp": 26.1,
      "at": 30.880458936967493,
      "lat": 23.274339,
      "lon": 120.239506
    },
    {
      "city": "臺南市",
      "town": "學甲區",
      "name": "學甲",
      "temp": 26.7,
      "at": 31.84060301293396,
      "lat": 23.2321,
      "lon": 120.174072
    },
    {
      "city": "臺南市",
      "town": "後壁區",
      "name": "後壁",
      "temp": 26.0,
      "at": 30.530447114189663,
      "lat": 23.368094,
      "lon": 120.354211
    },
    {
      "city": "雲林縣",
      "town": "西螺鎮",
      "name": "西螺",
      "temp": 26.5,
      "at": 30.885337950107022,
      "lat": 23.80215,
      "lon": 120.459253
    },
    {
      "city": "雲林縣",
      "town": "土庫鎮",
      "name": "土庫",
      "temp": 25.8,
      "at": 30.258023084305655,
      "lat": 23.680772,
      "lon": 120.387436
    },
    {
      "city": "嘉義縣",
      "town": "大林鎮",
      "name": "大林",
      "temp": 26.7,
      "at": 30.8982073137556,
      "lat": 23.602361,
      "lon": 120.450281
    },
    {
      "city": "嘉義縣",
      "town": "東石鄉",
      "name": "東石",
      "temp": 28.1,
      "at": 32.67488845384447,
      "lat": 23.460653,
      "lon": 120.145722
    },
    {
      "city": "嘉義縣",
      "town": "水上鄉",
      "name": "水上",
      "temp": 25.1,
      "at": 29.485772476932844,
      "lat": 23.421475,
      "lon": 120.380792
    },
    {
      "city": "嘉義市",
      "town": "東區",
      "name": "嘉義市東區",
      "temp": 26.2,
      "at": 31.123314200543,
      "lat": 23.459414,
      "lon": 120.452408
    },
    {
      "city": "臺南市",
      "town": "白河區",
      "name": "關子嶺",
      "temp": 23.5,
      "at": 27.82032139799248,
      "lat": 23.332933,
      "lon": 120.499931
    },
    {
      "city": "臺南市",
      "town": "新化區",
      "name": "虎頭埤",
      "temp": 24.1,
      "at": 27.84076362973641,
      "lat": 23.023139,
      "lon": 120.339806
    },
    {
      "city": "臺南市",
      "town": "歸仁區",
      "name": "媽廟",
      "temp": 25.8,
      "at": 32.40089930089251,
      "lat": 22.993514,
      "lon": 120.285431
    },
    {
      "city": "臺南市",
      "town": "龍崎區",
      "name": "崎頂",
      "temp": 25.4,
      "at": 30.939115753913697,
      "lat": 22.961306,
      "lon": 120.361194
    },
    {
      "city": "臺南市",
      "town": "新市區",
      "name": "新市",
      "temp": 26.6,
      "at": 33.025377874024876,
      "lat": 23.063556,
      "lon": 120.290417
    },
    {
      "city": "臺南市",
      "town": "南化區",
      "name": "北寮",
      "temp": 25.2,
      "at": 30.904195003004403,
      "lat": 23.081611,
      "lon": 120.486944
    },
    {
      "city": "臺南市",
      "town": "善化區",
      "name": "善化",
      "temp": 26.1,
      "at": 32.69287005348069,
      "lat": 23.114444,
      "lon": 120.289444
    },
    {
      "city": "高雄市",
      "town": "桃源區",
      "name": "復興",
      "temp": 19.8,
      "at": 22.297679870888715,
      "lat": 23.224167,
      "lon": 120.797778
    },
    {
      "city": "臺南市",
      "town": "六甲區",
      "name": "王爺宮",
      "temp": 26.0,
      "at": 30.01810073678549,
      "lat": 23.223828,
      "lon": 120.392758
    },
    {
      "city": "臺南市",
      "town": "大內區",
      "name": "大內",
      "temp": 25.7,
      "at": 31.461098041108627,
      "lat": 23.120611,
      "lon": 120.35275
    },
    {
      "city": "高雄市",
      "town": "阿蓮區",
      "name": "阿蓮",
      "temp": 26.6,
      "at": 31.727119505935867,
      "lat": 22.884944,
      "lon": 120.319528
    },
    {
      "city": "臺南市",
      "town": "北區",
      "name": "臺南市北區",
      "temp": 27.1,
      "at": 32.19970821142589,
      "lat": 23.012167,
      "lon": 120.186333
    },
    {
      "city": "臺南市",
      "town": "南區",
      "name": "臺南市南區",
      "temp": 26.7,
      "at": 32.272519572276664,
      "lat": 22.963028,
      "lon": 120.180417
    },
    {
      "city": "臺南市",
      "town": "安平區",
      "name": "安平",
      "temp": 27.3,
      "at": 32.38773815290428,
      "lat": 22.994972,
      "lon": 120.144111
    },
    {
      "city": "臺南市",
      "town": "麻豆區",
      "name": "麻豆",
      "temp": 27.0,
      "at": 31.595680104690906,
      "lat": 23.185056,
      "lon": 120.2405
    },
    {
      "city": "臺南市",
      "town": "安定區",
      "name": "安定",
      "temp": 26.4,
      "at": 32.08992150009294,
      "lat": 23.104417,
      "lon": 120.219972
    },
    {
      "city": "臺南市",
      "town": "山上區",
      "name": "山上",
      "temp": 25.2,
      "at": 30.448724843397976,
      "lat": 23.077444,
      "lon": 120.355194
    },
    {
      "city": "臺南市",
      "town": "關廟區",
      "name": "關廟",
      "temp": 26.1,
      "at": 31.189217825316163,
      "lat": 22.964861,
      "lon": 120.319722
    },
    {
      "city": "臺南市",
      "town": "官田區",
      "name": "官田",
      "temp": 26.1,
      "at": 32.31411116513201,
      "lat": 23.195028,
      "lon": 120.307528
    },
    {
      "city": "臺南市",
      "town": "西港區",
      "name": "西港",
      "temp": 26.5,
      "at": 31.350375500118915,
      "lat": 23.127417,
      "lon": 120.195083
    },
    {
      "city": "臺南市",
      "town": "仁德區",
      "name": "仁德",
      "temp": 26.6,
      "at": 32.91081328200262,
      "lat": 22.970111,
      "lon": 120.249778
    },
    {
      "city": "臺南市",
      "town": "左鎮區",
      "name": "左鎮",
      "temp": 25.9,
      "at": 31.904124663298248,
      "lat": 23.058528,
      "lon": 120.400444
    },
    {
      "city": "嘉義縣",
      "town": "大埔鄉",
      "name": "表湖",
      "temp": 21.4,
      "at": 24.598876711974594,
      "lat": 23.243628,
      "lon": 120.633564
    },
    {
      "city": "屏東縣",
      "town": "泰武鄉",
      "name": "舊泰武",
      "temp": 22.8,
      "at": 26.05241511034413,
      "lat": 22.58995,
      "lon": 120.656922
    },
    {
      "city": "高雄市",
      "town": "茂林區",
      "name": "萬山",
      "temp": 23.2,
      "at": 26.80504250000345,
      "lat": 22.907694,
      "lon": 120.68
    },
    {
      "city": "高雄市",
      "town": "六龜區",
      "name": "六龜",
      "temp": 23.9,
      "at": 28.68360534711576,
      "lat": 22.99975,
      "lon": 120.625528
    },
    {
      "city": "屏東縣",
      "town": "里港鄉",
      "name": "里港",
      "temp": 25.7,
      "at": 30.8624549038338,
      "lat": 22.780972,
      "lon": 120.486528
    },
    {
      "city": "高雄市",
      "town": "左營區",
      "name": "左營",
      "temp": 26.5,
      "at": 31.34091019455675,
      "lat": 22.676689,
      "lon": 120.27685
    },
    {
      "city": "屏東縣",
      "town": "東港鎮",
      "name": "東港",
      "temp": 26.4,
      "at": 31.08734676352681,
      "lat": 22.464244,
      "lon": 120.432703
    },
    {
      "city": "屏東縣",
      "town": "竹田鄉",
      "name": "竹田",
      "temp": 26.3,
      "at": 32.60066641525993,
      "lat": 22.586642,
      "lon": 120.535392
    },
    {
      "city": "屏東縣",
      "town": "萬丹鄉",
      "name": "萬丹",
      "temp": 25.8,
      "at": 30.695173570940398,
      "lat": 22.590256,
      "lon": 120.477031
    },
    {
      "city": "屏東縣",
      "town": "霧臺鄉",
      "name": "阿禮",
      "temp": 20.4,
      "at": 22.353305845991304,
      "lat": 22.744444,
      "lon": 120.735556
    },
    {
      "city": "屏東縣",
      "town": "瑪家鄉",
      "name": "瑪家",
      "temp": 22.2,
      "at": 25.774461578362885,
      "lat": 22.684722,
      "lon": 120.678889
    },
    {
      "city": "高雄市",
      "town": "大樹區",
      "name": "溪埔",
      "temp": 23.9,
      "at": 29.561965881827334,
      "lat": 22.740278,
      "lon": 120.438611
    },
    {
      "city": "高雄市",
      "town": "燕巢區",
      "name": "阿公店",
      "temp": 26.1,
      "at": 33.00162894182937,
      "lat": 22.805944,
      "lon": 120.347444
    },
    {
      "city": "高雄市",
      "town": "內門區",
      "name": "內門",
      "temp": 24.4,
      "at": 29.75220640845201,
      "lat": 22.976944,
      "lon": 120.458333
    },
    {
      "city": "高雄市",
      "town": "田寮區",
      "name": "古亭坑",
      "temp": 24.3,
      "at": 29.726390040360037,
      "lat": 22.895,
      "lon": 120.393889
    },
    {
      "city": "高雄市",
      "town": "鳳山區",
      "name": "鳳山",
      "temp": 25.7,
      "at": 31.608384315658277,
      "lat": 22.648611,
      "lon": 120.348056
    },
    {
      "city": "屏東縣",
      "town": "鹽埔鄉",
      "name": "鹽埔",
      "temp": 25.1,
      "at": 30.29061782994298,
      "lat": 22.741342,
      "lon": 120.522697
    },
    {
      "city": "高雄市",
      "town": "小港區",
      "name": "鳳森",
      "temp": 24.7,
      "at": 30.24831537319585,
      "lat": 22.546944,
      "lon": 120.3845
    },
    {
      "city": "屏東縣",
      "town": "萬巒鄉",
      "name": "赤山",
      "temp": 24.9,
      "at": 30.325303637098337,
      "lat": 22.594139,
      "lon": 120.60625
    },
    {
      "city": "屏東縣",
      "town": "內埔鄉",
      "name": "三地門",
      "temp": 25.1,
      "at": 27.84185500586186,
      "lat": 22.711667,
      "lon": 120.631889
    },
    {
      "city": "屏東縣",
      "town": "潮州鎮",
      "name": "潮州",
      "temp": 25.4,
      "at": 31.25584527297798,
      "lat": 22.536139,
      "lon": 120.531972
    },
    {
      "city": "高雄市",
      "town": "新興區",
      "name": "新興",
      "temp": 26.4,
      "at": 32.01379668825999,
      "lat": 22.629111,
      "lon": 120.290583
    },
    {
      "city": "高雄市",
      "town": "湖內區",
      "name": "湖內",
      "temp": 25.6,
      "at": 31.25618108244761,
      "lat": 22.888889,
      "lon": 120.236444
    },
    {
      "city": "高雄市",
      "town": "永安區",
      "name": "永安",
      "temp": 25.9,
      "at": 31.384060099158667,
      "lat": 22.824944,
      "lon": 120.228806
    },
    {
      "city": "高雄市",
      "town": "大社區",
      "name": "大社",
      "temp": 27.2,
      "at": 33.642668411336345,
      "lat": 22.731944,
      "lon": 120.338583
    },
    {
      "city": "高雄市",
      "town": "梓官區",
      "name": "梓官",
      "temp": 25.8,
      "at": 30.585885949281717,
      "lat": 22.762444,
      "lon": 120.25925
    },
    {
      "city": "高雄市",
      "town": "路竹區",
      "name": "路竹",
      "temp": 27.6,
      "at": 34.51394800203609,
      "lat": 22.856639,
      "lon": 120.251361
    },
    {
      "city": "高雄市",
      "town": "茄萣區",
      "name": "茄萣",
      "temp": 26.8,
      "at": 32.858538880112185,
      "lat": 22.908444,
      "lon": 120.174583
    },
    {
      "city": "高雄市",
      "town": "岡山區",
      "name": "岡山",
      "temp": 26.5,
      "at": 31.91037550011891,
      "lat": 22.798844,
      "lon": 120.286889
    },
    {
      "city": "高雄市",
      "town": "彌陀區",
      "name": "彌陀",
      "temp": 26.0,
      "at": 31.70220689724279,
      "lat": 22.785583,
      "lon": 120.238278
    },
    {
      "city": "高雄市",
      "town": "橋頭區",
      "name": "橋頭",
      "temp": 26.2,
      "at": 31.599011207538688,
      "lat": 22.759583,
      "lon": 120.297694
    },
    {
      "city": "高雄市",
      "town": "仁武區",
      "name": "仁武",
      "temp": 27.0,
      "at": 32.73839477019434,
      "lat": 22.702861,
      "lon": 120.339667
    },
    {
      "city": "高雄市",
      "town": "三民區",
      "name": "三民",
      "temp": 27.3,
      "at": 33.61455145491064,
      "lat": 22.646917,
      "lon": 120.303278
    },
    {
      "city": "高雄市",
      "town": "鼓山區",
      "name": "鼓山",
      "temp": 27.0,
      "at": 32.41110943569778,
      "lat": 22.625139,
      "lon": 120.2675
    },
    {
      "city": "高雄市",
      "town": "苓雅區",
      "name": "苓雅",
      "temp": 26.8,
      "at": 32.976702860769066,
      "lat": 22.624528,
      "lon": 120.322583
    },
    {
      "city": "高雄市",
      "town": "旗山區",
      "name": "旗山",
      "temp": 25.4,
      "at": 29.565468158592303,
      "lat": 22.890389,
      "lon": 120.475528
    },
    {
      "city": "屏東縣",
      "town": "長治鄉",
      "name": "長治",
      "temp": 26.1,
      "at": 32.12418227192145,
      "lat": 22.694833,
      "lon": 120.534611
    },
    {
      "city": "屏東縣",
      "town": "麟洛鄉",
      "name": "麟洛",
      "temp": 26.0,
      "at": 32.26631305770008,
      "lat": 22.652556,
      "lon": 120.519139
    },
    {
      "city": "屏東縣",
      "town": "南州鄉",
      "name": "南州",
      "temp": 26.7,
      "at": 32.57728000235882,
      "lat": 22.487694,
      "lon": 120.494694
    },
    {
      "city": "屏東縣",
      "town": "佳冬鄉",
      "name": "佳冬",
      "temp": 25.7,
      "at": 31.41516862928414,
      "lat": 22.421194,
      "lon": 120.544222
    },
    {
      "city": "屏東縣",
      "town": "高樹鄉",
      "name": "高樹",
      "temp": 26.1,
      "at": 32.00045893696749,
      "lat": 22.828222,
      "lon": 120.592722
    },
    {
      "city": "高雄市",
      "town": "大寮區",
      "name": "大寮",
      "temp": 26.2,
      "at": 31.710910209870583,
      "lat": 22.607389,
      "lon": 120.387667
    },
    {
      "city": "屏東縣",
      "town": "新園鄉",
      "name": "新園",
      "temp": 26.9,
      "at": 32.95059328479201,
      "lat": 22.545194,
      "lon": 120.4535
    },
    {
      "city": "彰化縣",
      "town": "溪州鄉",
      "name": "溪州",
      "temp": 25.6,
      "at": 29.558169272722765,
      "lat": 23.853347,
      "lon": 120.490944
    },
    {
      "city": "雲林縣",
      "town": "斗南鎮",
      "name": "斗南",
      "temp": 26.6,
      "at": 30.848861137846868,
      "lat": 23.680478,
      "lon": 120.470231
    },
    {
      "city": "雲林縣",
      "town": "斗六市",
      "name": "斗六",
      "temp": 27.4,
      "at": 31.55447742594089,
      "lat": 23.722303,
      "lon": 120.532972
    },
    {
      "city": "嘉義縣",
      "town": "朴子市",
      "name": "朴子",
      "temp": 25.3,
      "at": 29.51883892095462,
      "lat": 23.436364,
      "lon": 120.230928
    },
    {
      "city": "雲林縣",
      "town": "北港鎮",
      "name": "北港",
      "temp": 26.0,
      "at": 30.291033708540702,
      "lat": 23.575803,
      "lon": 120.283672
    },
    {
      "city": "嘉義縣",
      "town": "太保市",
      "name": "太保",
      "temp": 26.0,
      "at": 30.769860519838616,
      "lat": 23.456792,
      "lon": 120.323303
    },
    {
      "city": "雲林縣",
      "town": "林內鄉",
      "name": "林內",
      "temp": 24.7,
      "at": 29.116910806958735,
      "lat": 23.750436,
      "lon": 120.601508
    },
    {
      "city": "彰化縣",
      "town": "大城鄉",
      "name": "大城",
      "temp": 25.9,
      "at": 29.734576612275312,
      "lat": 23.854225,
      "lon": 120.312789
    },
    {
      "city": "嘉義縣",
      "town": "民雄鄉",
      "name": "民雄",
      "temp": 26.3,
      "at": 31.265063605125896,
      "lat": 23.553497,
      "lon": 120.420331
    },
    {
      "city": "雲林縣",
      "town": "大埤鄉",
      "name": "大埤",
      "temp": 25.9,
      "at": 30.584447483996144,
      "lat": 23.647817,
      "lon": 120.4234
    },
    {
      "city": "雲林縣",
      "town": "莿桐鄉",
      "name": "莿桐",
      "temp": 26.4,
      "at": 30.197996989327258,
      "lat": 23.762947,
      "lon": 120.494247
    },
    {
      "city": "雲林縣",
      "town": "臺西鄉",
      "name": "臺西",
      "temp": 26.6,
      "at": 31.567990321891365,
      "lat": 23.703283,
      "lon": 120.189422
    },
    {
      "city": "雲林縣",
      "town": "水林鄉",
      "name": "水林",
      "temp": 26.0,
      "at": 31.153380085944875,
      "lat": 23.574658,
      "lon": 120.237839
    },
    {
      "city": "雲林縣",
      "town": "元長鄉",
      "name": "元長",
      "temp": 26.1,
      "at": 30.406735602013534,
      "lat": 23.644608,
      "lon": 120.311544
    },
    {
      "city": "嘉義縣",
      "town": "布袋鎮",
      "name": "布袋",
      "temp": 26.8,
      "at": 30.881194802739692,
      "lat": 23.382611,
      "lon": 120.159667
    },
    {
      "city": "嘉義縣",
      "town": "鹿草鄉",
      "name": "鹿草",
      "temp": 26.4,
      "at": 30.941221951693848,
      "lat": 23.413075,
      "lon": 120.300231
    },
    {
      "city": "嘉義縣",
      "town": "六腳鄉",
      "name": "六腳",
      "temp": 26.2,
      "at": 31.011415198211104,
      "lat": 23.494611,
      "lon": 120.2825
    },
    {
      "city": "嘉義縣",
      "town": "新港鄉",
      "name": "新港",
      "temp": 25.9,
      "at": 31.70399553501909,
      "lat": 23.555011,
      "lon": 120.3376
    },
    {
      "city": "嘉義縣",
      "town": "梅山鄉",
      "name": "梅山",
      "temp": 27.5,
      "at": 31.591273755487094,
      "lat": 23.587147,
      "lon": 120.547464
    },
    {
      "city": "嘉義縣",
      "town": "阿里山鄉",
      "name": "達邦",
      "temp": 19.1,
      "at": 22.01464802803258,
      "lat": 23.455769,
      "lon": 120.741403
    },
    {
      "city": "臺南市",
      "town": "白河區",
      "name": "鹿寮",
      "temp": 24.1,
      "at": 29.343399380055722,
      "lat": 23.387811,
      "lon": 120.469225
    },
    {
      "city": "嘉義縣",
      "town": "阿里山鄉",
      "name": "茶山",
      "temp": 21.9,
      "at": 25.329316583725245,
      "lat": 23.300847,
      "lon": 120.656664
    },
    {
      "city": "雲林縣",
      "town": "古坑鄉",
      "name": "棋山",
      "temp": 24.9,
      "at": 29.913671144382313,
      "lat": 23.688211,
      "lon": 120.595289
    },
    {
      "city": "雲林縣",
      "town": "水林鄉",
      "name": "蔦松",
      "temp": 25.7,
      "at": 30.879239217459656,
      "lat": 23.516064,
      "lon": 120.221625
    },
    {
      "city": "臺南市",
      "town": "北門區",
      "name": "北門",
      "temp": 27.2,
      "at": 32.59266841133635,
      "lat": 23.269517,
      "lon": 120.117367
    },
    {
      "city": "雲林縣",
      "town": "口湖鄉",
      "name": "口湖工作站",
      "temp": 26.4,
      "at": 31.17379668825999,
      "lat": 23.591722,
      "lon": 120.172281
    },
    {
      "city": "屏東縣",
      "town": "東港鎮",
      "name": "東港工作站",
      "temp": 25.7,
      "at": 31.562454903833796,
      "lat": 22.481778,
      "lon": 120.458017
    },
    {
      "city": "屏東縣",
      "town": "車城鄉",
      "name": "恆春工作站",
      "temp": 27.6,
      "at": 31.969228441372785,
      "lat": 22.081478,
      "lon": 120.706406
    },
    {
      "city": "南投縣",
      "town": "仁愛鄉",
      "name": "萬大發電廠",
      "temp": 19.2,
      "at": 22.157808319171448,
      "lat": 23.980611,
      "lon": 121.131497
    },
    {
      "city": "新北市",
      "town": "新店區",
      "name": "新北",
      "temp": 25.1,
      "at": 31.0251538889734,
      "lat": 24.96099,
      "lon": 121.516977
    },
    {
      "city": "新北市",
      "town": "淡水區",
      "name": "淡水",
      "temp": 27.6,
      "at": 31.940396704974795,
      "lat": 25.166664,
      "lon": 121.440672
    },
    {
      "city": "臺北市",
      "town": "北投區",
      "name": "鞍部",
      "temp": 21.6,
      "at": 24.06719906058962,
      "lat": 25.184365,
      "lon": 121.521495
    },
    {
      "city": "臺北市",
      "town": "中正區",
      "name": "臺北",
      "temp": 27.9,
      "at": 32.93270436136838,
      "lat": 25.039439,
      "lon": 121.506628
    },
    {
      "city": "臺北市",
      "town": "北投區",
      "name": "陽明山",
      "temp": 23.8,
      "at": 26.510937035901755,
      "lat": 25.163858,
      "lon": 121.536313
    },
    {
      "city": "基隆市",
      "town": "仁愛區",
      "name": "基隆",
      "temp": 28.3,
      "at": 31.479022375551274,
      "lat": 25.135104,
      "lon": 121.732242
    },
    {
      "city": "基隆市",
      "town": "中正區",
      "name": "彭佳嶼",
      "temp": 27.4,
      "at": 27.77534803654051,
      "lat": 25.629774,
      "lon": 122.071474
    },
    {
      "city": "花蓮縣",
      "town": "花蓮市",
      "name": "花蓮",
      "temp": 27.2,
      "at": 31.962668411336345,
      "lat": 23.976933,
      "lon": 121.605126
    },
    {
      "city": "桃園市",
      "town": "新屋區",
      "name": "新屋",
      "temp": 28.5,
      "at": 28.29966468915591,
      "lat": 25.008484,
      "lon": 121.039271
    },
    {
      "city": "宜蘭縣",
      "town": "宜蘭市",
      "name": "宜蘭",
      "temp": 27.0,
      "at": 32.52653876670465,
      "lat": 24.765773,
      "lon": 121.748322
    },
    {
      "city": "金門縣",
      "town": "金城鎮",
      "name": "金門",
      "temp": 26.9,
      "at": 32.623592915824545,
      "lat": 24.408942,
      "lon": 118.281127
    },
    {
      "city": "彰化縣",
      "town": "田中鎮",
      "name": "田中",
      "temp": 27.1,
      "at": 31.50996571576006,
      "lat": 23.875561,
      "lon": 120.573149
    },
    {
      "city": "苗栗縣",
      "town": "造橋鄉",
      "name": "後龍",
      "temp": 27.5,
      "at": 29.47739599494824,
      "lat": 24.650318,
      "lon": 120.823641
    },
    {
      "city": "雲林縣",
      "town": "古坑鄉",
      "name": "古坑",
      "temp": 25.8,
      "at": 31.09802308430565,
      "lat": 23.635298,
      "lon": 120.543786
    },
    {
      "city": "澎湖縣",
      "town": "望安鄉",
      "name": "東吉島",
      "temp": 27.7,
      "at": 30.67203625807992,
      "lat": 23.258999,
      "lon": 119.659533
    },
    {
      "city": "澎湖縣",
      "town": "馬公市",
      "name": "澎湖",
      "temp": 27.4,
      "at": 32.625721155368915,
      "lat": 23.56722,
      "lon": 119.554987
    },
    {
      "city": "臺南市",
      "town": "中西區",
      "name": "臺南",
      "temp": 26.8,
      "at": 31.091194802739693,
      "lat": 22.995039,
      "lon": 120.196846
    },
    {
      "city": "臺南市",
      "town": "永康區",
      "name": "永康",
      "temp": 26.5,
      "at": 30.500910194556752,
      "lat": 23.040146,
      "lon": 120.228623
    },
    {
      "city": "高雄市",
      "town": "楠梓區",
      "name": "高雄",
      "temp": 25.0,
      "at": 30.898153855477062,
      "lat": 22.732201,
      "lon": 120.304459
    },
    {
      "city": "嘉義市",
      "town": "西區",
      "name": "嘉義",
      "temp": 25.8,
      "at": 31.263748814257767,
      "lat": 23.497684,
      "lon": 120.424796
    },
    {
      "city": "臺中市",
      "town": "北區",
      "name": "臺中",
      "temp": 26.9,
      "at": 31.38799409652045,
      "lat": 24.147494,
      "lon": 120.675919
    },
    {
      "city": "嘉義縣",
      "town": "阿里山鄉",
      "name": "阿里山",
      "temp": 13.0,
      "at": 13.183819783304845,
      "lat": 23.509984,
      "lon": 120.805129
    },
    {
      "city": "臺東縣",
      "town": "大武鄉",
      "name": "大武",
      "temp": 30.5,
      "at": 31.674892074683314,
      "lat": 22.357523,
      "lon": 120.895703
    },
    {
      "city": "南投縣",
      "town": "信義鄉",
      "name": "玉山",
      "temp": 6.2,
      "at": 2.0738087506556058,
      "lat": 23.488964,
      "lon": 120.951318
    },
    {
      "city": "新竹縣",
      "town": "竹北市",
      "name": "新竹",
      "temp": 28.3,
      "at": 32.56946148052922,
      "lat": 24.830335,
      "lon": 121.006343
    },
    {
      "city": "屏東縣",
      "town": "恆春鎮",
      "name": "恆春",
      "temp": 27.6,
      "at": 33.69658822170444,
      "lat": 22.0057,
      "lon": 120.738326
    },
    {
      "city": "臺東縣",
      "town": "成功鎮",
      "name": "成功",
      "temp": 26.2,
      "at": 30.68901120753869,
      "lat": 23.099296,
      "lon": 121.36534
    },
    {
      "city": "臺東縣",
      "town": "蘭嶼鄉",
      "name": "蘭嶼",
      "temp": 25.6,
      "at": 21.920186987310032,
      "lat": 22.038737,
      "lon": 121.55041
    },
    {
      "city": "南投縣",
      "town": "魚池鄉",
      "name": "日月潭",
      "temp": 20.8,
      "at": 23.463712111759964,
      "lat": 23.883099,
      "lon": 120.899911
    },
    {
      "city": "臺東縣",
      "town": "臺東市",
      "name": "臺東",
      "temp": 27.9,
      "at": 33.0190907272774,
      "lat": 22.754017,
      "lon": 121.146522
    },
    {
      "city": "連江縣",
      "town": "南竿鄉",
      "name": "馬祖",
      "temp": 26.2,
      "at": 27.636607216866274,
      "lat": 26.171145,
      "lon": 119.914855
    },
    {
      "city": "高雄市",
      "town": "旗津區",
      "name": "東沙島",
      "temp": 28.5,
      "at": 32.39162696668595,
      "lat": 20.70252,
      "lon": 116.722116
    },
    {
      "city": "新北市",
      "town": "樹林區",
      "name": "桃改樹林分場",
      "temp": 26.1,
      "at": 31.02425337871089,
      "lat": 24.946279,
      "lon": 121.378755
    },
    {
      "city": "桃園市",
      "town": "新屋區",
      "name": "桃園農改",
      "temp": 28.4,
      "at": 30.2597020310293,
      "lat": 24.952721,
      "lon": 121.022375
    },
    {
      "city": "新竹縣",
      "town": "新埔鎮",
      "name": "桃改新埔分場",
      "temp": 27.5,
      "at": 29.452804315352374,
      "lat": 24.836,
      "lon": 121.058
    },
    {
      "city": "彰化縣",
      "town": "大村鄉",
      "name": "臺中農改",
      "temp": 26.5,
      "at": 31.647017133444322,
      "lat": 24.004779,
      "lon": 120.526236
    },
    {
      "city": "南投縣",
      "town": "魚池鄉",
      "name": "中改埔里分場",
      "temp": 21.0,
      "at": 25.021591643980983,
      "lat": 23.904982,
      "lon": 120.955222
    },
    {
      "city": "雲林縣",
      "town": "斗南鎮",
      "name": "南改斗南分場",
      "temp": 25.9,
      "at": 31.404253791577403,
      "lat": 23.636304,
      "lon": 120.469202
    },
    {
      "city": "嘉義縣",
      "town": "義竹鄉",
      "name": "南改義竹分場",
      "temp": 26.2,
      "at": 30.66141519821111,
      "lat": 23.362432,
      "lon": 120.271244
    },
    {
      "city": "嘉義縣",
      "town": "鹿草鄉",
      "name": "南改鹿草分場",
      "temp": 26.5,
      "at": 31.62091019455675,
      "lat": 23.418608,
      "lon": 120.274941
    },
    {
      "city": "臺南市",
      "town": "新化區",
      "name": "臺南農改",
      "temp": 25.3,
      "at": 29.166642500488962,
      "lat": 23.062242,
      "lon": 120.334096
    },
    {
      "city": "臺南市",
      "town": "七股區",
      "name": "七股研究中心",
      "temp": 28.1,
      "at": 33.31512691500762,
      "lat": 23.083472,
      "lon": 120.054792
    },
    {
      "city": "屏東縣",
      "town": "長治鄉",
      "name": "高雄農改",
      "temp": 24.9,
      "at": 30.431698221645668,
      "lat": 22.711084,
      "lon": 120.517814
    },
    {
      "city": "臺東縣",
      "town": "卑南鄉",
      "name": "東改班鳩分場",
      "temp": 25.0,
      "at": 30.06746853966166,
      "lat": 22.831307,
      "lon": 121.069619
    },
    {
      "city": "臺東縣",
      "town": "卑南鄉",
      "name": "東改賓朗果園",
      "temp": 23.5,
      "at": 28.646712683596462,
      "lat": 22.815668,
      "lon": 121.063204
    },
    {
      "city": "花蓮縣",
      "town": "吉安鄉",
      "name": "花蓮農改",
      "temp": 26.3,
      "at": 32.65554585323313,
      "lat": 23.977028,
      "lon": 121.555752
    },
    {
      "city": "宜蘭縣",
      "town": "三星鄉",
      "name": "花改蘭陽分場",
      "temp": 27.2,
      "at": 32.252001605889134,
      "lat": 24.688121,
      "lon": 121.708402
    },
    {
      "city": "高雄市",
      "town": "旗山區",
      "name": "高改旗南分場",
      "temp": 25.1,
      "at": 31.479689948003816,
      "lat": 22.859612,
      "lon": 120.508583
    },
    {
      "city": "新北市",
      "town": "石碇區",
      "name": "茶改北部分場",
      "temp": 23.7,
      "at": 27.680224436353143,
      "lat": 24.957588,
      "lon": 121.623022
    },
    {
      "city": "桃園市",
      "town": "楊梅區",
      "name": "茶改場",
      "temp": 26.7,
      "at": 29.531530324330745,
      "lat": 24.910258,
      "lon": 121.17713
    },
    {
      "city": "南投縣",
      "town": "魚池鄉",
      "name": "茶改中部分場",
      "temp": 21.3,
      "at": 24.340164063031427,
      "lat": 23.877382,
      "lon": 120.905442
    },
    {
      "city": "南投縣",
      "town": "鹿谷鄉",
      "name": "茶改南部分場",
      "temp": 23.4,
      "at": 26.25593113323531,
      "lat": 23.76429,
      "lon": 120.732364
    },
    {
      "city": "臺東縣",
      "town": "鹿野鄉",
      "name": "茶改東部分場",
      "temp": 24.1,
      "at": 29.285854129949286,
      "lat": 22.909476,
      "lon": 121.12206
    },
    {
      "city": "臺北市",
      "town": "大安區",
      "name": "臺灣大學",
      "temp": 26.5,
      "at": 32.128696316781614,
      "lat": 25.01606,
      "lon": 121.531193
    },
    {
      "city": "臺北市",
      "town": "士林區",
      "name": "文化大學",
      "temp": 26.1,
      "at": 29.19936003889505,
      "lat": 25.137855,
      "lon": 121.531657
    },
    {
      "city": "臺中市",
      "town": "和平區",
      "name": "武陵",
      "temp": 16.4,
      "at": 18.295890148318527,
      "lat": 24.354609,
      "lon": 121.300112
    },
    {
      "city": "彰化縣",
      "town": "彰化市",
      "name": "彰師大",
      "temp": 27.0,
      "at": 32.36011209422182,
      "lat": 24.08314,
      "lon": 120.548508
    },
    {
      "city": "雲林縣",
      "town": "麥寮鄉",
      "name": "麥寮",
      "temp": 27.2,
      "at": 31.53066829238159,
      "lat": 23.800517,
      "lon": 120.209572
    },
    {
      "city": "花蓮縣",
      "town": "秀林鄉",
      "name": "合歡山",
      "temp": 11.7,
      "at": 6.856017230637777,
      "lat": 24.144972,
      "lon": 121.276071
    },
    {
      "city": "桃園市",
      "town": "中壢區",
      "name": "農工中心",
      "temp": 27.6,
      "at": 31.575980836775805,
      "lat": 24.987706,
      "lon": 121.231626
    },
    {
      "city": "雲林縣",
      "town": "臺西鄉",
      "name": "水試臺西試驗場",
      "temp": 26.7,
      "at": 32.14536344301613,
      "lat": 23.718974,
      "lon": 120.182399
    },
    {
      "city": "雲林縣",
      "town": "古坑鄉",
      "name": "古坑(花卉中心)",
      "temp": 25.4,
      "at": 30.898927196720862,
      "lat": 23.6353,
      "lon": 120.54428
    },
    {
      "city": "雲林縣",
      "town": "虎尾鎮",
      "name": "雲林臺大",
      "temp": 26.4,
      "at": 30.774446914060448,
      "lat": 23.732381,
      "lon": 120.415777
    },
    {
      "city": "臺南市",
      "town": "後壁區",
      "name": "蘭花園區",
      "temp": 25.4,
      "at": 30.83930431110653,
      "lat": 23.342018,
      "lon": 120.371562
    },
    {
      "city": "苗栗縣",
      "town": "西湖鄉",
      "name": "畜試北區分所",
      "temp": 26.5,
      "at": 29.79144488899459,
      "lat": 24.529569,
      "lon": 120.762788
    },
    {
      "city": "臺南市",
      "town": "新化區",
      "name": "畜試所",
      "temp": 24.4,
      "at": 30.145574563836007,
      "lat": 23.060713,
      "lon": 120.328308
    },
    {
      "city": "屏東縣",
      "town": "恆春鎮",
      "name": "畜試南區分所",
      "temp": 26.8,
      "at": 30.857112812411252,
      "lat": 21.947348,
      "lon": 120.794139
    },
    {
      "city": "宜蘭縣",
      "town": "五結鄉",
      "name": "畜試東區分所",
      "temp": 27.4,
      "at": 34.52590771478312,
      "lat": 24.670842,
      "lon": 121.824362
    },
    {
      "city": "臺中市",
      "town": "梧棲區",
      "name": "梧棲",
      "temp": 27.2,
      "at": 30.69666835185896,
      "lat": 24.257753,
      "lon": 120.515211
    },
    {
      "city": "新北市",
      "town": "坪林區",
      "name": "四堵",
      "temp": 22.9,
      "at": 27.35408886193708,
      "lat": 24.894394,
      "lon": 121.737519
    },
    {
      "city": "新北市",
      "town": "烏來區",
      "name": "福山",
      "temp": 22.1,
      "at": 26.609047019213243,
      "lat": 24.778333,
      "lon": 121.494583
    },